sequence-number,place_id,CTS URN,region,route_label,route_type,text_transcription,direction,direction_type,place_transcription,place_normalized,pleiades_label,distance_unit,distance_ancient,distance-ancient,distance_modern,revised_distance,place_uri,latitude,longitude,placetype,placetype_pleiades,comment
1,,310.6-7,16. Flaminia.,Roma-Brundisium,sum-route,Ab Vrbe per Picenum Anconam et inde Brindisium usque m. p. DCXXVII:,,,Vrbe,Roma,Roma,,,,,,https://pleiades.stoa.org/places/423025,41.8916621952495,12.49234282802,,,
2,,310.6-7,16. Flaminia.,Roma-Brundisium,sum-route,Ab Vrbe per Picenum Anconam et inde Brindisium usque m. p. DCXXVII:,,,Brundisium,Brundisium,Brundisium/Brentesion,m. p.,DCXXVII, m. p. DCXXVII,,,https://pleiades.stoa.org/places/442509,40.641136,17.946867,,,
39,,315.7,16. Flaminia.,Helvillum-Ancona,sum-route,Ab Helvillo Anconam m. p. L:,,,Helvillo,Helvillo,Helvillum,,,,,,https://pleiades.stoa.org/places/413167,43.296882,12.759704,,,
40,,315.7,16. Flaminia.,Helvillum-Ancona,sum-route,Ab Helvillo Anconam m. p. L:,,,Anconam,Ancona,Ancon(a),m. p.,L, m. p. L,,,https://pleiades.stoa.org/places/413014,43.618992666666706,13.5160726666667,,,
47,,316.6,16. Flaminia.,Septempeda-Castrum Truentinum,sum-route,A Septempeda Castro Truentino m. p. LXXIII:,,,Septempeda,Septempeda,Septempeda,,,,,,https://pleiades.stoa.org/places/413314,43.2353780132057,13.1958654935314,,,
48,,316.6,16. Flaminia.,Septempeda-Castrum Truentinum,sum-route,A Septempeda Castro Truentino m. p. LXXIII:,,,Castro Truentino,Castrum Truentinum,Castrum Truentinum,m. p.,LXXIII, m. p. LXXIII,,,https://pleiades.stoa.org/places/413074,42.913675,13.904352,,,
