sequence-number,place_id,CTS URN,region,route_label,route_type,text_transcription,direction,direction_type,place_transcription,place_normalized,pleiades_label,distance_unit,distance_ancient,distance-ancient,distance_modern,revised_distance,place_uri,latitude,longitude,placetype,placetype_pleiades,comment
1,,339.7-8,21. DE ITALIA IN GALLIAS:,Mediolanum-Arelate,sum-route,A Mediolano Arelate per Alpes Gottias m. p. CCCCXI:,,,Mediolano,Mediolanum,Mediolan(i)um,,,,,,https://pleiades.stoa.org/places/383706,45.463746,9.18806,,,
2,,339.7-8,21. DE ITALIA IN GALLIAS:,Mediolanum-Arelate,sum-route,A Mediolano Arelate per Alpes Gottias m. p. CCCCXI:,,,Arelate,Arelate,Theline/Col. Arelate/Constantina,m. p.,CCCCXI, m. p. CCCCXI,,,https://pleiades.stoa.org/places/148217,43.677616,4.630799,,,
29,,344.3-4,21. DE ITALIA IN GALLIAS:,Mediolanum-Vienna-1,sum-route,Item a Mediolano per Alpes Graias Vienna m. p. CCCVIII sic:,,,Mediolano,Mediolanum,Mediolan(i)um,,,,,,https://pleiades.stoa.org/places/383706,45.463746,9.18806,,,
30,,344.3-4,21. DE ITALIA IN GALLIAS:,Mediolanum-Vienna-1,sum-route,Item a Mediolano per Alpes Graias Vienna m. p. CCCVIII sic:,,,Vienna,Vienna,Col. Vienna,m. p.,CCCVIII , m. p. CCCVIII ,,,https://pleiades.stoa.org/places/167719,45.5245105,4.875982,,,
48,,346.10-11,21. DE ITALIA IN GALLIAS:,Mediolanum-Argentorate,sum-route,Item a Mediolano per Alpes Graias Argentorato m. p. DLXXVII sic:,,,Mediolano,Mediolanum,Mediolan(i)um,,,,,,https://pleiades.stoa.org/places/383706,45.463746,9.18806,,,
49,,346.10-11,21. DE ITALIA IN GALLIAS:,Mediolanum-Argentorate,sum-route,Item a Mediolano per Alpes Graias Argentorato m. p. DLXXVII sic:,,,Argentorato,Argentorate,Argentorate,m. p.,DLXXVII , m. p. DLXXVII ,,,https://pleiades.stoa.org/places/108754,48.582416,7.747407,,,
76,,350.4-5,21. DE ITALIA IN GALLIAS:,Mediolanum-Mogontiacum,sum-route,Item a Mediolano per Alpes Penninas Mogontiacum m. p. CCCCXVIIII sic:,,,Mediolano,Mediolanum,Mediolan(i)um,,,,,,https://pleiades.stoa.org/places/383706,45.463746,9.18806,,,
77,,350.4-5,21. DE ITALIA IN GALLIAS:,Mediolanum-Mogontiacum,sum-route,Item a Mediolano per Alpes Penninas Mogontiacum m. p. CCCCXVIIII sic:,,,Mogontiacum,Mogontiacum,Mogontiacum,m. p.,CCCCXVIIII , m. p. CCCCXVIIII ,,,https://pleiades.stoa.org/places/109169,49.998912,8.273869,,,
106,,356.1-2,21. DE ITALIA IN GALLIAS:,Mediolanum-Vienna-2,sum-route,A Mediolano per Alpes Cottias Vienna m. p. CCCCVIIII,,,Mediolano,Mediolanum,Mediolan(i)um,,,,,,https://pleiades.stoa.org/places/383706,45.463746,9.18806,,,
107,,356.1-2,21. DE ITALIA IN GALLIAS:,Mediolanum-Vienna-2,sum-route,A Mediolano per Alpes Cottias Vienna m. p. CCCCVIIII,,,Vienna,Vienna,Col. Vienna,m. p.,CCCCVIIII, m. p. CCCCVIIII,,,https://pleiades.stoa.org/places/167719,45.5245105,4.875982,,,
108,,356.3-4,21. DE ITALIA IN GALLIAS:,Vienna-Durocortorum,sum-route,"inde Durocortoro m. p. CCCXXXII quae fiunt leug. CCXXI,",,,,Vienna,Col. Vienna,,,,,,https://pleiades.stoa.org/places/167719,45.5245105,4.875982,,,
109,,356.3-4,21. DE ITALIA IN GALLIAS:,Vienna-Durocortorum,sum-route,"inde Durocortoro m. p. CCCXXXII quae fiunt leug. CCXXI,",,,Durocortoro,Durocortorum,Durocortorum,m. p.|leug.,CCCXXXII|CCXXI,m. p. CCCXXXII == leug. CCXXI,,,https://pleiades.stoa.org/places/108945,49.2539525,4.0332025,,,
110,,356.5-6.7,21. DE ITALIA IN GALLIAS:,Durocortorum-Gesoriacum,sum-route,Gesoriaco m. p. CLXXIIII quae fiunt leug. CXVI:,,,,Durocortorum,Durocortorum,,,,,,https://pleiades.stoa.org/places/108945,49.2539525,4.0332025,,,
111,,356.5-6.7,21. DE ITALIA IN GALLIAS:,Durocortorum-Gesoriacum,sum-route,Gesoriaco m. p. CLXXIIII quae fiunt leug. CXVI:,,,Gesoriaco,Gesoriacum,Gesoriacum/Bononia,m. p.|leug.,CLXXIIII|CXVI, m. p. CLXXIIII == leug. CXVI,,,https://pleiades.stoa.org/places/109008,50.7256746666667,1.61483166666667,,,
158,,363.4-5,21. DE ITALIA IN GALLIAS:,Durocortorum-Divodurum-1,sum-route,Item a Durocortoro Divodorum usque m. p. LXXIIII:,,,Durocortoro,Durocortorum,Durocortorum,,,,,,https://pleiades.stoa.org/places/108945,49.2539525,4.0332025,,,
159,,363.4-5,21. DE ITALIA IN GALLIAS:,Durocortorum-Divodurum-1,sum-route,Item a Durocortoro Divodorum usque m. p. LXXIIII:,,,Divodurum,Divodurum Mediomatricorum,Divodurum/Mettis,m. p.,LXXIIII, m. p. LXXIIII,,,https://pleiades.stoa.org/places/108927,49.1181355,6.1741555,,,
167,,364.7-8,21. DE ITALIA IN GALLIAS:,Durocortorum-Divodurum-2,sum-route,Alio itinere a Durocortoro Divodorum usque m. p. LXXXVII sic:,,,Durocortoro,Durocortorum,Durocortorum,,,,,,https://pleiades.stoa.org/places/108945,49.2539525,4.0332025,,,
168,,364.7-8,21. DE ITALIA IN GALLIAS:,Durocortorum-Divodurum-2,sum-route,Alio itinere a Durocortoro Divodorum usque m. p. LXXXVII sic:,,,Divodurum,Divodurum Mediomatricorum,Divodurum/Mettis,m. p.,LXXXVII , m. p. LXXXVII ,,,https://pleiades.stoa.org/places/108927,49.1181355,6.1741555,,,
177,,365.7-8,21. DE ITALIA IN GALLIAS:,Durocortorum-Treveri,sum-route,Item a Durocortoro Treveros usque,,,Durocortoro,Durocortorum,Durocortorum,,,,,,https://pleiades.stoa.org/places/108945,49.2539525,4.0332025,,,
178,,365.7-8,21. DE ITALIA IN GALLIAS:,Durocortorum-Treveri,sum-route,Item a Durocortoro Treveros usque,,,Treveros,Treveri,Treveri,,?,?,,,https://pleiades.stoa.org/places/109390,49.7535677891071,6.37943916420393,,,
185,,366.5-6,21. DE ITALIA IN GALLIAS:,Augustodunum-Lutetia Parisiorum,sum-route,Ab Augustoduno Luticia Parisiorum m. p. CLXXXVII:,,,Augustoduno,Augustodunum,Augustodunum,,,,,,https://pleiades.stoa.org/places/177460,46.94724,4.2991775,,,
186,,366.5-6,21. DE ITALIA IN GALLIAS:,Augustodunum-Lutetia Parisiorum,sum-route,Ab Augustoduno Luticia Parisiorum m. p. CLXXXVII:,,,Luticia Parisiorum,Lutetia Parisiorum,Lutetia,m. p.,CLXXXVII, m. p. CLXXXVII,,,https://pleiades.stoa.org/places/109126,48.8544055,2.346168,,,
197,,368.3.4,21. DE ITALIA IN GALLIAS:,Lugdunum-Argentorate,sum-route,A Lugduno caput Germaniarum Argentorato:,,,Lugduno,Lugdunum,Lugdunum,,,,,,https://pleiades.stoa.org/places/99003,52.2048978,4.3965975,,,
198,,368.3.4,21. DE ITALIA IN GALLIAS:,Lugdunum-Argentorate,sum-route,A Lugduno caput Germaniarum Argentorato:,,,Argentorato,Argentorate,Argentorate,,?,?,,,https://pleiades.stoa.org/places/108754,48.582416,7.747407,,,
220,,372.3,21. DE ITALIA IN GALLIAS:,Treveri-Colonia Agrippina,sum-route,A Treveros Agrippinam leug. LXVII sic:,,,Treveros,Treveri,Treveri,,,,,,https://pleiades.stoa.org/places/109390,49.7535677891071,6.37943916420393,,,
221,,372.3,21. DE ITALIA IN GALLIAS:,Treveri-Colonia Agrippina,sum-route,A Treveros Agrippinam leug. LXVII sic:,,,Agrippinam,Colonia Agrippina,Ara Ubiorum/Col. Claudia Ara Agrippinensium,leug.,leug LXVII,leug. LXVII,,,https://pleiades.stoa.org/places/108751,50.940662,6.9599065,,,
230,,374.1,21. DE ITALIA IN GALLIAS:,Treveri-Argentorate,sum-route,Item a Treveris Argentorato m. p. CXXVIII:,,,Treveris,Treveri,Treveri,,,,,,https://pleiades.stoa.org/places/109390,49.7535677891071,6.37943916420393,,,
231,,374.1,21. DE ITALIA IN GALLIAS:,Treveri-Argentorate,sum-route,Item a Treveris Argentorato m. p. CXXVIII:,,,Argentorato,Argentorate,Argentorate,m. p.,CXXVIII, m. p. CXXVIII,,,https://pleiades.stoa.org/places/108754,48.582416,7.747407,,,
240,,375.1-2,21. DE ITALIA IN GALLIAS:,Colonia Traiana-Colonia Agrippina,sum-route,Item a Colonia Traiana Coloniam Agrippinam m. p. LXXI:,,,Colonia Traiana,Colonia Ulpia Traiana,Col. Ulpia Traiana/Tricensimae,,,,,,https://pleiades.stoa.org/places/108896,51.6679345,6.4481775,,,
241,,375.1-2,21. DE ITALIA IN GALLIAS:,Colonia Traiana-Colonia Agrippina,sum-route,Item a Colonia Traiana Coloniam Agrippinam m. p. LXXI:,,,Coloniam Agrippinam,Colonia Agrippina,Ara Ubiorum/Col. Claudia Ara Agrippinensium,m. p.,LXXI, m. p. LXXI,,,https://pleiades.stoa.org/places/108751,50.940662,6.9599065,,,
251,,376.2-3,21. DE ITALIA IN GALLIAS:,Portus Gesoricensi-Bagacum,sum-route,Item a portu Gesoricensi Bagacum  usque m. p. LXXXIII:,,,portu Gesoricensi,Gesoriacum?,Gesoriacum/Bononia,,,,,,https://pleiades.stoa.org/places/109008,50.7256746666667,1.61483166666667,,,
252,,376.2-3,21. DE ITALIA IN GALLIAS:,Portus Gesoricensi-Bagacum,sum-route,Item a portu Gesoricensi Bagacum  usque m. p. LXXXIII:,,,Bagacum,Bagacum Nerviorum,Bagacum,m. p.,LXXXIII, m. p. LXXXIII,,,https://pleiades.stoa.org/places/108788,50.2977855,3.792415,,,
260,,377.2-3,21. DE ITALIA IN GALLIAS:,Castellum Menapiorum-Turnacum,sum-route,A Castello per conpendium Turnacum usque m. p. XXXVIII:,,,Castello,Castellum Menapiorum,Castellum Menapiorum,,,,,,https://pleiades.stoa.org/places/108865,50.799218,2.486896,,,
261,,377.2-3,21. DE ITALIA IN GALLIAS:,Castellum Menapiorum-Turnacum,sum-route,A Castello per conpendium Turnacum usque m. p. XXXVIII:,,,Turnacum,Turnacum,Turnacum,m. p.,XXXVIII, m. p. XXXVIII,,,https://pleiades.stoa.org/places/109398,50.605679,3.3882855,,,
265,,377.6,21. DE ITALIA IN GALLIAS:,Castellum-Colonia Agrippina,sum-route,A Castello Colonia m. p. CLXXII:,,,Castello,Castellum Menapiorum,Castellum Menapiorum,,,,,,https://pleiades.stoa.org/places/108865,50.799218,2.486896,,,
266,,377.6,21. DE ITALIA IN GALLIAS:,Castellum-Colonia Agrippina,sum-route,A Castello Colonia m. p. CLXXII:,,,Colonia,Colonia Agrippina,Ara Ubiorum/Col. Claudia Ara Agrippinensium,m. p.,CLXXII, m. p. CLXXII,,,https://pleiades.stoa.org/places/108751,50.940662,6.9599065,,,
279,,378.9,21. DE ITALIA IN GALLIAS:,Taverna-Turnacum,sum-route,Item a Tarvenna Turnacum m. p. XLVIIII:,,,Tarvenna,Taverna,Tarvenna,,,,,,https://pleiades.stoa.org/places/109366,50.635487,2.256822,,,
280,,378.9,21. DE ITALIA IN GALLIAS:,Taverna-Turnacum,sum-route,Item a Tarvenna Turnacum m. p. XLVIIII:,,,Turnacum,Turnacum,Turnacum,m. p.,XLVIIII, m. p. XLVIIII,,,https://pleiades.stoa.org/places/109398,50.605679,3.3882855,,,
284,,379.1,21. DE ITALIA IN GALLIAS:,Taverna-Durocortorum,sum-route,Item a Tarvenna Durocortoro m. p. CIII:,,,Tarvenna,Taverna,Tarvenna,,,,,,https://pleiades.stoa.org/places/109366,50.635487,2.256822,,,
285,,379.1,21. DE ITALIA IN GALLIAS:,Taverna-Durocortorum,sum-route,Item a Tarvenna Durocortoro m. p. CIII:,,,Durocortoro,Durocortorum,Durocortorum,m. p.,CIII, m. p. CIII,,,https://pleiades.stoa.org/places/108945,49.2539525,4.0332025,,,
296,,380.1,21. DE ITALIA IN GALLIAS:,Samarobriva-Augusta Suessonum,sum-route,A Samarobrivas Suessonas usque m. p. LXXXVIIII:,,,Samarobrivas,Samarobriva,Samarobriva Ambianorum,,,,,,https://pleiades.stoa.org/places/109321,49.8936075,2.297948,,,
297,,380.1,21. DE ITALIA IN GALLIAS:,Samarobriva-Augusta Suessonum,sum-route,A Samarobrivas Suessonas usque m. p. LXXXVIIII:,,,Suessonas,Augusta Suessonum,Augusta Suessionum,m. p.,LXXXVIIII, m. p. LXXXVIIII,,,https://pleiades.stoa.org/places/108772,49.380839,3.3258515,,,
304,,380.7-8,21. DE ITALIA IN GALLIAS:,Bagacum-Durocortorum,sum-route,Item a Bagaco Nerviorum Durocortoro Remorum usque m. p. LIII:,,,Bagaco Nerviorum,Bagacum,Bagacum,,,,,,https://pleiades.stoa.org/places/108788,50.2977855,3.792415,,,
305,,380.7-8,21. DE ITALIA IN GALLIAS:,Bagacum-Durocortorum,sum-route,Item a Bagaco Nerviorum Durocortoro Remorum usque m. p. LIII:,,,Durocortoro Remorum,Durocortorum,Durocortorum,m. p.,LIII, m. p. LIII,,,https://pleiades.stoa.org/places/108945,49.2539525,4.0332025,,,
313,,381.7,21. DE ITALIA IN GALLIAS:,Caracotinum-Augustobona,sum-route,Item a Caracotino Augustobonam usque m. p. CLIII:,,,Caracotino,Caracotinum,Caracoticum,,,,,,https://pleiades.stoa.org/places/69484,49.507074,0.199338,,,
314,,381.7,21. DE ITALIA IN GALLIAS:,Caracotinum-Augustobona,sum-route,Item a Caracotino Augustobonam usque m. p. CLIII:,,,Augustobonam,Augustobona,Augustobona,m. p.,CLIII, m. p. CLIII,,,https://pleiades.stoa.org/places/108775,48.297473,4.074806,,,
327,,384.1-2,21. DE ITALIA IN GALLIAS:,Ratomagus-Lutetia Parisiorum,sum-route,Item a Ratomago Luticiam usque m. p. LXXVII:,,,Ratomago,Rotomagus,Rotomagus,,,,,,https://pleiades.stoa.org/places/109287,49.440841,1.096451,,,
328,,384.1-2,21. DE ITALIA IN GALLIAS:,Ratomagus-Lutetia Parisiorum,sum-route,Item a Ratomago Luticiam usque m. p. LXXVII:,,,Luticiam,Lutetia Parisiorum,Lutetia,m. p.,LXXVII, m. p. LXXVII,,,https://pleiades.stoa.org/places/109126,48.8544055,2.346168,,,
335,,384.8-9,21. DE ITALIA IN GALLIAS:,Caesaromagus-Lutetia Parisiorum,sum-route,Item a Caesaromago Luticiam usque m. p. XLVI:,,,Caesaromago,Caesaromagus,Caesaromagus,,,,,,https://pleiades.stoa.org/places/108844,49.4304035,2.081041,,,
336,,384.8-9,21. DE ITALIA IN GALLIAS:,Caesaromagus-Lutetia Parisiorum,sum-route,Item a Caesaromago Luticiam usque m. p. XLVI:,,,Luticiam,Lutetia Parisiorum,Lutetia,m. p.,XLVI, m. p. XLVI,,,https://pleiades.stoa.org/places/109126,48.8544055,2.346168,,,
343,,385.1,21. DE ITALIA IN GALLIAS:,Iuliobona-Durocasses,sum-route,Item a Iuliobona Durocasis m. p. LXXVIII:,,,Iuliobona,Iuliobona,Iuliobona,,,,,,https://pleiades.stoa.org/places/109069,49.5196055,0.53567465,,,
344,,385.1,21. DE ITALIA IN GALLIAS:,Iuliobona-Durocasses,sum-route,Item a Iuliobona Durocasis m. p. LXXVIII:,,,Durocasis,Durocasses,Durocasses,m. p.,LXXVIII, m. p. LXXVIII,,,https://pleiades.stoa.org/places/108943,48.737951,1.361087,,,
350,,385.6-7,21. DE ITALIA IN GALLIAS:,Andemantunnum-Tullum,sum-route,Item ab Andemantunno Tullo Leucorum usque m. p. XLIII:,,,Andemantunno,Andemantunnum,Andematunnum,,,,,,https://pleiades.stoa.org/places/177441,47.864221,5.335214,,,
351,,385.6-7,21. DE ITALIA IN GALLIAS:,Andemantunnum-Tullum,sum-route,Item ab Andemantunno Tullo Leucorum usque m. p. XLIII:,,,Tullo Leucorum,Tullum,Tullum,m. p.,XLIII, m. p. XLIII,,,https://pleiades.stoa.org/places/109396,48.679364,5.8947805,,,
356,,386.1,21. DE ITALIA IN GALLIAS:,Antemantunnum-Cambate,sum-route,Item ab Antemantunno Cambatem m. p. CII:,,,Andemantunno,Andemantunnum,Andematunnum,,,,,,https://pleiades.stoa.org/places/177441,47.864221,5.335214,,,
357,,386.1,21. DE ITALIA IN GALLIAS:,Antemantunnum-Cambate,sum-route,Item ab Antemantunno Cambatem m. p. CII:,,,Cambatem,Cambate,Cambete,m. p.,CII, m. p. CII,,,https://pleiades.stoa.org/places/177486,47.690543,7.503772,,,
363,,386.6,21. DE ITALIA IN GALLIAS:,Alauna-Condate,sum-route,Item ab Alauna Condate m. p. LXXVII:,,,Alauna,Alauna,Alauna,,,,,,https://pleiades.stoa.org/places/69463,49.507826,-1.46282,,,
364,,386.6,21. DE ITALIA IN GALLIAS:,Alauna-Condate,sum-route,Item ab Alauna Condate m. p. LXXVII:,,,Condate,Condate,Condate,m. p.,LXXVII, m. p. LXXVII,,,https://pleiades.stoa.org/places/138306,47.440796,2.937154,,,
