sequence-number,place_id,CTS URN,region,route_label,route_type,text_transcription,direction,direction_type,place_transcription,place_normalized,pleiades_label,distance_unit,distance_ancient,distance-ancient,distance_modern,revised_distance,place_uri,latitude,longitude,placetype,placetype_pleiades,comment
1,,396.1,23. HISPANIA.,Arelate-Narbo,sum-route,Item ab Arelato Narbone m. p. CI,,,Arelato,Arelate,Theline/Col. Arelate/Constantina,,,,,,https://pleiades.stoa.org/places/148217,43.677616,4.630799,,,
2,,396.1,23. HISPANIA.,Arelate-Narbo,sum-route,Item ab Arelato Narbone m. p. CI,,,Narbone,Narbo,Col. Narbo Martius,m. p.,CI, m. p. CI,,,https://pleiades.stoa.org/places/246347,43.1836165,3.004203,,,
3,,396.2,23. HISPANIA.,Narbo-Tarraco,sum-route,,,,,Narbo,Col. Narbo Martius,,,,,,https://pleiades.stoa.org/places/246347,43.1836165,3.004203,,,
4,,396.2,23. HISPANIA.,Narbo-Tarraco,sum-route,inde Tarracone m. p. CCXXXIIII,,,Tarracone,Tarraco,Col. Tarraco,m. p.,CCXXXIIII, m. p. CCXXXIIII,,,https://pleiades.stoa.org/places/246349,41.116892,1.2583375,,,
5,,396.3,23. HISPANIA.,Tarraco-Carthago Novae,sum-route,,,,,Tarraco,Col. Tarraco,,,,,,https://pleiades.stoa.org/places/246349,41.116892,1.2583375,,,
6,,396.3,23. HISPANIA.,Tarraco-Carthago Novae,sum-route,Karthagine Spartaria m. p. CCCLX sic:,,,Karthagine Spartaria,Carthago Novae,Carthago Nova/Col. Urbs Iulia,m. p.,CCCLX , m. p. CCCLX ,,,https://pleiades.stoa.org/places/265849,37.602787,-0.9879535,,,
7,,396.4,23. HISPANIA.,Carthago Novae-Castulo,sum-route,,,,,Carthago Novae,Carthago Nova/Col. Urbs Iulia,,,,,,https://pleiades.stoa.org/places/265849,37.602787,-0.9879535,,,
8,,396.4,23. HISPANIA.,Carthago Novae-Castulo,sum-route,"Castulone m. p. CCCIII, sic:",,,Castulone,Castulo,Castulo,m. p.,CCCIII,m. p. CCCIII,,,https://pleiades.stoa.org/places/265855,38.036873,-3.6240175,,,
9,,,23. HISPANIA.,Arelate-Narbo,route,,,,,Arelate,Theline/Col. Arelate/Constantina,,,,0.0,,https://pleiades.stoa.org/places/148217,43.677616,4.630799,,settlement,Supplied starting point
10,,,23. HISPANIA.,Arelate-Narbo,route,,,,Nemausum,Nemausus,Nemausus,m. p.,XIIII,m. p. XIIII,14.0,,https://pleiades.stoa.org/places/148142,43.843149787416095,4.35417557079922,,urban,
11,,,23. HISPANIA.,Arelate-Narbo,route,,,,Ambrussum,Ambrussum,Ambrussum,m. p.,XV,m. p. XV,15.0,,https://pleiades.stoa.org/places/147990,43.715607,4.1496005,,settlement,
12,,,23. HISPANIA.,Arelate-Narbo,route,,,,Sextantione,Sextantio,Sextantio,m. p.,XV,m. p. XV,15.0,,https://pleiades.stoa.org/places/148202,43.64232,3.896373,,bridge,
13,,,23. HISPANIA.,Arelate-Narbo,route,,,,Foro Domiti,Forum Domitii,Forum Domitii,m. p.,XV,m. p. XV,15.0,,https://pleiades.stoa.org/places/148081,43.515715,3.692307,forum,station,
14,,,23. HISPANIA.,Arelate-Narbo,route,,,,Cesserone,Cessero,Cessero,m. p.,XVIII,m. p. XVIII,18.0,,https://pleiades.stoa.org/places/147997,43.3945615,3.420181,,settlement,
15,,,23. HISPANIA.,Arelate-Narbo,route,,,,Beterris,Baeterrae,Col. Baeterrae,m. p.,XII,m. p. XII,12.0,,https://pleiades.stoa.org/places/148056,43.3416765,3.217941,,settlement,
16,,,23. HISPANIA.,Arelate-Narbo,route,,,,Narbone,Narbo,Col. Narbo Martius,m. p.,XII,m. p. XII,,,https://pleiades.stoa.org/places/246347,43.1836165,3.004203,,settlement,
17,,,23. HISPANIA.,Narbo-Tarraco,route,,,,,Narbo,Col. Narbo Martius,m. p.,XII,m. p. XII,12.0,,https://pleiades.stoa.org/places/246347,43.1836165,3.004203,,settlement,
18,,,23. HISPANIA.,Narbo-Tarraco,route,,ad,,Ad Vicensimum,Ad Vicesimum,Ad Vicesimum,m. p.,XX,m. p. XX,20.0,,https://pleiades.stoa.org/places/246144,42.5,2.5,,unknown,
19,,,23. HISPANIA.,Narbo-Tarraco,route,,,,Combusta,Combusta,Combusta,m. p.,XIIII,m. p. XIIII,14.0,,https://pleiades.stoa.org/places/246351,42.766412,2.875397,,station,
20,,,23. HISPANIA.,Narbo-Tarraco,route,,,,Ruscione,Ruscino,Col. Ruscino,m. p.,VI,m. p. VI,6.0,,https://pleiades.stoa.org/places/246348,42.7085809212755,2.94516013801998,,basilica,
21,,,23. HISPANIA.,Narbo-Tarraco,route,,ad,,Ad Centuriones,Ad Centuriones/Centenarium,Ad Centenarium,m. p.,XX,m. p. XX,20.0,,https://pleiades.stoa.org/places/246134,42.536669,2.839775,,station,
22,,,23. HISPANIA.,Narbo-Tarraco,route,,,,Summo Pyreneo,Summum Pyreneum,Ad Pyrenaeum/Summus Pyrenaeus,m. p.,V,m. p. V,5.0,,https://pleiades.stoa.org/places/246139,42.4646429,2.8629997,,station,
23,,,23. HISPANIA.,Narbo-Tarraco,route,,,,Iuncaria,Iuncaria,Iuncaria,m. p.,XVI,m. p. XVI,16.0,,https://pleiades.stoa.org/places/246449,42.2748,2.96815,,station,
24,,,23. HISPANIA.,Narbo-Tarraco,route,,,,Cinniana,Cinniana,Cinniana,m. p.,XV,m. p. XV,15.0,,https://pleiades.stoa.org/places/246335,42.066067,2.910473,,station,
25,,,23. HISPANIA.,Narbo-Tarraco,route,,,,Aquis Voconis,Aquae Voconiae,Aquae Voconiae,m. p.,XXIIII,m. p. XXIIII,24.0,,https://pleiades.stoa.org/places/246174,41.846176,2.752102,,station,
26,,,23. HISPANIA.,Narbo-Tarraco,route,,,,Seterras,Seterra,Seterrae,m. p.,XV,m. p. XV,15.0,,https://pleiades.stoa.org/places/246652,41.746451,2.635453,,station,
27,,,23. HISPANIA.,Narbo-Tarraco,route,,,,Praetorio,Praetorium,Praetorium?,m. p.,XV,m. p. XV,15.0,,https://pleiades.stoa.org/places/246576,41.5873365,2.3260575,,settlement-modern,
28,,,23. HISPANIA.,Narbo-Tarraco,route,,,,Barcenone,Barcino,Col. Barcino,m. p.,XVII,m. p. XVII,17.0,,https://pleiades.stoa.org/places/246343,41.387911,2.169911,,settlement,
29,,,23. HISPANIA.,Narbo-Tarraco,route,,fines,,Fines,Fines,(Ad) Fines,m. p.,XX,m. p. XX,20.0,,https://pleiades.stoa.org/places/246135,41.473589,1.92765540000005,,station,
30,,,23. HISPANIA.,Narbo-Tarraco,route,,,,Antistiana,Autistiana,Antistiana,m. p.,XVII,m. p. XVII,17.0,,https://pleiades.stoa.org/places/246166,41.310602,1.647899,,station,
31,,,23. HISPANIA.,Narbo-Tarraco,route,,,,Palfuriana,Palfuriana,Palfuriana,m. p.,XIII,m. p. XIII,13.0,,https://pleiades.stoa.org/places/246551,41.203989,1.514919,,station,
32,,,23. HISPANIA.,Narbo-Tarraco,route,,,,Terracone,Tarraco,Col. Tarraco,m. p.,XVII,m. p. XVII,17.0,,https://pleiades.stoa.org/places/246349,41.116892,1.2583375,,settlement,
33,,,23. HISPANIA.,Tarraco-Carthago Novae,route,,,,,Tarraco,Col. Tarraco,,,,,,https://pleiades.stoa.org/places/246349,41.116892,1.2583375,,settlement,
34,,,23. HISPANIA.,Tarraco-Carthago Novae,route,,,,Oleastrum,Oleastrum,Oleastrum,m. p.,XXI,m. p. XXI,21.0,,https://pleiades.stoa.org/places/246529,41.006039,0.912577,,station,
35,,,23. HISPANIA.,Tarraco-Carthago Novae,route,,,,Traia Capita,Traia Capita,Tria Capita,m. p.,XXIIII,m. p. XXIIII,24.0,,https://pleiades.stoa.org/places/246705,40.804813,0.700237,,station,
36,,,23. HISPANIA.,Tarraco-Carthago Novae,route,,,,Dertosa,Dertosa,Dertosa/Hibera Iulia Ilercavonia,m. p.,XVII,m. p. XVII,17.0,,https://pleiades.stoa.org/places/246369,40.811004,0.520955,,settlement,
37,,,23. HISPANIA.,Tarraco-Carthago Novae,route,,,,Intibili,Intibilis,Indibilis,m. p.,XXVII,m. p. XXVII,27.0,,https://pleiades.stoa.org/places/246439,40.418701,0.423109,,settlement,
38,,,23. HISPANIA.,Tarraco-Carthago Novae,route,,,,Ildum,Ildum,Ildum,m. p.,XXIIII,m. p. XXIIII,24.0,,https://pleiades.stoa.org/places/265920,40.231686,0.073556,,settlement,
39,,,23. HISPANIA.,Tarraco-Carthago Novae,route,,,,Sebelaci,Sebelaci,Sebelaci,m. p.,XXIIII,m. p. XXIIII,24.0,,https://pleiades.stoa.org/places/266034,39.959582,-0.138097,,settlement,
40,,,23. HISPANIA.,Tarraco-Carthago Novae,route,,,,Saguntum,Saguntum,Saguntum/Arse,m. p.,XXII,m. p. XXII,22.0,,https://pleiades.stoa.org/places/266021,39.678125,-0.2772475,,settlement,
41,,,23. HISPANIA.,Tarraco-Carthago Novae,route,,,,Valentia,Valentia,Valentia,m. p.,XVI,m. p. XVI,16.0,,https://pleiades.stoa.org/places/266090,39.470371,-0.376813,,settlement,
42,,,23. HISPANIA.,Tarraco-Carthago Novae,route,,,,Sucronem,Sucro,Sucro,m. p.,XX,m. p. XX,20.0,,https://pleiades.stoa.org/places/266052,39.150204,-0.43809,,settlement,
43,,,23. HISPANIA.,Tarraco-Carthago Novae,route,,ad,,Ad Statuas,Ad Statuas,Ad Statuas,m. p.,XXXII,m. p. XXXII,32.0,,https://pleiades.stoa.org/places/265781,38.5,-0.5,statuas,unknown,
44,,,23. HISPANIA.,Tarraco-Carthago Novae,route,,ad,,Ad Turres,Ad Turres,Ad Turres?/Turres Saetab(...)?,m. p.,VIIII,m. p. VIIII,9.0,,https://pleiades.stoa.org/places/265783,38.781093,-0.92493,turris,station,
45,,,23. HISPANIA.,Tarraco-Carthago Novae,route,,,,Adello,Adellum,Ad Ello?,m. p.,XXIIII,m. p. XXIIII,24.0,,https://pleiades.stoa.org/places/265770,38.478014,-0.790495,,station,
46,,,23. HISPANIA.,Tarraco-Carthago Novae,route,,,,Aspis,Iaspis,(I)Aspis,m. p.,XXIIII,m. p. XXIIII,24.0,,https://pleiades.stoa.org/places/265917,38.3459902,-0.7692125,,settlement-modern,
47,,,23. HISPANIA.,Tarraco-Carthago Novae,route,,,,Ilici,Ilici,Ilici/Helike,m. p.,XXIIII,m. p. XXIIII,24.0,,https://pleiades.stoa.org/places/265922,38.2396,-0.6953,,settlement,
48,,,23. HISPANIA.,Tarraco-Carthago Novae,route,,,,Thiar,Thiar,Thiar,m. p.,XXVII,m. p. XXVII,27.0,,https://pleiades.stoa.org/places/266063,37.878103,-0.765831,,settlement,
49,,,23. HISPANIA.,Tarraco-Carthago Novae,route,,,,Karthagine Spartaria,Carthago Novae,Carthago Nova/Col. Urbs Iulia,m. p.,XXV,m. p. XXV,25.0,,https://pleiades.stoa.org/places/265849,37.602787,-0.9879535,,settlement,
50,,,23. HISPANIA.,Carthago Novae-Castulo,route,,,,,Carthago Novae,Carthago Nova/Col. Urbs Iulia,,,,0.0,,https://pleiades.stoa.org/places/265849,37.602787,-0.9879535,,settlement,
51,,,23. HISPANIA.,Carthago Novae-Castulo,route,,,,Eliocroca,Eliocroca,Eliocroca?,m. p.,XLIIII,m. p. XLIIII,44.0,,https://pleiades.stoa.org/places/265891,37.671353,-1.698809,,settlement,
52,,,23. HISPANIA.,Carthago Novae-Castulo,route,,ad,,Ad Morum,Ad Morum,Ad Morum,m. p.,XXIIII,m. p. XXIIII,24.0,,https://pleiades.stoa.org/places/265775,37.691955,-2.051097,,station,
53,,,23. HISPANIA.,Carthago Novae-Castulo,route,,,,Basti,Basti,Basti,m. p.,XVI,m. p. XVI,16.0,,https://pleiades.stoa.org/places/265823,37.5120166,-2.7325361,,settlement,
54,,,23. HISPANIA.,Carthago Novae-Castulo,route,,,,Acci,Acci,Acci/Col. Iulia Gemella,m. p.,XXV,m. p. XXV,25.0,,https://pleiades.stoa.org/places/265765,37.300309,-3.134636,,settlement,
55,,,23. HISPANIA.,Carthago Novae-Castulo,route,,,,Agatucci,Acatucci,Agatucci?,m. p.,XXVIII,m. p. XXVIII,28.0,,https://pleiades.stoa.org/places/265784,37.591727,-3.1811,,settlement,
56,,,23. HISPANIA.,Carthago Novae-Castulo,route,,,,Viniolis,Viniolae,Viniolae?,m. p.,XXIIII,m. p. XXIIII,24.0,,https://pleiades.stoa.org/places/266097,37.6282633,-3.5380913,,station,
57,,,23. HISPANIA.,Carthago Novae-Castulo,route,,,,Mentesa Bastiam,Mentesa Bastitanorum,Mentesa Bastia,m. p.,XX,m. p. XX,20.0,,https://pleiades.stoa.org/places/265970,37.741633,-3.692715,,settlement,
58,,,23. HISPANIA.,Carthago Novae-Castulo,route,,,,Castulone,Castulo,Castulo,m. p.,XXII,m. p. XXII,22.0,,https://pleiades.stoa.org/places/265855,38.036873,-3.6240175,,settlement,
59,,402.6,23. HISPANIA.,Corduba-Castulo-1,sum-route,Item a Corduba Castulone m. p. XCVIIII:,,,Corduba,Corduba,Corduba/Col. Patricia,,,,,,https://pleiades.stoa.org/places/256128,37.884683,-4.779171,,,
60,,402.6,23. HISPANIA.,Corduba-Castulo-1,sum-route,Item a Corduba Castulone m. p. XCVIIII:,,,Castulone,Castulo,Castulo,m. p.,XCVIIII, m. p. XCVIIII,,,https://pleiades.stoa.org/places/265855,38.036873,-3.6240175,,,
61,,,23. HISPANIA.,Corduba-Castulo-1,route,,,,,Corduba,Corduba/Col. Patricia,,,,0.0,,https://pleiades.stoa.org/places/256128,37.884683,-4.779171,,settlement,
62,,,23. HISPANIA.,Corduba-Castulo-1,route,,,,Calpurniana,Calpurniana,Calpurniana,m. p.,XXV,m. p. XXV,25.0,,https://pleiades.stoa.org/places/265836,37.867376,-4.318842,,station,
63,,,23. HISPANIA.,Corduba-Castulo-1,route,,,,Vircaone,Urgao?,Urgao/Vircao,m. p.,XX,m. p. XX,20.0,,https://pleiades.stoa.org/places/266087,37.93645,-4.054925,,settlement,
64,,,23. HISPANIA.,Corduba-Castulo-1,route,,,,Iliturgis,Iliturgis,Iliturgi,m. p.,XXXIIII,m. p. XXXIIII,34.0,,https://pleiades.stoa.org/places/265924,37.968343,-3.80883,,settlement,
65,,,23. HISPANIA.,Corduba-Castulo-1,route,,,,Castulone,Castulo,Castulo,m. p.,XX,m. p. XX,20.0,,https://pleiades.stoa.org/places/265855,38.036873,-3.6240175,,settlement,
66,,403.4-5,23. HISPANIA.,Corduba-Castulo-2,sum-route,Alio itinere a Corduba Castulone m. p. LXXVIII:,,,Corduba,Corduba,Corduba/Col. Patricia,,,,,,https://pleiades.stoa.org/places/256128,37.884683,-4.779171,,,
67,,403.4-5,23. HISPANIA.,Corduba-Castulo-2,sum-route,Alio itinere a Corduba Castulone m. p. LXXVIII:,,,Castulone,Castulo,Castulo,m. p.,LXXVIII, m. p. LXXVIII,,,https://pleiades.stoa.org/places/265855,38.036873,-3.6240175,,,
68,,,23. HISPANIA.,Corduba-Castulo-2,route,,,,,Corduba,Corduba/Col. Patricia,,,,0.0,,https://pleiades.stoa.org/places/256128,37.884683,-4.779171,,settlement,
69,,,23. HISPANIA.,Corduba-Castulo-2,route,,,,Epora,Epora,Epora,m. p.,XXVIII,m. p. XXVIII,28.0,,https://pleiades.stoa.org/places/265893,38.026033,-4.381896,,settlement,
70,,,23. HISPANIA.,Corduba-Castulo-2,route,,,,Vciense,Ucia/Uciense,(S)Ucia,m. p.,XVIII,m. p. XVIII,18.0,,https://pleiades.stoa.org/places/266051,38.074265,-4.186553,,settlement,
71,,,23. HISPANIA.,Corduba-Castulo-2,route,,,,Castulone,Castulo,Castulo,m. p.,XXXII,m. p. XXXII,32.0,,https://pleiades.stoa.org/places/265855,38.036873,-3.6240175,,settlement,
72,,404.2,23. HISPANIA.,Castulo-Malaca,sum-route,Item a Castulone Malacam m. p. CCLXXVI sic:,,,Castulone,Castulo,Castulo,,,,,,https://pleiades.stoa.org/places/265855,38.036873,-3.6240175,,,
73,,404.2,23. HISPANIA.,Castulo-Malaca,sum-route,Item a Castulone Malacam m. p. CCLXXVI sic:,,,Malacam,Malaca,Malaca,m. p.,CCLXXVI , m. p. CCLXXVI ,,,https://pleiades.stoa.org/places/265963,36.719658,-4.420163,,,
74,,,23. HISPANIA.,Castulo-Malaca,route,,,,,Castulo,Castulo,,,,0.0,,https://pleiades.stoa.org/places/265855,38.036873,-3.6240175,,settlement,
75,,,23. HISPANIA.,Castulo-Malaca,route,,,,Tugia,Tugia,Tugia,m. p.,XXXV,m. p. XXXV,35.0,,https://pleiades.stoa.org/places/266072,37.877689,-3.152365,,settlement,
76,,,23. HISPANIA.,Castulo-Malaca,route,,,,Fraxinum,Fraxinum,Fraxinum?,m. p.,XVI,m. p. XVI,16.0,,https://pleiades.stoa.org/places/265900,37.727146,-3.047757,,settlement,
77,,,23. HISPANIA.,Castulo-Malaca,route,,,,Bactara,Bactara,Bactara?,m. p.,XXIIII,m. p. XXIIII,24.0,,https://pleiades.stoa.org/places/265812,37.55662,-3.090227,,settlement,
78,,,23. HISPANIA.,Castulo-Malaca,route,,,,Acci,Acci,Acci/Col. Iulia Gemella,m. p.,XXXII,m. p. XXXII,32.0,,https://pleiades.stoa.org/places/265765,37.300309,-3.134636,,settlement,
79,,,23. HISPANIA.,Castulo-Malaca,route,,,,Alba,Abula,Ab(ou)la/Al(a)ba,m. p.,XXXII,m. p. XXXII,32.0,,https://pleiades.stoa.org/places/265763,37.141162,-2.78011,,settlement,
80,,,23. HISPANIA.,Castulo-Malaca,route,,,,Vrci,Urci,Urci?,m. p.,XXIIII,m. p. XXIIII,24.0,,https://pleiades.stoa.org/places/266085,36.913021,-2.450598,,settlement,
81,,,23. HISPANIA.,Castulo-Malaca,route,,,,Turaniana,Turaniana,Turaniana,m. p.,XVI,m. p. XVI,16.0,,https://pleiades.stoa.org/places/266074,36.7920128,-2.587019,,settlement,
82,,,23. HISPANIA.,Castulo-Malaca,route,,,,Murgi,Murgi,Murgi,m. p.,XII,m. p. XII,12.0,,https://pleiades.stoa.org/places/265977,36.775074,-2.812733,,settlement,
83,,,23. HISPANIA.,Castulo-Malaca,route,,,,Saxetanum,Saxetanum,Saxetanum,m. p.,XXXVIII,m. p. XXXVIII,38.0,,https://pleiades.stoa.org/places/182370603,36.7361595,-3.6899472,,aqueduct,
84,,,23. HISPANIA.,Castulo-Malaca,route,,,,Caviclum,Caviclum,Caviclum?,m. p.,XVI,m. p. XVI,16.0,,https://pleiades.stoa.org/places/265857,36.758483,-3.952759,,settlement,
85,,,23. HISPANIA.,Castulo-Malaca,route,,,,Menova,Maenuba,Maenuba/Menova,m. p.,XXXIIII,m. p. XXXIIII,34.0,,https://pleiades.stoa.org/places/265959,36.77864,-4.100678,,settlement,
86,,,23. HISPANIA.,Castulo-Malaca,route,,,,Malaca,Malaca,Malaca,m. p.,XII,m. p. XII,12.0,,https://pleiades.stoa.org/places/265963,36.719658,-4.420163,,settlement,
87,,405.7,23. HISPANIA.,Malaca-Gades,sum-route,Item a Malaca Gadis m. p. CLV sic:,,,Malaca,Malaca,Malaca,,,,,,https://pleiades.stoa.org/places/265963,36.719658,-4.420163,,,
88,,405.7,23. HISPANIA.,Malaca-Gades,sum-route,Item a Malaca Gadis m. p. CLV sic:,,,Gadis,Gades,Gadeira/Gades/Col. Augusta Gaditana,m. p.,CLV , m. p. CLV ,,,https://pleiades.stoa.org/places/256177,36.5292776667,-6.29312066667,,,
89,,,23. HISPANIA.,Malaca-Gades,route,,,,,Malaca,Malaca,,,,0.0,,https://pleiades.stoa.org/places/265963,36.719658,-4.420163,,settlement,
90,,,23. HISPANIA.,Malaca-Gades,route,,,,Suel,Suel,Suel,m. p.,XXI,m. p. XXI,21.0,,https://pleiades.stoa.org/places/266055,36.525435,-4.628919,,settlement,
91,,,23. HISPANIA.,Malaca-Gades,route,,,,Cilniana,Cilniana,Cilniana,m. p.,XXIIII,m. p. XXIIII,24.0,,https://pleiades.stoa.org/places/256106,36.468337,-4.993434,,station (road or coastal),
92,,,23. HISPANIA.,Malaca-Gades,route,,,,Barbariana,Barbariana,Barbesula/Barbariana?,m. p.,XXIIII,m. p. XXIIII,24.0,,https://pleiades.stoa.org/places/256017,36.296985,-5.272343,,settlement,
93,,,23. HISPANIA.,Malaca-Gades,route,,,,Calpe Carteiam,Carteia,San Roque Theatre - Carteia,m. p.,X,m. p. X,10.0,,https://pleiades.stoa.org/places/362008414,36.1856620087667,-5.40677728330525,,theatre,
94,,,23. HISPANIA.,Malaca-Gades,route,,,,Porto Albo,Portus Albus,Albus Portus,m. p.,VI,m. p. VI,6.0,,https://pleiades.stoa.org/places/255964,36.1070413,-5.4335897,portus,"tower (single), station (road or coastal)",
95,,,23. HISPANIA.,Malaca-Gades,route,,,,Mellaria,Mellaria,Mellaria,m. p.,XII,m. p. XII,12.0,,https://pleiades.stoa.org/places/256293,36.066459,-5.683253,,settlement,
96,,,23. HISPANIA.,Malaca-Gades,route,,,,Belone Claudia,Baelo Claudia,B(a)elo,m. p.,VI,m. p. VI,6.0,,https://pleiades.stoa.org/places/256005,36.0898214009,-5.77446835687,,settlement,
97,,,23. HISPANIA.,Malaca-Gades,route,,,,Besippone,Baesippo,Baesippo,m. p.,XII,m. p. XII,12.0,,https://pleiades.stoa.org/places/256007,36.192554,-5.91903,,settlement,
98,,,23. HISPANIA.,Malaca-Gades,route,,,,Mercablo,Mercablum,Mercablum/Merifabion,m. p.,XVI,m. p. XVI,16.0,,https://pleiades.stoa.org/places/256295,36.276482,-6.088556,,settlement,
99,,,23. HISPANIA.,Malaca-Gades,route,,ad,,Ad Herculem,Ad Herculem,Ad Herculem,m. p.,XII,m. p. XII,12.0,,https://omnesviae.org/#OVPlace304,36.35162,-6.163431,,,"Omnesviae is the only one that found the coordinates, based on the TP and the IA"
100,,,23. HISPANIA.,Malaca-Gades,route,,,,Gadis,Gades,Gadeira/Gades/Col. Augusta Gaditana,m. p.,XII,m. p. XII,12.0,,https://pleiades.stoa.org/places/256177,36.5292776667,-6.29312066667,,settlement,
101,,409.1,23. HISPANIA.,Gades-Corduba,sum-route,Item a Gadis Corduba m. p. CCXCV sic:,,,Gadis,Gades,Gadeira/Gades/Col. Augusta Gaditana,,,,,,https://pleiades.stoa.org/places/256177,36.5292776667,-6.29312066667,,,
102,,409.1,23. HISPANIA.,Gades-Corduba,sum-route,Item a Gadis Corduba m. p. CCXCV sic:,,,Corduba,Corduba,Corduba/Col. Patricia,m. p.,CCXCV , m. p. CCXCV ,,,https://pleiades.stoa.org/places/256128,37.884683,-4.779171,,,
103,,,23. HISPANIA.,Gades-Corduba,route,,,,,Gades,Gadeira/Gades/Col. Augusta Gaditana,,,,0.0,,https://pleiades.stoa.org/places/256177,36.5292776667,-6.29312066667,,settlement,
104,,,23. HISPANIA.,Gades-Corduba,route,,ad,,Ad Pontem,Ad Pontem,Ad Pontem,m. p.,XII,m. p. XII,12.0,,https://pleiades.stoa.org/places/255954,36.5292776667,-6.29312066667,pons,station (road or coastal),
105,,,23. HISPANIA.,Gades-Corduba,route,,,,Portu Gaditano,Portus Gaditanus,Gadeira/Gades/Col. Augusta Gaditana,m. p.,XIIII,m. p. XIIII,14.0,,https://pleiades.stoa.org/places/256177,36.5292776667,-6.29312066667,portus,settlement,
106,,,23. HISPANIA.,Gades-Corduba,route,,,,Hasta,Hasta,(H)Asta/Col. Hasta Regia/Ligystine?,m. p.,XVI,m. p. XVI,16.0,,https://pleiades.stoa.org/places/256193,36.788002,-6.172572,,settlement,
107,,,23. HISPANIA.,Gades-Corduba,route,,,,Vgia,Ugia,U(r)gia,m. p.,XXVII,m. p. XXVII,27.0,,https://pleiades.stoa.org/places/256501,36.990065,-5.82933,,settlement,
108,,,23. HISPANIA.,Gades-Corduba,route,,,,Orippo,Orippo,Orippo,m. p.,XXIIII,m. p. XXIIII,24.0,,https://pleiades.stoa.org/places/256343,37.2725169,-6.0057004,,"settlement, fort",
109,,,23. HISPANIA.,Gades-Corduba,route,,,,Hispali,Hispalis,Hispalis/Col. Romula,m. p.,VIIII,m. p. VIIII,9.0,,https://pleiades.stoa.org/places/256210,37.382668,-5.996293,,settlement,
110,,,23. HISPANIA.,Gades-Corduba,route,,,,Basilippo,Basilippo,Basilippo,m. p.,XXI,m. p. XXI,21.0,,https://pleiades.stoa.org/places/256020,37.264098,-5.54279,,settlement,
111,,,23. HISPANIA.,Gades-Corduba,route,,,,Carula,Carula,Carula,m. p.,XXIIII,m. p. XXIIII,24.0,,https://pleiades.stoa.org/places/256065,37.224465,-5.312382,,settlement,
112,,,23. HISPANIA.,Gades-Corduba,route,,,,Ilipa,Ilipula Minor,Ilipula Minor,m. p.,XVIII,m. p. XVIII,18.0,,https://pleiades.stoa.org/places/256224,37.129603,-5.02982,,settlement,
113,,,23. HISPANIA.,Gades-Corduba,route,,,,Ostippo,Ostipo,Ostippo,m. p.,XIIII,m. p. XIIII,14.0,,https://pleiades.stoa.org/places/256347,37.291478,-4.878531,,settlement,
114,,,23. HISPANIA.,Gades-Corduba,route,,,,Barba,Singles Barba,Singili(a) Barba,m. p.,XX,m. p. XX,20.0,,https://pleiades.stoa.org/places/256453,37.032479,-4.63052115,,settlement,
115,,,23. HISPANIA.,Gades-Corduba,route,,,,Anticaria,Anticaria,Anticaria,m. p.,XXIIII,m. p. XXIIII,24.0,,https://pleiades.stoa.org/places/265799,37.019374,-4.562887,,settlement,
116,,,23. HISPANIA.,Gades-Corduba,route,,ad,,Ad Gemellas,Ad Gemellas,Ad Gemellas?,m. p.,XXIII,m. p. XXIII,23.0,,https://pleiades.stoa.org/places/265771,37.267334,-4.540411,,station,
117,,,23. HISPANIA.,Gades-Corduba,route,,,,Ipagro,Ipagrum,Ipagrum/Epagrum,m. p.,XX,m. p. XX,20.0,,https://pleiades.stoa.org/places/256226,37.5178095,-4.658228,,settlement,
118,,,23. HISPANIA.,Gades-Corduba,route,,,,Vlia,Ulia,Ulia (Fidentia),m. p.,X,m. p. X,10.0,,https://pleiades.stoa.org/places/256499,37.648657,-4.698889,,settlement,
119,,,23. HISPANIA.,Gades-Corduba,route,,,,Corduba,Corduba,Corduba/Col. Patricia,m. p.,XVIII,m. p. XVIII,18.0,,https://pleiades.stoa.org/places/256128,37.884683,-4.779171,,settlement,
120,,413.1,23. HISPANIA.,Hispalis-Corduba,sum-route,Item ab Hispali Corduba m. p. XCIII sic:,,,Hispali,Hispalis,Hispalis/Col. Romula,,,,,,https://pleiades.stoa.org/places/256210,37.382668,-5.996293,,,
121,,413.1,23. HISPANIA.,Hispalis-Corduba,sum-route,Item ab Hispali Corduba m. p. XCIII sic:,,,Corduba,Corduba,Corduba/Col. Patricia,m. p.,XCIII , m. p. XCIII ,,,https://pleiades.stoa.org/places/256128,37.884683,-4.779171,,,
122,,,23. HISPANIA.,Hispalis-Corduba,route,,,,,Hispalis,Hispalis/Col. Romula,,,,0.0,,https://pleiades.stoa.org/places/256210,37.382668,-5.996293,,settlement,
123,,,23. HISPANIA.,Hispalis-Corduba,route,,,,Obucula,Obulcula,Obulcula,m. p.,XLII,m. p. XLII,42.0,,https://pleiades.stoa.org/places/256332,37.462227,-5.348392,,settlement,
124,,,23. HISPANIA.,Hispalis-Corduba,route,,,,Astigi,Astigi,Astigi/Col. Augusta Firma,m. p.,XV,m. p. XV,15.0,,https://pleiades.stoa.org/places/255996,37.540932,-5.079949,,"settlement, amphitheatre, amphitheater",
125,,,23. HISPANIA.,Hispalis-Corduba,route,,ad,,Ad Aras,Ad Aras,Ad Aras,m. p.,XII,m. p. XII,12.0,,https://pleiades.stoa.org/places/255951,37.6746159,-4.9325335,,settlement-modern,
126,,,23. HISPANIA.,Hispalis-Corduba,route,,,,Corduba,Corduba,Corduba/Col. Patricia,m. p.,XXIIII,m. p. XXIIII,24.0,,https://pleiades.stoa.org/places/256128,37.884683,-4.779171,,settlement,
127,,413.6,23. HISPANIA.,Hispalis-Italica,route,Ab Hispali Italicam m. p. VI.,,,Hispali,Hispalis,Hispalis/Col. Romula,,,,0.0,,https://pleiades.stoa.org/places/256210,37.382668,-5.996293,,settlement,
128,,413.6,23. HISPANIA.,Hispalis-Italica,route,Ab Hispali Italicam m. p. VI.,,,Italicam,Italica,Italica,m. p.,VI,m. p. VI,6.0,,https://pleiades.stoa.org/places/256231,37.4418312167,-6.0438969638,,settlement,
129,,414.1,23. HISPANIA.,Hispalis-Emerita Augusta,sum-route,Item ab Hispali Emeritam m. p. CLXII sic:,,,Hispali,Hispalis,Hispalis/Col. Romula,,,,,,https://pleiades.stoa.org/places/256210,37.382668,-5.996293,,,
130,,414.1,23. HISPANIA.,Hispalis-Emerita Augusta,sum-route,Item ab Hispali Emeritam m. p. CLXII sic:,,,Emeritam,Emerita Augusta,Emerita Augusta,m. p.,CLXII , m. p. CLXII ,,,https://pleiades.stoa.org/places/256155,38.9178151543,-6.33901360476,,,
131,,,23. HISPANIA.,Hispalis-Emerita Augusta,route,,,,,Hispalis,Hispalis/Col. Romula,,,,0.0,,https://pleiades.stoa.org/places/256210,37.382668,-5.996293,,settlement,
132,,,23. HISPANIA.,Hispalis-Emerita Augusta,route,,,,Carmone,Carmo,Carmo,m. p.,XXII,m. p. XXII,22.0,,https://pleiades.stoa.org/places/256058,37.4703045,-5.6464685,,settlement,
133,,,23. HISPANIA.,Hispalis-Emerita Augusta,route,,,,Obucula,Obulcula,Obulcula,m. p.,XX,m. p. XX,20.0,,https://pleiades.stoa.org/places/256332,37.462227,-5.348392,,settlement,
134,,,23. HISPANIA.,Hispalis-Emerita Augusta,route,,,,Astigi,Astigi,Astigi/Col. Augusta Firma,m. p.,XV,m. p. XV,15.0,,https://pleiades.stoa.org/places/255996,37.540932,-5.079949,,"settlement, amphitheatre, amphitheater",
135,,,23. HISPANIA.,Hispalis-Emerita Augusta,route,,,,Celti,Celti,Celti?/Leptis?,m. p.,XXXVII,m. p. XXXVII,37.0,,https://pleiades.stoa.org/places/256089,37.70729,-5.346426,,settlement,
136,,,23. HISPANIA.,Hispalis-Emerita Augusta,route,,,,Regiana,Regina,Regina,m. p.,XLIIII,m. p. XLIIII,44.0,,https://pleiades.stoa.org/places/256397,38.2032285,-5.953548,,settlement,
137,,,23. HISPANIA.,Hispalis-Emerita Augusta,route,,,,Emerita,Emerita Augusta,Emerita Augusta,m. p.,XXIIII,m. p. XXIIII,24.0,,https://pleiades.stoa.org/places/256155,38.9178151543,-6.33901360476,,settlement,
138,,415.3,23. HISPANIA.,Corduba-Emerita Augusta,sum-route,Item a Corduba Emeritam m. p. CXLIIII sic:,,,Corduba,Corduba,Corduba/Col. Patricia,,,,,,https://pleiades.stoa.org/places/256128,37.884683,-4.779171,,,
139,,415.3,23. HISPANIA.,Corduba-Emerita Augusta,sum-route,Item a Corduba Emeritam m. p. CXLIIII sic:,,,Emeritam,Emerita Augusta,Emerita Augusta,m. p.,CXLIIII , m. p. CXLIIII ,,,https://pleiades.stoa.org/places/256155,38.9178151543,-6.33901360476,,,
140,,,23. HISPANIA.,Corduba-Emerita Augusta,route,,,,,Corduba,Corduba/Col. Patricia,,,,0.0,,https://pleiades.stoa.org/places/256128,37.884683,-4.779171,,settlement,
141,,,23. HISPANIA.,Corduba-Emerita Augusta,route,,,,Mellaria,Mellaria,Mellaria,m. p.,LII,m. p. LII,52.0,,https://pleiades.stoa.org/places/256292,38.2945642,-5.3399481,,settlement,
142,,,23. HISPANIA.,Corduba-Emerita Augusta,route,,,,Artigi,Artigi,Artigi,m. p.,XXXVI,m. p. XXXVI,36.0,,https://pleiades.stoa.org/places/255990,38.722599,-5.545601,,settlement,
143,,,23. HISPANIA.,Corduba-Emerita Augusta,route,,,,Metellinum,Metellinum,Metellinum,m. p.,XXXII,m. p. XXXII,32.0,,https://pleiades.stoa.org/places/256298,38.964574,-5.9568565,,settlement,
144,,,23. HISPANIA.,Corduba-Emerita Augusta,route,,,,Emerita,Emerita Augusta,Emerita Augusta,m. p.,XXIIII,m. p. XXIIII,24.0,,https://pleiades.stoa.org/places/256155,38.9178151543,-6.33901360476,,settlement,
145,,416.4,23. HISPANIA.,Olisippo-Emerita Augusta-1,sum-route,Item ab Olisippone Emeritam m. p. CLXI sic:,,,Olisippone,Olisippo,Olisipo,,,,,,https://pleiades.stoa.org/places/256338,38.707166,-9.135507,,,
146,,416.4,23. HISPANIA.,Olisippo-Emerita Augusta-1,sum-route,Item ab Olisippone Emeritam m. p. CLXI sic:,,,Emeritam,Emerita Augusta,Emerita Augusta,m. p.,CLXI , m. p. CLXI ,,,https://pleiades.stoa.org/places/256155,38.9178151543,-6.33901360476,,,
147,,,23. HISPANIA.,Olisippo-Emerita Augusta-1,route,,,,,Olisippo,Olisipo,,,,0.0,,https://pleiades.stoa.org/places/256338,38.707166,-9.135507,,settlement,
148,,,23. HISPANIA.,Olisippo-Emerita Augusta-1,route,,,,Aquabona,Equabona,A(qua)bona,m. p.,XII,m. p. XII,12.0,,https://pleiades.stoa.org/places/255979,38.601187,-9.050379,,station (road or coastal),
149,,,23. HISPANIA.,Olisippo-Emerita Augusta-1,route,,,,Catobrica,Catobriga,Catobrica,m. p.,XII,m. p. XII,12.0,,https://omnesviae.org/#OVPlace157,38.524513,-8.893066,,,
151,,,23. HISPANIA.,Olisippo-Emerita Augusta-1,route,,,,Malateca,Malateca,Malateca,m. p.,XXVI,m. p. XXVI,26.0,,https://pleiades.stoa.org/places/256283,38.61397,-8.663247,,station (road or coastal),
152,,,23. HISPANIA.,Olisippo-Emerita Augusta-1,route,,,,Salacia,Salacia,Salacia (Imperatoria),m. p.,XII,m. p. XII,12.0,,https://pleiades.stoa.org/places/256414,38.371152,-8.519503,,settlement,
153,,,23. HISPANIA.,Olisippo-Emerita Augusta-1,route,,,,Ebora,Ebora,Ebora,m. p.,XLIIII,m. p. XLIIII,44.0,,https://pleiades.stoa.org/places/256151,38.5717285,-7.9084865,,settlement,
156,,,23. HISPANIA.,Olisippo-Emerita Augusta-1,route,,,,Euandriana,Euandriana,Evandria(na),m. p.,XVII,m. p. XVII,17.0,,https://pleiades.stoa.org/places/256165,38.852762,-6.4556,,station (road or coastal),
157,,,23. HISPANIA.,Olisippo-Emerita Augusta-1,route,,,,Emerita,Emerita Augusta,Emerita Augusta,m. p.,VIIII,m. p. VIIII,9.0,,https://pleiades.stoa.org/places/256155,38.9178151543,-6.33901360476,,settlement,
158,,418.6,23. HISPANIA.,Salacia-Ossonoba,route,A Salacia Ossonoba m. p. CLXI,,,Salacia,Salacia,Salacia,,,,0.0,,https://pleiades.stoa.org/places/236635,41.6604245,-8.111263,,station,
159,,418.6,23. HISPANIA.,Salacia-Ossonoba,route,A Salacia Ossonoba m. p. CLXI,,,Ossonoba,Ossonoba,O(sso)noba,m. p.,CLXI,m. p. CLXI,161.0,,https://pleiades.stoa.org/places/256346,37.257074,-6.949713,,settlement,or https://pleiades.stoa.org/places/256345
160,,418.7,23. HISPANIA.,Olisippo-Emerita Augusta-2,sum-route,Alio itinere ab Olisippone Emeritam m. p. CLIIII sic:,,,Olisippone,Olisippo,Olisipo,,,,,,https://pleiades.stoa.org/places/256338,38.707166,-9.135507,,,
161,,418.7,23. HISPANIA.,Olisippo-Emerita Augusta-2,sum-route,Alio itinere ab Olisippone Emeritam m. p. CLIIII sic:,,,Emeritam,Emerita Augusta,Emerita Augusta,m. p.,CLIIII , m. p. CLIIII ,,,https://pleiades.stoa.org/places/256155,38.9178151543,-6.33901360476,,,
162,,,23. HISPANIA.,Olisippo-Emerita Augusta-2,route,,,,,Olisippo,Olisipo,,,,0.0,,https://pleiades.stoa.org/places/256338,38.707166,-9.135507,,settlement,
163,,,23. HISPANIA.,Olisippo-Emerita Augusta-2,route,,,,Aritio Praetorio,Aritium,Aritium Praetorium,m. p.,XXXVIII,m. p. XXXVIII,38.0,,https://pleiades.stoa.org/places/255983,39.3315991,-8.2766667,praetorium,"station (road or coastal), settlement-modern",
164,,,23. HISPANIA.,Olisippo-Emerita Augusta-2,route,,,,Abelterio,Abelterium,Abelterium,m. p.,XXVIII,m. p. XXVIII,28.0,,https://pleiades.stoa.org/places/255947,39.19969,-7.658632,,station (road or coastal),
165,,,23. HISPANIA.,Olisippo-Emerita Augusta-2,route,,,,Matusaro,Matusarum,Matusarum,m. p.,XXIIII,m. p. XXIIII,24.0,,https://pleiades.stoa.org/places/256289,39.12413,-7.282425,,station (road or coastal),
166,,,23. HISPANIA.,Olisippo-Emerita Augusta-2,route,,ad,,Ad Septem Aras,Ad Septem Aras,Ad Septem Aras,m. p.,LX†?,m. p. LX†?,60.0,,https://pleiades.stoa.org/places/255957,39.030986,-7.161004,,station (road or coastal),
167,,,23. HISPANIA.,Olisippo-Emerita Augusta-2,route,,,,Budua,Burdua,Budua,m. p.,XII,m. p. XII,12.0,,https://pleiades.stoa.org/places/256033,39.002142,-6.916168,,settlement,
168,,,23. HISPANIA.,Olisippo-Emerita Augusta-2,route,,,,Plagiaria,Plagiaria,Plagiaria,m. p.,VIII,m. p. VIII,8.0,,https://pleiades.stoa.org/places/256367,38.922609,-6.901471,,station (road or coastal),
169,,,23. HISPANIA.,Olisippo-Emerita Augusta-2,route,,,,Emerita,Emerita Augusta,Emerita Augusta,m. p.,XXX,m. p. XXX,30.0,,https://pleiades.stoa.org/places/256155,38.9178151543,-6.33901360476,,settlement,
170,,419.7-8,23. HISPANIA.,Olisippo-Emerita Augusta-3,sum-route,Item alio Itinere ab Olisippone Emeritam m. p. CCXX sic:,,,Olisippone,Olisippo,Olisipo,,,,,,https://pleiades.stoa.org/places/256338,38.707166,-9.135507,,,
171,,419.7-8,23. HISPANIA.,Olisippo-Emerita Augusta-3,sum-route,Item alio Itinere ab Olisippone Emeritam m. p. CCXX sic:,,,Emeritam,Emerita Augusta,Emerita Augusta,m. p.,CCXX , m. p. CCXX ,,,https://pleiades.stoa.org/places/256155,38.9178151543,-6.33901360476,,,
172,,,23. HISPANIA.,Olisippo-Emerita Augusta-3,route,,,,,Olisippo,Olisipo,,,,0.0,,https://pleiades.stoa.org/places/256338,38.707166,-9.135507,,settlement,
173,,,23. HISPANIA.,Olisippo-Emerita Augusta-3,route,,,,Ierabrica,Ierabriga,Ierabriga,m. p.,XXX,m. p. XXX,30.0,,https://pleiades.stoa.org/places/256219,39.066877,-9.062142,,station (road or coastal),
174,,,23. HISPANIA.,Olisippo-Emerita Augusta-3,route,,,,Scallabin,Scallabis,Scallabis/Praesidium Iulium,m. p.,XXXII,m. p. XXXII,32.0,,https://pleiades.stoa.org/places/256438,39.234008303,-8.67646951485,,"wall (of a city), city wall, settlement",
175,,,23. HISPANIA.,Olisippo-Emerita Augusta-3,route,,,,Tabucci,Tabucci,Tubucci,m. p.,XXXII,m. p. XXXII,32.0,,https://pleiades.stoa.org/places/256486,39.445539,-8.281265,,settlement,
178,,,23. HISPANIA.,Olisippo-Emerita Augusta-3,route,,ad,,Ad Septem Aras,Ad Septem Aras,Ad Septem Aras,m. p.,XIIII,m. p. XIIII,14.0,,https://pleiades.stoa.org/places/255957,39.030986,-7.161004,,station (road or coastal),
179,,,23. HISPANIA.,Olisippo-Emerita Augusta-3,route,,,,Plagiaria,Plagiaria,Plagiaria,m. p.,XX,m. p. XX,20.0,,https://pleiades.stoa.org/places/256367,38.922609,-6.901471,,station (road or coastal),
180,,,23. HISPANIA.,Olisippo-Emerita Augusta-3,route,,,,Emerita,Emerita Augusta,Emerita Augusta,m. p.,XXX,m. p. XXX,30.0,,https://pleiades.stoa.org/places/256155,38.9178151543,-6.33901360476,,settlement,
181,,420.8-9,23. HISPANIA.,Olisippo-Bracara Augusta,sum-route,Item ab Olisippone Bracaram Augustam m. p. CCXLIIII sic:,,,Olisippone,Olisippo,Olisipo,,,,,,https://pleiades.stoa.org/places/256338,38.707166,-9.135507,,,
182,,420.8-9,23. HISPANIA.,Olisippo-Bracara Augusta,sum-route,Item ab Olisippone Bracaram Augustam m. p. CCXLIIII sic:,,,Bracaram Augustam,Bracara Augusta,Bracara Augusta,m. p.,CCXLIIII , m. p. CCXLIIII ,,,https://pleiades.stoa.org/places/236377,41.550875,-8.424973,,,
183,,,23. HISPANIA.,Olisippo-Bracara Augusta,route,,,,,Olisippo,Olisipo,,,,0.0,,https://pleiades.stoa.org/places/256338,38.707166,-9.135507,,settlement,
184,,,23. HISPANIA.,Olisippo-Bracara Augusta,route,,,,Ierabriga,Ierabriga,Ierabriga,m. p.,XXX,m. p. XXX,30.0,,https://pleiades.stoa.org/places/256219,39.066877,-9.062142,,station (road or coastal),
185,,,23. HISPANIA.,Olisippo-Bracara Augusta,route,,,,Scallabin,Scallabis,Scallabis/Praesidium Iulium,m. p.,XXXII,m. p. XXXII,32.0,,https://pleiades.stoa.org/places/256438,39.234008303,-8.67646951485,,"wall (of a city), city wall, settlement",
186,,,23. HISPANIA.,Olisippo-Bracara Augusta,route,,,,Sellium,Sellium,Sellium,m. p.,XXXII,m. p. XXXII,32.0,,https://pleiades.stoa.org/places/256442,39.603447,-8.410487,,settlement,
187,,,23. HISPANIA.,Olisippo-Bracara Augusta,route,,,,Conembriga,Conimbriga,Conimbriga,m. p.,XXXIIII,m. p. XXXIIII,34.0,,https://pleiades.stoa.org/places/236443,40.0989034587279,-8.49370371534638,,settlement,
188,,,23. HISPANIA.,Olisippo-Bracara Augusta,route,,,,Aeminio,Aeminium,Aeminium,m. p.,X,m. p. X,10.0,,https://pleiades.stoa.org/places/236321,40.2095455,-8.427646,,settlement,
189,,,23. HISPANIA.,Olisippo-Bracara Augusta,route,,,,Talabrica,Talabriga,Talabriga,m. p.,XL,m. p. XL,40.0,,https://pleiades.stoa.org/places/236673,40.636052,-8.466492,,settlement,
190,,,23. HISPANIA.,Olisippo-Bracara Augusta,route,,,,Langobriga,Langobriga,Langobriga,m. p.,XVIII,m. p. XVIII,18.0,,https://pleiades.stoa.org/places/236508,40.99314145,-8.5286386,,"settlement, settlement-modern",
191,,,23. HISPANIA.,Olisippo-Bracara Augusta,route,,,,Calem,Portus Cale,Cale,m. p.,XIII,m. p. XIII,13.0,,https://pleiades.stoa.org/places/236396,41.149974,-8.610232,,"settlement, port",
192,,,23. HISPANIA.,Olisippo-Bracara Augusta,route,,,,Bragara,Bracara Augusta,Bracara Augusta,m. p.,XXXV,m. p. XXXV,35.0,,https://pleiades.stoa.org/places/236377,41.550875,-8.424973,,settlement,
193,,422.3,23. HISPANIA.,Bracara Augusta-Asturica-1,sum-route,Item a Bracara Asturicam m. p. CCXLVII:,,,Bracara,Bracara Augusta,Bracara Augusta,,,,,,https://pleiades.stoa.org/places/236377,41.550875,-8.424973,,,
194,,422.3,23. HISPANIA.,Bracara Augusta-Asturica-1,sum-route,Item a Bracara Asturicam m. p. CCXLVII:,,,Asturicam,Asturica,Asturica (Augusta),m. p.,CCXLVII, m. p. CCXLVII,,,https://pleiades.stoa.org/places/236352,42.458776,-6.063532,,,
195,,,23. HISPANIA.,Bracara Augusta-Asturica-1,route,,,,,Bracara Augusta,Bracara Augusta,,,,0.0,,https://pleiades.stoa.org/places/236377,41.550875,-8.424973,,settlement,
196,,,23. HISPANIA.,Bracara Augusta-Asturica-1,route,,,,Salacia,Salacia,Salacia,m. p.,XX,m. p. XX,20.0,,https://pleiades.stoa.org/places/236635,41.6604245,-8.111263,,station,
198,,,23. HISPANIA.,Bracara Augusta-Asturica-1,route,,,,Caladuno,Caladunum,Caladunum,m. p.,XVI,m. p. XVI,16.0,,https://pleiades.stoa.org/places/236395,41.856332,-7.634577,,settlement,
199,,,23. HISPANIA.,Bracara Augusta-Asturica-1,route,,ad,,Ad Aquas,Aquae Flaviae,Aquae Flaviae,m. p.,XVIII,m. p. XVIII,18.0,,https://pleiades.stoa.org/places/236334,41.74035,-7.4700075,,settlement,
202,,,23. HISPANIA.,Bracara Augusta-Asturica-1,route,,,,Compleutica,Compleutica,Compleutica,m. p.,XXVIIII,m. p. XXVIIII,29.0,,https://pleiades.stoa.org/places/236442,41.813392,-6.665876,,station,
203,,,23. HISPANIA.,Bracara Augusta-Asturica-1,route,,,,Veniatia,Veniatia,Veniatia,m. p.,XV,m. p. XV,15.0,,https://pleiades.stoa.org/places/236711,41.868625,-6.443154,,station,
204,,,23. HISPANIA.,Bracara Augusta-Asturica-1,route,,,,Petavonium,Petavonium,Petavonium,m. p.,XXVIII,m. p. XXVIII,28.0,,https://pleiades.stoa.org/places/236598,42.0898132,-5.9981701,,fort,
205,,,23. HISPANIA.,Bracara Augusta-Asturica-1,route,,,,Argentiolum,Argentiolum,Argentiolum,m. p.,XV,m. p. XV,15.0,,https://pleiades.stoa.org/places/236341,42.312849,-5.972986,,station,
206,,,23. HISPANIA.,Bracara Augusta-Asturica-1,route,,,,Asturica,Asturica,Asturica (Augusta),m. p.,XXIIII,m. p. XXIIII,24.0,,https://pleiades.stoa.org/places/236352,42.458776,-6.063532,,settlement,
207,,427.4-5,23. HISPANIA.,Bracara Augusta-Asturica-2,sum-route,Item alio itinere a Bracara Asturica m. p. CCXV sic:,,,Bracara,Bracara Augusta,Bracara Augusta,,,,,,https://pleiades.stoa.org/places/236377,41.550875,-8.424973,,,
208,,427.4-5,23. HISPANIA.,Bracara Augusta-Asturica-2,sum-route,Item alio itinere a Bracara Asturica m. p. CCXV sic:,,,Asturica,Asturica,Asturica (Augusta),m. p.,CCXV , m. p. CCXV ,,,https://pleiades.stoa.org/places/236352,42.458776,-6.063532,,,
209,,,23. HISPANIA.,Bracara Augusta-Asturica-2,route,,,,,Bracara Augusta,Bracara Augusta,,,,0.0,,https://pleiades.stoa.org/places/236377,41.550875,-8.424973,,settlement,
210,,,23. HISPANIA.,Bracara Augusta-Asturica-2,route,,,,Salaniana,Salaniana,Salaniana,m. p.,XXI,m. p. XXI,21.0,,https://pleiades.stoa.org/places/236637,41.718184,-8.273863,,station,
211,,,23. HISPANIA.,Bracara Augusta-Asturica-2,route,,,,Aquis Oreginis,Aquae Originis,Aquae Originae,m. p.,XVIII,m. p. XVIII,18.0,,https://pleiades.stoa.org/places/236335,41.856342203,-8.10721470791,,"station (road or coastal), bath, spa",
212,,,23. HISPANIA.,Bracara Augusta-Asturica-2,route,,,,Aquis Querquennis,Aquae Querquennae,Aquis Querquennis,m. p.,XIIII,m. p. XIIII,14.0,,https://pleiades.stoa.org/places/933005071,41.9743009,-7.9804677,,fort-2,
213,,,23. HISPANIA.,Bracara Augusta-Asturica-2,route,,,,Geminis,Geminae,Geminae,m. p.,XVI,m. p. XVI,16.0,,https://pleiades.stoa.org/places/236474,42.113077,-7.756988,,station (road or coastal),
214,,,23. HISPANIA.,Bracara Augusta-Asturica-2,route,,,,Salientibus,Salientes,Salientes,m. p.,XVIII,m. p. XVIII,18.0,,https://pleiades.stoa.org/places/236640,42.241599,-7.672263,,station,
215,,,23. HISPANIA.,Bracara Augusta-Asturica-2,route,,,,Praesidio,Praesidium,Praesidium,m. p.,XVIII,m. p. XVIII,18.0,,https://omnesviae.org/#OVPlace63,42.352169,-7.402275,,unlocated,These are better coordinates than the presumable corresponding Pleiades entry https://pleiades.stoa.org/places/236617
216,,,23. HISPANIA.,Bracara Augusta-Asturica-2,route,,,,Nemetobrica,Nemetobriga,Nemetobriga,m. p.,XIII,m. p. XIII,13.0,,https://pleiades.stoa.org/places/236565,42.339839,-7.252762,,settlement,
217,,,23. HISPANIA.,Bracara Augusta-Asturica-2,route,,,,Foro,Forum Gigurrorum,*Forum Gigurrorum,m. p.,XVIIII,m. p. XVIIII,19.0,,https://pleiades.stoa.org/places/236469,42.392541,-7.120542,,station (road or coastal),
218,,,23. HISPANIA.,Bracara Augusta-Asturica-2,route,,,,Gemestario,Gemestario,Gemestarium,m. p.,XVIII,m. p. XVIII,18.0,,https://pleiades.stoa.org/places/236473,42.485118,-6.904559,,station (road or coastal),
219,,,23. HISPANIA.,Bracara Augusta-Asturica-2,route,,,,Belgido,Bergidum,Bergidum Flavium,m. p.,XIII,m. p. XIII,13.0,,https://pleiades.stoa.org/places/236370,42.599819,-6.725657,,settlement,
220,,,23. HISPANIA.,Bracara Augusta-Asturica-2,route,,,,Intereraconio Flavio,Interamnium Flavium,Interamnium Flavium,m. p.,XX,m. p. XX,20.0,,https://pleiades.stoa.org/places/236488,42.6175246,-6.5201227,fluvium,settlement-modern,
221,,,23. HISPANIA.,Bracara Augusta-Asturica-2,route,,,,Asturica,Asturica,Asturica (Augusta),m. p.,XXX,m. p. XXX,30.0,,https://pleiades.stoa.org/places/236352,42.458776,-6.063532,,settlement,
222,,429.5,23. HISPANIA.,Bracara Augusta-Asturica-3,sum-route,Item a Bracara Asturicam m. p. CCXCVIIII sic:,,,Bracara,Bracara Augusta,Bracara Augusta,,,,,,https://pleiades.stoa.org/places/236377,41.550875,-8.424973,,,
223,,429.5,23. HISPANIA.,Bracara Augusta-Asturica-3,sum-route,Item a Bracara Asturicam m. p. CCXCVIIII sic:,,,Asturicam,Asturica,Asturica (Augusta),m. p.,CCXCVIIII , m. p. CCXCVIIII ,,,https://pleiades.stoa.org/places/236352,42.458776,-6.063532,,,
224,,,23. HISPANIA.,Bracara Augusta-Asturica-3,route,,,,,Bracara Augusta,Bracara Augusta,,,,0.0,,https://pleiades.stoa.org/places/236377,41.550875,-8.424973,,settlement,
225,,,23. HISPANIA.,Bracara Augusta-Asturica-3,route,,,,Limia,Limia,Limia,m. p.,XVIIII,m. p. XVIIII,19.0,,https://pleiades.stoa.org/places/236517,41.760717,-8.5780585,,station,There is also a river
226,,,23. HISPANIA.,Bracara Augusta-Asturica-3,route,,,,Tude,Tudae,Tude/Castellum Tyde,m. p.,XXIIII,m. p. XXIIII,24.0,,https://pleiades.stoa.org/places/236692,42.0461805,-8.6442975,,station (road or coastal),
227,,,23. HISPANIA.,Bracara Augusta-Asturica-3,route,,,,Burbida,Burbida,Burbida/Bonisana,m. p.,XVI,m. p. XVI,16.0,,https://pleiades.stoa.org/places/236686,42.29383,-8.531584,,station (road or coastal),
228,,,23. HISPANIA.,Bracara Augusta-Asturica-3,route,,,,Turoqua,Turoqua,Turoqua/Turaqua,m. p.,XVI,m. p. XVI,16.0,,https://pleiades.stoa.org/places/236697,42.400452,-8.527426,,station (road or coastal),
229,,,23. HISPANIA.,Bracara Augusta-Asturica-3,route,,,,Aquis Celenis,Aquae Celenae,Aquae Celenae,m. p.,XXIIII,m. p. XXIIII,24.0,,https://pleiades.stoa.org/places/236333,42.605502,-8.643331,,station,
230,,,23. HISPANIA.,Bracara Augusta-Asturica-3,route,,,,Tria,Iria Flavia,Iria Flavia,m. p.,XII,m. p. XII,12.0,,https://pleiades.stoa.org/places/236491,42.746697,-8.654768,,settlement,
231,,,23. HISPANIA.,Bracara Augusta-Asturica-3,route,,,,Assegonia,Assegonia,Assegonia,m. p.,XIII,m. p. XIII,13.0,,https://pleiades.stoa.org/places/236347,42.880359,-8.546374,,station,
232,,,23. HISPANIA.,Bracara Augusta-Asturica-3,route,,,,Brevis,Brevis,Brevis,m. p.,XXII,m. p. XXII,22.0,,https://pleiades.stoa.org/places/236379,42.911092,-7.998794,,station,
234,,,23. HISPANIA.,Bracara Augusta-Asturica-3,route,,,,Luco Augusti,Lucus Augusti,Lucus Augusti,m. p.,XIII,m. p. XIII,13.0,,https://pleiades.stoa.org/places/236525,43.0106145,-7.5570105,lucus,settlement,
235,,,23. HISPANIA.,Bracara Augusta-Asturica-3,route,,,,Timalino,Timalinum,Timalinum/Talamine,m. p.,XXII,m. p. XXII,22.0,,https://pleiades.stoa.org/places/236683,42.891567,-7.260016,,station (road or coastal),
236,,,23. HISPANIA.,Bracara Augusta-Asturica-3,route,,,,Ponte Neviae,Pons Neviae,Pons Neviae,m. p.,XII,m. p. XII,12.0,,https://pleiades.stoa.org/places/236608,42.853402,-7.162148,pons,station,
237,,,23. HISPANIA.,Bracara Augusta-Asturica-3,route,,,,Vttaris,Uttaris,Uttaris,m. p.,XX,m. p. XX,20.0,,https://pleiades.stoa.org/places/236704,42.649464,-6.882122,,station,
238,,,23. HISPANIA.,Bracara Augusta-Asturica-3,route,,,,Bergido,Bergidum,Bergidum Flavium,m. p.,XVI,m. p. XVI,16.0,,https://pleiades.stoa.org/places/236370,42.599819,-6.725657,,settlement,
239,,,23. HISPANIA.,Bracara Augusta-Asturica-3,route,,,,Interamnio Fluvio,Interamnium Flavium,Interamnium Flavium,m. p.,XX,m. p. XX,20.0,,https://pleiades.stoa.org/places/236488,42.6175246,-6.5201227,fluvium,settlement-modern,
240,,,23. HISPANIA.,Bracara Augusta-Asturica-3,route,,,,Asturica,Asturica,Asturica (Augusta),m. p.,XXX,m. p. XXX,30.0,,https://pleiades.stoa.org/places/236352,42.458776,-6.063532,,settlement,
241,,423.6-7,23. HISPANIA.,Bracara Augusta-Asturica-4,sum-route,Item per loca maritima a Bracara Asturicam usque:,,,Bracara,Bracara Augusta,Bracara Augusta,,,,,,https://pleiades.stoa.org/places/236377,41.550875,-8.424973,,,
242,,423.6-7,23. HISPANIA.,Bracara Augusta-Asturica-4,sum-route,Item per loca maritima a Bracara Asturicam usque:,,,Asturicam,Asturica,Asturica (Augusta),,?,?,,,https://pleiades.stoa.org/places/236352,42.458776,-6.063532,,,
243,,,23. HISPANIA.,Bracara Augusta-Asturica-4,route,,per maritima loca,,,Bracara Augusta,Bracara Augusta,,,,0.0,,https://pleiades.stoa.org/places/236377,41.550875,-8.424973,,settlement,
244,,,23. HISPANIA.,Bracara Augusta-Asturica-4,route,,,,Aquis Celenis,Aquae Celenae,Aquae Celenae,m. p.,CLXV,m. p. CLXV,165.0,,https://pleiades.stoa.org/places/236333,42.605502,-8.643331,,station,
245,,,23. HISPANIA.,Bracara Augusta-Asturica-4,route,,,,Vico Spacorum,Vicus Spacorum,Vicus Spacorum,stadia, CXCV,stadia CXCV,195.0,,https://pleiades.stoa.org/places/236716,42.23135,-8.712432,vicus,settlement,
246,,,23. HISPANIA.,Bracara Augusta-Asturica-4,route,,,,Ad Duos Pontes,Ad Duos Pontes,Ad Duos Pontes,stadia, CL,stadia CL,150.0,,https://pleiades.stoa.org/places/236319,42.4349459,-8.6448766,pons,station,
247,,,23. HISPANIA.,Bracara Augusta-Asturica-4,route,,,,Glandimiro,Glandomirum,Glandimirum,stadia, CLXXX,stadia CLXXX,180.0,,https://pleiades.stoa.org/places/236476,42.725581,-8.654909,,station (road or coastal),
249,,,23. HISPANIA.,Bracara Augusta-Asturica-4,route,,,,Brigantium,Brigantium,(Flavium) Brigantium/Portus Magnus?,m. p.,XXX,m. p. XXX,30.0,,https://pleiades.stoa.org/places/236465,43.371485,-8.395968,,settlement,
250,,,23. HISPANIA.,Bracara Augusta-Asturica-4,route,,,,Caranico,Caronium,Caranicum,m. p.,XVIII,m. p. XVIII,18.0,,https://pleiades.stoa.org/places/236406,43.181614,-7.900202,,station (road or coastal),
251,,,23. HISPANIA.,Bracara Augusta-Asturica-4,route,,,,Luco Augusti,Lucus Augusti,Lucus Augusti,m. p.,XVII,m. p. XVII,17.0,,https://pleiades.stoa.org/places/236525,43.0106145,-7.5570105,lucus,settlement,
252,,,23. HISPANIA.,Bracara Augusta-Asturica-4,route,,,,Timalino,Timalinum,Timalinum/Talamine,m. p.,XXII,m. p. XXII,22.0,,https://pleiades.stoa.org/places/236683,42.891567,-7.260016,,station (road or coastal),
253,,,23. HISPANIA.,Bracara Augusta-Asturica-4,route,,,,Ponte Neviae,Pons Neviae,Pons Neviae,m. p.,XII,m. p. XII,12.0,,https://pleiades.stoa.org/places/236608,42.853402,-7.162148,pons,station,
254,,,23. HISPANIA.,Bracara Augusta-Asturica-4,route,,,,Vttaris,Uttaris,Uttaris,m. p.,XX,m. p. XX,20.0,,https://pleiades.stoa.org/places/236704,42.649464,-6.882122,,station,
255,,,23. HISPANIA.,Bracara Augusta-Asturica-4,route,,,,Bergido,Bergidum,Bergidum Flavium,m. p.,XVI,m. p. XVI,16.0,,https://pleiades.stoa.org/places/236370,42.599819,-6.725657,,settlement,
256,,,23. HISPANIA.,Bracara Augusta-Asturica-4,route,,,,Asturica,Asturica,Asturica (Augusta),m. p.,L,m. p. L,50.0,,https://pleiades.stoa.org/places/236352,42.458776,-6.063532,,settlement,
257,,425.6,23. HISPANIA.,Esuri-Pax Iulia-1,sum-route,Item de Esuri Pace Iulia m. p. CCLXVII sic:,,,Esuri,Ostium Anae Aesuris,(B)Aesuris/Esuris,,,,,,https://pleiades.stoa.org/places/256008,37.21845,-7.441717,,,
258,,425.6,23. HISPANIA.,Esuri-Pax Iulia-1,sum-route,Item de Esuri Pace Iulia m. p. CCLXVII sic:,,,Pace Iulia,Pax Iulia,Pax Iulia/Pax Augusta/Col. Pacensis,m. p.,CCLXVII , m. p. CCLXVII ,,,https://pleiades.stoa.org/places/256358,38.015604,-7.865225,,,
259,,,23. HISPANIA.,Esuri-Pax Iulia-1,route,,,,,Ostium Anae Aesuris,(B)Aesuris/Esuris,,,,0.0,,https://pleiades.stoa.org/places/256008,37.21845,-7.441717,,settlement,
260,,,23. HISPANIA.,Esuri-Pax Iulia-1,route,,,,Balsa,Balsa,Balsa,m. p.,XXIIII,m. p. XXIIII,24.0,,https://pleiades.stoa.org/places/256013,37.125796,-7.649884,,"settlement, amphitheatre, amphitheater",
261,,,23. HISPANIA.,Esuri-Pax Iulia-1,route,,,,Ossonoba,Ossonoba,Ossonoba,m. p.,XVI,m. p. XVI,16.0,,https://pleiades.stoa.org/places/256345,37.01535,-7.935108,,settlement,
262,,,23. HISPANIA.,Esuri-Pax Iulia-1,route,,,,Aranni,Aranni,Arandis/Aranni,m. p.,LX,m. p. LX,60.0,,https://pleiades.stoa.org/places/255980,37.64394,-8.1054195,,settlement,
263,,,23. HISPANIA.,Esuri-Pax Iulia-1,route,,,,Salacia,Salacia,Salacia (Imperatoria),m. p.,XXXV,m. p. XXXV,35.0,,https://pleiades.stoa.org/places/256414,38.371152,-8.519503,,settlement,
264,,,23. HISPANIA.,Esuri-Pax Iulia-1,route,,,,Eboram,Ebora,Ebora,m. p.,XLIIII,m. p. XLIIII,44.0,,https://pleiades.stoa.org/places/256151,38.5717285,-7.9084865,,settlement,
265,,,23. HISPANIA.,Esuri-Pax Iulia-1,route,,,,Serpa,Serpa,Serpa,m. p.,XIII,m. p. XIII,13.0,,https://pleiades.stoa.org/places/256446,37.940797,-7.593028,,settlement,
266,,,23. HISPANIA.,Esuri-Pax Iulia-1,route,,fines,,Fines,Fines,Fines,m. p.,XX,m. p. XX,20.0,,https://pleiades.stoa.org/places/256169,37.946836,-7.299434,,station (road or coastal),
267,,,23. HISPANIA.,Esuri-Pax Iulia-1,route,,,,Arucci,Arucci,Arucci,m. p.,XXV,m. p. XXV,25.0,,https://pleiades.stoa.org/places/255991,37.963738,-7.13148,,settlement,
268,,,23. HISPANIA.,Esuri-Pax Iulia-1,route,,,,Pace Iulia,Pax Iulia,Pax Iulia/Pax Augusta/Col. Pacensis,m. p.,XXX,m. p. XXX,30.0,,https://pleiades.stoa.org/places/256358,38.015604,-7.865225,,settlement,
269,,431.4-5,23. HISPANIA.,Esuri-Pax Iulia-2,sum-route,Item ab Esuri per conpendium Pace Iulia m. p. LXXVI:,,,Esuri,Ostium Anae Aesuris,(B)Aesuris/Esuris,,,,,,https://pleiades.stoa.org/places/256008,37.21845,-7.441717,,,
270,,431.4-5,23. HISPANIA.,Esuri-Pax Iulia-2,sum-route,Item ab Esuri per conpendium Pace Iulia m. p. LXXVI:,,,Pace Iulia,Pax Iulia,Pax Iulia/Pax Augusta/Col. Pacensis,m. p.,LXXVI, m. p. LXXVI,,,https://pleiades.stoa.org/places/256358,38.015604,-7.865225,,,
271,,,23. HISPANIA.,Esuri-Pax Iulia-2,route,,per compendium,,,Ostium Anae Aesuris,(B)Aesuris/Esuris,,,,0.0,,https://pleiades.stoa.org/places/256008,37.21845,-7.441717,,settlement,
272,,,23. HISPANIA.,Esuri-Pax Iulia-2,route,,,,Myrtili,Myrtilis,(Iulia) Myrtilis,m. p.,XL,m. p. XL,40.0,,https://pleiades.stoa.org/places/256234,37.6384385,-7.6629605,,"settlement, settlement-modern",
273,,,23. HISPANIA.,Esuri-Pax Iulia-2,route,,,,Pace Iulia,Pax Iulia,Pax Iulia/Pax Augusta/Col. Pacensis,m. p.,XXXVI,m. p. XXXVI,36.0,,https://pleiades.stoa.org/places/256358,38.015604,-7.865225,,settlement,
274,,431.8-9,23. HISPANIA.,Ostio Fluminis Anae-Emerita Augusta,sum-route,Item ab ostio fluminis Anae Emeritam usque m. p. CCCXIII:,,,ostio Fluminis Anae,Ostium Anae Aesuris,(B)Aesuris/Esuris,,,,,,https://pleiades.stoa.org/places/256008,37.21845,-7.441717,,,
275,,431.8-9,23. HISPANIA.,Ostio Fluminis Anae-Emerita Augusta,sum-route,Item ab ostio fluminis Anae Emeritam usque m. p. CCCXIII:,,,Emeritam,Emerita Augusta,Emerita Augusta,m. p.,CCCXIII, m. p. CCCXIII,,,https://pleiades.stoa.org/places/256155,38.9178151543,-6.33901360476,,,
276,,,23. HISPANIA.,Ostio Fluminis Anae-Emerita Augusta,route,,,,,Ostium Anae Aesuris,(B)Aesuris/Esuris,,,,0.0,,https://pleiades.stoa.org/places/256008,37.21845,-7.441717,flumen,settlement,
278,,,23. HISPANIA.,Ostio Fluminis Anae-Emerita Augusta,route,,ad,,Ad Rubras,Ad Rubras,Ad Rubras,m. p.,XXVIII,m. p. XXVIII,28.0,,https://pleiades.stoa.org/places/255956,37.271136,-7.021606,,station (road or coastal),
279,,,23. HISPANIA.,Ostio Fluminis Anae-Emerita Augusta,route,,,,Onoba,Onoba,Ossonoba,m. p.,XXVIII,m. p. XXVIII,28.0,,https://pleiades.stoa.org/places/256345,37.01535,-7.935108,,settlement,
280,,,23. HISPANIA.,Ostio Fluminis Anae-Emerita Augusta,route,,,,Ilipla,Ilipula,Ilip(ou)la,m. p.,XXX,m. p. XXX,30.0,,https://pleiades.stoa.org/places/256221,37.3609544,-6.6793495,,settlement,
281,,,23. HISPANIA.,Ostio Fluminis Anae-Emerita Augusta,route,,,,Tucci,Tucci,(I)Tucci,m. p.,XXII,m. p. XXII,22.0,,https://pleiades.stoa.org/places/256232,37.44811,-6.363638,,settlement,
282,,,23. HISPANIA.,Ostio Fluminis Anae-Emerita Augusta,route,,,,Italica,Italica,Italica,m. p.,XVIII,m. p. XVIII,18.0,,https://pleiades.stoa.org/places/256231,37.4418312167,-6.0438969638,,settlement,
284,,,23. HISPANIA.,Ostio Fluminis Anae-Emerita Augusta,route,,,,Curica,Curiga,Curiga,m. p.,XLVIIII,m. p. XLVIIII,49.0,,https://pleiades.stoa.org/places/256147,38.086816,-6.27437,,settlement,
285,,,23. HISPANIA.,Ostio Fluminis Anae-Emerita Augusta,route,,,,Contributa,Contributum Ipscense,Contributa Iulia Ugultunia,m. p.,XXIIII,m. p. XXIIII,24.0,,https://pleiades.stoa.org/places/256126,38.3478707401,-6.39005121169,,settlement,
286,,,23. HISPANIA.,Ostio Fluminis Anae-Emerita Augusta,route,,,,Perceiana,Perceiana,Perceiana/Promptiana?,m. p.,XX,m. p. XX,20.0,,https://pleiades.stoa.org/places/256361,38.570672,-6.397232,,station (road or coastal),
287,,,23. HISPANIA.,Ostio Fluminis Anae-Emerita Augusta,route,,,,Emerita,Emerita Augusta,Emerita Augusta,m. p.,XXIIII,m. p. XXIIII,24.0,,https://pleiades.stoa.org/places/256155,38.9178151543,-6.33901360476,,settlement,
288,,433.1-2,23. HISPANIA.,Emerita Augusta-Caesaraugusta-1,sum-route,Item ab Emerita Caesaraugusta m. p. DCXXXII:,,,Emerita,Emerita Augusta,Emerita Augusta,,,,,,https://pleiades.stoa.org/places/256155,38.9178151543,-6.33901360476,,,
289,,433.1-2,23. HISPANIA.,Emerita Augusta-Caesaraugusta-1,sum-route,Item ab Emerita Caesaraugusta m. p. DCXXXII:,,,Caesaraugusta,Caesaraugusta,Col. Caesaraugusta,m. p.,DCXXXII, m. p. DCXXXII,,,https://pleiades.stoa.org/places/246344,41.6541855,-0.8772685,,,
290,,,23. HISPANIA.,Emerita Augusta-Caesaraugusta-1,route,,,,,Emerita Augusta,Emerita Augusta,,,,0.0,,https://pleiades.stoa.org/places/256155,38.9178151543,-6.33901360476,,settlement,
291,,,23. HISPANIA.,Emerita Augusta-Caesaraugusta-1,route,,ad,,Ad Sorores,Ad Sorores,Ad Sorores,m. p.,XXVI,m. p. XXVI,26.0,,https://pleiades.stoa.org/places/255958,39.2363894,-6.2908476,,"station (road or coastal), settlement-modern",
292,,,23. HISPANIA.,Emerita Augusta-Caesaraugusta-1,route,,,,Castris Caecili,Castra Caecili,Castra Caecilia,m. p.,XX,m. p. XX,20.0,,https://pleiades.stoa.org/places/256083,39.4986187074,-6.35053820221,castra,"fort, station (road or coastal), fort",
293,,,23. HISPANIA.,Emerita Augusta-Caesaraugusta-1,route,,,,Turmulos,Turmuli,Tourmogon/Turmulos,m. p.,XX,m. p. XX,20.0,,https://pleiades.stoa.org/places/256482,39.709811,-6.549076,,station (road or coastal),
294,,,23. HISPANIA.,Emerita Augusta-Caesaraugusta-1,route,,,,Rusticiana,Rusticiana,Rustic(i)ana,m. p.,XXII,m. p. XXII,22.0,,https://pleiades.stoa.org/places/256405,39.976738,-6.269823,,station (road or coastal),
295,,,23. HISPANIA.,Emerita Augusta-Caesaraugusta-1,route,,,,Capara,Capera,Capera,m. p.,XXII,m. p. XXII,22.0,,https://pleiades.stoa.org/places/236405,40.1666749946097,-6.10132363686603,,settlement,
296,,,23. HISPANIA.,Emerita Augusta-Caesaraugusta-1,route,,,,Caelionicco,Caecilius vicus ,Caelionicco/Coloricum,m. p.,XXII,m. p. XXII,22.0,,https://pleiades.stoa.org/places/236393,40.475864,-5.54411,,station (road or coastal),
297,,,23. HISPANIA.,Emerita Augusta-Caesaraugusta-1,route,,ad,,Ad Lippos,Ad Lippos,Ad Lippos/Appos,m. p.,XII,m. p. XII,12.0,,https://pleiades.stoa.org/places/236320,40.561181,-5.530274,,station (road or coastal),
298,,,23. HISPANIA.,Emerita Augusta-Caesaraugusta-1,route,,,,Sentice,Sentica,Sentice,m. p.,XV,m. p. XV,15.0,,https://pleiades.stoa.org/places/236660,40.79448,-5.488376,,station,
299,,,23. HISPANIA.,Emerita Augusta-Caesaraugusta-1,route,,,,Salmatice,Salmantica,Salmantica,m. p.,XXIIII,m. p. XXIIII,24.0,,https://pleiades.stoa.org/places/236642,40.964964,-5.663086,,settlement,
300,,,23. HISPANIA.,Emerita Augusta-Caesaraugusta-1,route,,,,Sibarim,Sibaria,Sibaris/Sabaria/Sarabis,m. p.,XXI,m. p. XXI,21.0,,https://pleiades.stoa.org/places/236666,41.254974,-5.71091,,settlement,
301,,,23. HISPANIA.,Emerita Augusta-Caesaraugusta-1,route,,,,Ocelo Duri,Ocelodurum,Ocelum Duri,m. p.,XXI,m. p. XXI,21.0,,https://pleiades.stoa.org/places/236577,41.503336,-5.746286,,settlement,
302,,,23. HISPANIA.,Emerita Augusta-Caesaraugusta-1,route,,,,Albocela,Albocela,Albocela,m. p.,XXII,m. p. XXII,22.0,,https://pleiades.stoa.org/places/236340,41.525944,-5.394988,,settlement,
303,,,23. HISPANIA.,Emerita Augusta-Caesaraugusta-1,route,,,,Amallobriga,Amalobriga,Amallobriga/Abulobrica,m. p.,XXVII,m. p. XXVII,27.0,,https://pleiades.stoa.org/places/236329,41.501445,-4.999241,,settlement,
304,,,23. HISPANIA.,Emerita Augusta-Caesaraugusta-1,route,,,,Septimanca,Septimanca,Septimanca,m. p.,XXIIII,m. p. XXIIII,24.0,,https://pleiades.stoa.org/places/236661,41.59022,-4.826722,,station,
305,,,23. HISPANIA.,Emerita Augusta-Caesaraugusta-1,route,,,,Nivaria,Nivaria,Nivaria,m. p.,XXII,m. p. XXII,22.0,,https://pleiades.stoa.org/places/236568,41.414663,-4.791481,,station,
306,,,23. HISPANIA.,Emerita Augusta-Caesaraugusta-1,route,,,,Cauca,Cauca,Cauca,m. p.,XXII,m. p. XXII,22.0,,https://pleiades.stoa.org/places/236419,41.218346,-4.519114,,settlement,
307,,,23. HISPANIA.,Emerita Augusta-Caesaraugusta-1,route,,,,Segovia,Segovia,Segovia,m. p.,XXVIIII,m. p. XXVIIII,29.0,,https://pleiades.stoa.org/places/236658,40.949191,-4.119338,,settlement,
308,,,23. HISPANIA.,Emerita Augusta-Caesaraugusta-1,route,,,,Miaccum,Miacum,Miaccum,m. p.,XXIIII,m. p. XXIIII,24.0,,https://pleiades.stoa.org/places/236543,40.401915,-3.77202,,station,
309,,,23. HISPANIA.,Emerita Augusta-Caesaraugusta-1,route,,,,Titulciam,Titulcia,Titulcia,m. p.,XXIIII,m. p. XXIIII,24.0,,https://pleiades.stoa.org/places/236684,40.136593,-3.570531,,station,
310,,,23. HISPANIA.,Emerita Augusta-Caesaraugusta-1,route,,,,Conplutum,Conplutum,Complutum,m. p.,XXX,m. p. XXX,30.0,,https://pleiades.stoa.org/places/246352,40.4731718403,-3.38695120895,,"settlement, archaeological site",
311,,,23. HISPANIA.,Emerita Augusta-Caesaraugusta-1,route,,,,Arriaca,Arriaca,Arriaca/Arentia,m. p.,XXII,m. p. XXII,22.0,,https://pleiades.stoa.org/places/246193,40.650874,-3.196797,,settlement,
312,,,23. HISPANIA.,Emerita Augusta-Caesaraugusta-1,route,,,,Caesada,Caesada,Caesada?,m. p.,XXIIII,m. p. XXIIII,24.0,,https://pleiades.stoa.org/places/246274,40.90396,-3.073496,,settlement,
313,,,23. HISPANIA.,Emerita Augusta-Caesaraugusta-1,route,,,,Segontia,Segontia,Segontia,m. p.,XXIII,m. p. XXIII,23.0,,https://pleiades.stoa.org/places/246639,41.069585,-2.642246,,settlement,
314,,,23. HISPANIA.,Emerita Augusta-Caesaraugusta-1,route,,,,Arcobriga,Arcobriga,Arcobriga,m. p.,XXIII,m. p. XXIII,23.0,,https://pleiades.stoa.org/places/246183,41.2959278328,-2.13807695147,,settlement,
315,,,23. HISPANIA.,Emerita Augusta-Caesaraugusta-1,route,,,,Aquae Bilbitanorum,Aquae Bilbitanorum,Aquae Bilbitanorum,m. p.,XVI,m. p. XVI,16.0,,https://pleiades.stoa.org/places/246167,41.296294,-1.894044,,station,
316,,,23. HISPANIA.,Emerita Augusta-Caesaraugusta-1,route,,,,Bilbili,Bilbilis,Bilbilis (Augusta),m. p.,XXIIII,m. p. XXIIII,24.0,,https://pleiades.stoa.org/places/246247,41.38201,-1.603219,,settlement,
317,,,23. HISPANIA.,Emerita Augusta-Caesaraugusta-1,route,,,,Netorbriga,Nertobriga,Nertobriga,m. p.,XXI,m. p. XXI,21.0,,https://pleiades.stoa.org/places/246518,41.500549,-1.396549,,settlement,
318,,,23. HISPANIA.,Emerita Augusta-Caesaraugusta-1,route,,,,Secontia,Segontia,Segontia,m. p.,XIIII,m. p. XIIII,14.0,,https://pleiades.stoa.org/places/246640,41.63349,-1.191459,,station,
319,,,23. HISPANIA.,Emerita Augusta-Caesaraugusta-1,route,,,,Caesaraugusta,Caesaraugusta,Col. Caesaraugusta,m. p.,XVI,m. p. XVI,16.0,,https://pleiades.stoa.org/places/246344,41.6541855,-0.8772685,,settlement,
320,,438.2-3,23. HISPANIA.,Emerita Augusta-Caesaraugusta-2,sum-route,Alio itinere ab Emerita Caesarea Augusta m. p. CCCXLVIII sic:,,,Emerita,Emerita Augusta,Emerita Augusta,,,,,,https://pleiades.stoa.org/places/256155,38.9178151543,-6.33901360476,,,
321,,438.2-3,23. HISPANIA.,Emerita Augusta-Caesaraugusta-2,sum-route,Alio itinere ab Emerita Caesarea Augusta m. p. CCCXLVIII sic:,,,Caesarea Augusta,Caesaraugusta,Col. Caesaraugusta,m. p.,CCCXLVIII , m. p. CCCXLVIII ,,,https://pleiades.stoa.org/places/246344,41.6541855,-0.8772685,,,
322,,438.2-3,23. HISPANIA.,Emerita Augusta-Caesaraugusta-3,sum-route,Alio itinere ab Emerita Caesarea Augusta m. p. CCCXLVIII sic:,,,Emerita,Emerita Augusta,Emerita Augusta,,,,,,https://pleiades.stoa.org/places/256155,38.9178151543,-6.33901360476,,,
323,,438.2-3,23. HISPANIA.,Emerita Augusta-Caesaraugusta-3,sum-route,Alio itinere ab Emerita Caesarea Augusta m. p. CCCXLVIII sic:,,,Caesarea Augusta,Caesaraugusta,Col. Caesaraugusta,m. p.,CCCXLVIII , m. p. CCCXLVIII ,,,https://pleiades.stoa.org/places/246344,41.6541855,-0.8772685,,,
324,,,23. HISPANIA.,Emerita Augusta-Caesaraugusta-3,route,,,,,Emerita Augusta,Emerita Augusta,,,,0.0,,https://pleiades.stoa.org/places/256155,38.9178151543,-6.33901360476,,settlement,This line is repeated in the edition. Still assigning two identifiers in order not to lose data
325,,,23. HISPANIA.,Emerita Augusta-Caesaraugusta-3,route,,,,Lacipea,Lacipaea,Lacipea,m. p.,XX,m. p. XX,20.0,,https://pleiades.stoa.org/places/256251,39.128752,-5.947713,,station (road or coastal),
327,,,23. HISPANIA.,Emerita Augusta-Caesaraugusta-3,route,,,,Augustobriga,Augustobriga,Augustobriga,m. p.,XII,m. p. XII,12.0,,https://pleiades.stoa.org/places/256001,39.807245,-5.481787,,settlement,
328,,,23. HISPANIA.,Emerita Augusta-Caesaraugusta-3,route,,,,Toletum,Toletum,Toletum,m. p.,LV,m. p. LV,55.0,,https://pleiades.stoa.org/places/266066,39.85668,-4.024491,,settlement,
329,,,23. HISPANIA.,Emerita Augusta-Caesaraugusta-3,route,,,,Titulciam,Titulcia,Titulcia,m. p.,XXIIII,m. p. XXIIII,24.0,,https://pleiades.stoa.org/places/236684,40.136593,-3.570531,,station,
330,,,23. HISPANIA.,Emerita Augusta-Caesaraugusta-3,route,,,,Conplutum,Conplutum,Complutum,m. p.,XXX,m. p. XXX,30.0,,https://pleiades.stoa.org/places/246352,40.4731718403,-3.38695120895,,"settlement, archaeological site",
331,,,23. HISPANIA.,Emerita Augusta-Caesaraugusta-3,route,,,,Arriaca,Arriaca,Arriaca/Arentia,m. p.,XXII,m. p. XXII,22.0,,https://pleiades.stoa.org/places/246193,40.650874,-3.196797,,settlement,
332,,,23. HISPANIA.,Emerita Augusta-Caesaraugusta-3,route,,,,Caesada,Caesada,Caesada?,m. p.,XXIIII,m. p. XXIIII,24.0,,https://pleiades.stoa.org/places/246274,40.90396,-3.073496,,settlement,
333,,,23. HISPANIA.,Emerita Augusta-Caesaraugusta-3,route,,,,Segontia,Segontia,Segontia,m. p.,XXIII,m. p. XXIII,23.0,,https://pleiades.stoa.org/places/246639,41.069585,-2.642246,,settlement,
334,,,23. HISPANIA.,Emerita Augusta-Caesaraugusta-3,route,,,,Arcobriga,Arcobriga,Arcobriga,m. p.,XXIII,m. p. XXIII,23.0,,https://pleiades.stoa.org/places/246183,41.2959278328,-2.13807695147,,settlement,
335,,,23. HISPANIA.,Emerita Augusta-Caesaraugusta-3,route,,,,Aquae Bilbitanorum,Aquae Bilbitanorum,Aquae Bilbitanorum,m. p.,XVI,m. p. XVI,16.0,,https://pleiades.stoa.org/places/246167,41.296294,-1.894044,,station,
336,,,23. HISPANIA.,Emerita Augusta-Caesaraugusta-3,route,,,,Bilbili,Bilbilis,Bilbilis (Augusta),m. p.,XXIIII,m. p. XXIIII,24.0,,https://pleiades.stoa.org/places/246247,41.38201,-1.603219,,settlement,
337,,,23. HISPANIA.,Emerita Augusta-Caesaraugusta-3,route,,,,Nertobriga,Nertobriga,Nertobriga,m. p.,XXI,m. p. XXI,21.0,,https://pleiades.stoa.org/places/246518,41.500549,-1.396549,,settlement,
338,,,23. HISPANIA.,Emerita Augusta-Caesaraugusta-3,route,,,,Segontia,Segontia,Segontia,m. p.,XIIII,m. p. XIIII,14.0,,https://pleiades.stoa.org/places/246640,41.63349,-1.191459,,station,
339,,,23. HISPANIA.,Emerita Augusta-Caesaraugusta-3,route,,,,Caesaraugusta,Caesaraugusta,Col. Caesaraugusta,m. p.,XVI,m. p. XVI,16.0,,https://pleiades.stoa.org/places/246344,41.6541855,-0.8772685,,settlement,
340,,439.5-6,23. HISPANIA.,Asturica-Caesaraugusta-1,sum-route,Item ab Asturica Caesaraugustam m. p. CCCCXCVII sic:,,,Asturica,Asturica,Asturica (Augusta),,,,,,https://pleiades.stoa.org/places/236352,42.458776,-6.063532,,,
341,,439.5-6,23. HISPANIA.,Asturica-Caesaraugusta-1,sum-route,Item ab Asturica Caesaraugustam m. p. CCCCXCVII sic:,,,Caesaraugustam,Caesaraugusta,Col. Caesaraugusta,m. p.,CCCCXCVII , m. p. CCCCXCVII ,,,https://pleiades.stoa.org/places/246344,41.6541855,-0.8772685,,,
342,,,23. HISPANIA.,Asturica-Caesaraugusta-1,route,,,,,Asturica,Asturica (Augusta),,,,0.0,,https://pleiades.stoa.org/places/236352,42.458776,-6.063532,,settlement,
343,,,23. HISPANIA.,Asturica-Caesaraugusta-1,route,,,,Bedunia,Baedunia,B(a)edunia,m. p.,XX,m. p. XX,20.0,,https://pleiades.stoa.org/places/236364,42.303366,-5.737469,,settlement,
344,,,23. HISPANIA.,Asturica-Caesaraugusta-1,route,,,,Briceco,Brigaecium,Brigaecium/Brigeco,m. p.,XX,m. p. XX,20.0,,https://pleiades.stoa.org/places/236381,42.002779,-5.674123,,settlement,
345,,,23. HISPANIA.,Asturica-Caesaraugusta-1,route,,,,Vico Aquario,Vicus Aquarius,Vicus Aquarius,m. p.,XXXII,m. p. XXXII,32.0,,https://pleiades.stoa.org/places/236713,41.723296,-5.796624,vicus,settlement,
346,,,23. HISPANIA.,Asturica-Caesaraugusta-1,route,,,,Ocelo Duri,Ocelodurum,Ocelum Duri,m. p.,XVI,m. p. XVI,16.0,,https://pleiades.stoa.org/places/236577,41.503336,-5.746286,,settlement,
347,,439.11-12,23. HISPANIA.,?-Titulcia,sum-route,Titulciam mansionibus supra scriptis m. p. CXCIIII,,,,Carausca? Ricciacum?,Caranusca?,,,,,,https://pleiades.stoa.org/places/108857,49.406768,6.151663,,,
348,,439.11-12,23. HISPANIA.,?-Titulcia,sum-route,Titulciam mansionibus supra scriptis m. p. CXCIIII,,,Titulciam,Titulcia,Titulcia,,,,0.0,,https://pleiades.stoa.org/places/236684,40.136593,-3.570531,,station,"This part presumes the repetition of the mansions from Ocelodurum to Caesaraugusta, so there is a geographical section missing here."
349,,439.13-14,23. HISPANIA.,?-Caesaraugusta-1,sum-route,Caesaraugusta mansionibus supra scriptis m. p. CCXV.,,,,Carausca? Ricciacum?,Caranusca?,,,,,,https://pleiades.stoa.org/places/108857,49.406768,6.151663,,,
350,,439.13-14,23. HISPANIA.,?-Caesaraugusta-1,sum-route,Caesaraugusta mansionibus supra scriptis m. p. CCXV.,,,Caesaraugusta,Caesaraugusta,Col. Caesaraugusta,,,,0.0,,https://pleiades.stoa.org/places/246344,41.6541855,-0.8772685,,settlement,
351,,439.15-16,23. HISPANIA.,Asturica-Caesaraugusta-2,sum-route,Item ab Asturica per Cantabria Caesaraugusta m. p. CCCI:,,,Asturica,Asturica,Asturica (Augusta),,,,,,https://pleiades.stoa.org/places/236352,42.458776,-6.063532,,,
352,,439.15-16,23. HISPANIA.,Asturica-Caesaraugusta-2,sum-route,Item ab Asturica per Cantabria Caesaraugusta m. p. CCCI:,,,Caesaraugusta,Caesaraugusta,Col. Caesaraugusta,m. p.,CCCI, m. p. CCCI,,,https://pleiades.stoa.org/places/246344,41.6541855,-0.8772685,,,
353,,"
",23. HISPANIA.,Asturica-Caesaraugusta-2,route,,,,,Asturica,Asturica (Augusta),,,,0.0,,https://pleiades.stoa.org/places/236352,42.458776,-6.063532,,settlement,
354,,,23. HISPANIA.,Asturica-Caesaraugusta-2,route,,,,Brigeco,Brigaecium,Brigaecium/Brigeco,m. p.,XL,m. p. XL,40.0,,https://pleiades.stoa.org/places/236381,42.002779,-5.674123,,settlement,
355,,,23. HISPANIA.,Asturica-Caesaraugusta-2,route,,,,Intercatia,Intercatia,Intercatia,m. p.,XX,m. p. XX,20.0,,https://pleiades.stoa.org/places/236490,41.98634,-5.405021,,settlement,
356,,,23. HISPANIA.,Asturica-Caesaraugusta-2,route,,,,Tela,Tela,Tela,m. p.,XXII,m. p. XXII,22.0,,https://pleiades.stoa.org/places/236472,41.984071,-4.73505,,station,
357,,,23. HISPANIA.,Asturica-Caesaraugusta-2,route,,,,Pintiam,Pintia,Pintia,m. p.,XXIIII,m. p. XXIIII,24.0,,https://pleiades.stoa.org/places/236601,41.777536,-4.499698,,station (road or coastal),
358,,,23. HISPANIA.,Asturica-Caesaraugusta-2,route,,,,Rauda,Rauda,Rauda,,,,0.0,,https://pleiades.stoa.org/places/236627,41.6970985,-3.92801,,station,
359,,,23. HISPANIA.,Asturica-Caesaraugusta-2,route,,,,Cluniam,Clunia,Col. Clunia (Sulpicia),m. p.,XXVI,m. p. XXVI,26.0,,https://pleiades.stoa.org/places/246345,41.782272,-3.3680505,,settlement,
360,,,23. HISPANIA.,Asturica-Caesaraugusta-2,route,,,,Vasamam,Uxama,Uxama (Argaela),m. p.,XXIIII,m. p. XXIIII,24.0,,https://pleiades.stoa.org/places/246721,41.5750018,-3.0947549,,settlement,
361,,,23. HISPANIA.,Asturica-Caesaraugusta-2,route,,,,Voluce,Voluca,*Voluca,m. p.,XXV,m. p. XXV,25.0,,https://pleiades.stoa.org/places/246751,41.699617,-2.817623,,settlement,
362,,,23. HISPANIA.,Asturica-Caesaraugusta-2,route,,,,Numantia,Numantia,Numantia,m. p.,XXV,m. p. XXV,25.0,,https://pleiades.stoa.org/places/246523,41.8093882419969,-2.44433338523561,,settlement,
363,,,23. HISPANIA.,Asturica-Caesaraugusta-2,route,,,,Augustobriga,Augustobriga,Augustobriga,m. p.,XXIII,m. p. XXIII,23.0,,https://pleiades.stoa.org/places/246208,41.8314,-1.984799,,settlement,
364,,,23. HISPANIA.,Asturica-Caesaraugusta-2,route,,,,Turiassone,Turiaso,Turiaso,m. p.,XVII,m. p. XVII,17.0,,https://pleiades.stoa.org/places/246712,41.902823,-1.725329,,settlement,
365,,,23. HISPANIA.,Asturica-Caesaraugusta-2,route,,,,Caravi,Caravi,Caravis,m. p.,XVIII,m. p. XVIII,18.0,,https://pleiades.stoa.org/places/246292,41.833113,-1.461182,,settlement,
366,,,23. HISPANIA.,Asturica-Caesaraugusta-2,route,,,,Caesaraugusta,Caesaraugusta,Col. Caesaraugusta,m. p.,XXXVII,m. p. XXXVII,37.0,,https://pleiades.stoa.org/places/246344,41.6541855,-0.8772685,,settlement,
367,,443.3,23. HISPANIA.,Turiaso-Caesaraugusta,sum-route,Item a Turassone Caesaraugustam m. p. LVI,,,Turassone,Turiaso,Turiaso,,,,,,https://pleiades.stoa.org/places/246712,41.902823,-1.725329,,,
368,,443.3,23. HISPANIA.,Turiaso-Caesaraugusta,sum-route,Item a Turassone Caesaraugustam m. p. LVI,,,Caesaraugustam,Caesaraugusta,Col. Caesaraugusta,m. p.,LVI, m. p. LVI,,,https://pleiades.stoa.org/places/246344,41.6541855,-0.8772685,,,
369,,,23. HISPANIA.,Turiaso-Caesaraugusta,route,,,,,Turiaso,Turiaso,,,,0.0,,https://pleiades.stoa.org/places/246712,41.902823,-1.725329,,settlement,
370,,,23. HISPANIA.,Turiaso-Caesaraugusta,route,,,,Balsione,Balsio/Belsinum,Belsinon/*Balsio,m. p.,XX,m. p. XX,20.0,,https://pleiades.stoa.org/places/246235,41.900517,-1.418493,,settlement,
371,,,23. HISPANIA.,Turiaso-Caesaraugusta,route,,,,Allobone,Allobon,Allobo,m. p.,XX,m. p. XX,20.0,,https://pleiades.stoa.org/places/246158,41.770383,-1.121939,,settlement,
372,,,23. HISPANIA.,Turiaso-Caesaraugusta,route,,,,Caesaraugusta,Caesaraugusta,Col. Caesaraugusta,m. p.,XVI,m. p. XVI,16.0,,https://pleiades.stoa.org/places/246344,41.6541855,-0.8772685,,settlement,
373,,444.3-4,23. HISPANIA.,Emerita Augusta-Caesaraugusta-4,sum-route,Per Lusitaniam ab Emerita Caesarea Augusta m. p. CCCCLVIII sic:,,,Emerita,Emerita Augusta,Emerita Augusta,,,,,,https://pleiades.stoa.org/places/256155,38.9178151543,-6.33901360476,,,
374,,444.3-4,23. HISPANIA.,Emerita Augusta-Caesaraugusta-4,sum-route,Per Lusitaniam ab Emerita Caesarea Augusta m. p. CCCCLVIII sic:,,,Caesarea Augusta,Caesaraugusta,Col. Caesaraugusta,m. p.,CCCCLVIII , m. p. CCCCLVIII ,,,https://pleiades.stoa.org/places/246344,41.6541855,-0.8772685,,,
375,,,23. HISPANIA.,Emerita Augusta-Caesaraugusta-4,route,,,,,Emerita Augusta,Emerita Augusta,,,,0.0,,https://pleiades.stoa.org/places/256155,38.9178151543,-6.33901360476,,settlement,
376,,,23. HISPANIA.,Emerita Augusta-Caesaraugusta-4,route,,,,Contosolia,Contosolia,Contosolia,m. p.,XII,m. p. XII,12.0,,https://pleiades.stoa.org/places/256125,38.895833,-5.734114,,station (road or coastal),
377,,,23. HISPANIA.,Emerita Augusta-Caesaraugusta-4,route,,,,Mirobriga,Mirobriga,Mirobriga,m. p.,XXXVI,m. p. XXXVI,36.0,,https://pleiades.stoa.org/places/256302,38.8205579,-5.08427205,,"settlement, settlement-modern",
378,,,23. HISPANIA.,Emerita Augusta-Caesaraugusta-4,route,,,,Sisalone,Sisapo,Sisapo?,m. p.,XIII,m. p. XIII,13.0,,https://pleiades.stoa.org/places/266043,38.645912,-4.518101,,settlement,
379,,,23. HISPANIA.,Emerita Augusta-Caesaraugusta-4,route,,,,Carcuvium,Carcuvium,Carcuvium?,m. p.,XX,m. p. XX,20.0,,https://pleiades.stoa.org/places/265846,38.845822,-4.063616,,settlement,
380,,,23. HISPANIA.,Emerita Augusta-Caesaraugusta-4,route,,ad,,Ad Turres,Ad Turres,Ad Turres,m. p.,XXVI,m. p. XXVI,26.0,,https://pleiades.stoa.org/places/265782,38.640168,-3.362121,turris,station,
381,,,23. HISPANIA.,Emerita Augusta-Caesaraugusta-4,route,,,,Mariana,Mariana,Mariana,m. p.,XXIIII,m. p. XXIIII,24.0,,https://pleiades.stoa.org/places/265965,38.547361,-2.92748,,settlement,
382,,,23. HISPANIA.,Emerita Augusta-Caesaraugusta-4,route,,,,Lamini,Laminium,Laminium,m. p.,XXX,m. p. XXX,30.0,,https://pleiades.stoa.org/places/265946,38.899451,-3.053453,,settlement,
383,,,23. HISPANIA.,Emerita Augusta-Caesaraugusta-4,route,,,,Alces,Alce,Alce(s),m. p.,XL,m. p. XL,40.0,,https://pleiades.stoa.org/places/265790,39.611886,-3.154963,,station (road or coastal),
384,,,23. HISPANIA.,Emerita Augusta-Caesaraugusta-4,route,,,,Vico Cuminario,Cuminarius vicus,Vicus Cuminarius,m. p.,XXIIII,m. p. XXIIII,24.0,,https://pleiades.stoa.org/places/266094,39.960387,-3.499679,vicus,settlement,
385,,,23. HISPANIA.,Emerita Augusta-Caesaraugusta-4,route,,,,Titulciam,Titulcia,Titulcia,m. p.,XVIII,m. p. XVIII,18.0,,https://pleiades.stoa.org/places/236684,40.136593,-3.570531,,station,
386,,446.2-3,23. HISPANIA.,?-Caesaraugusta-2,sum-route,,,,,Carausca? Ricciacum?,Caranusca?,,,,,,https://pleiades.stoa.org/places/108857,49.406768,6.151663,,,
387,,446.2-3,23. HISPANIA.,?-Caesaraugusta-2,sum-route,Caesaraugusta mansionibus supra scriptis m. p. CCXV.,,,Caesaraugusta,Caesaraugusta,Col. Caesaraugusta,m. p.,CCXV,m. p. CCXV,215.0,,https://pleiades.stoa.org/places/246344,41.6541855,-0.8772685,,settlement,"Again, the itinerary interrupts and the other mansiones should be supplied from the previous part: Titulcia through Segontia"
388,,446.4,23. HISPANIA.,Laminium-Toletum,sum-route,Item a Liminio Toletum m. p. XCV sic:,,,Liminio,Laminium,Laminium,,,,,,https://pleiades.stoa.org/places/265946,38.899451,-3.053453,,,
389,,446.4,23. HISPANIA.,Laminium-Toletum,sum-route,Item a Liminio Toletum m. p. XCV sic:,,,Toletum,Toletum,Toletum,m. p.,XCV , m. p. XCV ,,,https://pleiades.stoa.org/places/266066,39.85668,-4.024491,,,
390,,,23. HISPANIA.,Laminium-Toletum,route,,,,,Laminium,Laminium,,,,0.0,,https://pleiades.stoa.org/places/265946,38.899451,-3.053453,,settlement,
391,,,23. HISPANIA.,Laminium-Toletum,route,,,,Murum,Murum,(Ad) Murum,m. p.,XXVII,m. p. XXVII,27.0,,https://pleiades.stoa.org/places/265776,39.181617,-3.360099,,station (road or coastal),
392,,,23. HISPANIA.,Laminium-Toletum,route,,,,Consabro,Consabura,Consabura/Consabrum,m. p.,XXIIII,m. p. XXIIII,24.0,,https://pleiades.stoa.org/places/265876,39.460299,-3.606772,,settlement,
393,,,23. HISPANIA.,Laminium-Toletum,route,,,,Toletum,Toletum,Toletum,m. p.,XLIIII,m. p. XLIIII,44.0,,https://pleiades.stoa.org/places/266066,39.85668,-4.024491,,settlement,
394,,446.8-9,23. HISPANIA.,Laminium-Caesaraugusta,sum-route,Item a Laminio alio itinere Caesarea Augusta m. p. CCXLVIIII sic:,,,Laminio,Laminium,Laminium,,,,,,https://pleiades.stoa.org/places/265946,38.899451,-3.053453,,,
395,,446.8-9,23. HISPANIA.,Laminium-Caesaraugusta,sum-route,Item a Laminio alio itinere Caesarea Augusta m. p. CCXLVIIII sic:,,,Caesarea Augusta,Caesaraugusta,Col. Caesaraugusta,m. p.,CCXLVIIII , m. p. CCXLVIIII ,,,https://pleiades.stoa.org/places/246344,41.6541855,-0.8772685,,,
396,,,23. HISPANIA.,Laminium-Caesaraugusta,route,,,,,Laminium,Laminium,,,,0.0,,https://pleiades.stoa.org/places/265946,38.899451,-3.053453,,settlement,
397,,,23. HISPANIA.,Laminium-Caesaraugusta,route,,,,Caput fluminis Anae,Caput fluminis Anae,Caput fluminis Anae,m. p.,VII,m. p. VII,7.0,,https://pleiades.stoa.org/places/265841,38.9679537724237,-2.76708700356332,flumen,station,
398,,,23. HISPANIA.,Laminium-Caesaraugusta,route,,,,Libisosia,Libisosa,Libisosa,m. p.,XIIII,m. p. XIIII,14.0,,https://pleiades.stoa.org/places/265949,38.94902,-2.353783,,settlement,
399,,,23. HISPANIA.,Laminium-Caesaraugusta,route,,,,Parietinis,Parietinae,Parietinae,m. p.,XXII,m. p. XXII,22.0,,https://pleiades.stoa.org/places/265999,38.962484,-2.008396,,station,
400,,,23. HISPANIA.,Laminium-Caesaraugusta,route,,,,Saltici,Saltica/Saltiga,Saltigi,m. p.,XVI,m. p. XVI,16.0,,https://pleiades.stoa.org/places/266025,38.918645,-1.722773,,settlement,
401,,,23. HISPANIA.,Laminium-Caesaraugusta,route,,ad,,Ad Putea,Ad Putea,Ad Putea,m. p.,XXXII,m. p. XXXII,32.0,,https://pleiades.stoa.org/places/265780,39.356508,-1.71902,,station,
405,,,23. HISPANIA.,Laminium-Caesaraugusta,route,,,,Agiria,Agiria,Agiria,m. p.,VI,m. p. VI,6.0,,https://omnesviae.org/#OVPlace359,40.920296,-1.30095,,,
406,,,23. HISPANIA.,Laminium-Caesaraugusta,route,,,,Carae,Carae,Carae,m. p.,X,m. p. X,10.0,,https://pleiades.stoa.org/places/246289,41.087041,-1.314129,,station (road or coastal),
407,,,23. HISPANIA.,Laminium-Caesaraugusta,route,,,,Sermonae,Sermone,Sermonae,m. p.,XXVIIII,m. p. XXVIIII,29.0,,https://pleiades.stoa.org/places/246649,41.336955,-1.224122,,station,
408,,,23. HISPANIA.,Laminium-Caesaraugusta,route,,,,Caesarea Augusta,Caesaraugusta,Col. Caesaraugusta,m. p.,XXVIII,m. p. XXVIII,28.0,,https://pleiades.stoa.org/places/246344,41.6541855,-0.8772685,,settlement,
409,,448.2-3,23. HISPANIA.,Asturica-Tarraco,sum-route,Item ab Asturica Terracone m. p. CCCCLXXXII sic:,,,Asturica,Asturica,Asturica (Augusta),,,,,,https://pleiades.stoa.org/places/236352,42.458776,-6.063532,,,
410,,448.2-3,23. HISPANIA.,Asturica-Tarraco,sum-route,Item ab Asturica Terracone m. p. CCCCLXXXII sic:,,,Terracone,Tarraco,Col. Tarraco,m. p.,CCCCLXXXII , m. p. CCCCLXXXII ,,,https://pleiades.stoa.org/places/246349,41.116892,1.2583375,,,
411,,,23. HISPANIA.,Asturica-Tarraco,route,,,,,Asturica,Asturica (Augusta),,,,0.0,,https://pleiades.stoa.org/places/236352,42.458776,-6.063532,,settlement,
412,,,23. HISPANIA.,Asturica-Tarraco,route,,,,Vallata,Vallata castra,Vallata,m. p.,XVI,m. p. XVI,16.0,,https://pleiades.stoa.org/places/236709,42.517505,-5.766403,,station,
413,,,23. HISPANIA.,Asturica-Tarraco,route,,,,Interamnio,Interamnium,Interamnium,m. p.,XIII,m. p. XIII,13.0,,https://pleiades.stoa.org/places/236487,42.5,-5.5,,unknown,
414,,,23. HISPANIA.,Asturica-Tarraco,route,,,,Palantia,Palantia,Palantia,m. p.,XIIII,m. p. XIIII,14.0,,https://pleiades.stoa.org/places/236590,42.47473,-5.297387,,station,
415,,,23. HISPANIA.,Asturica-Tarraco,route,,,,Viminacio,Biminatium,Viminacium,m. p.,XXXI,m. p. XXXI,31.0,,https://pleiades.stoa.org/places/236721,42.329158,-4.803655,,station (road or coastal),
416,,,23. HISPANIA.,Asturica-Tarraco,route,,,,Lacobrigam,Lacobriga,Lacobriga,m. p.,X,m. p. X,10.0,,https://pleiades.stoa.org/places/236501,42.338959,-4.601768,,settlement,
417,,,23. HISPANIA.,Asturica-Tarraco,route,,,,Dessobriga,Dessobriga,Dessobriga,m. p.,XV,m. p. XV,15.0,,https://pleiades.stoa.org/places/236451,42.40203,-4.28805,,station,
418,,,23. HISPANIA.,Asturica-Tarraco,route,,,,Legisamone,Segisamo,Segisamo,m. p.,XV,m. p. XV,15.0,,https://pleiades.stoa.org/places/236656,42.417842,-4.043492,,station,
419,,,23. HISPANIA.,Asturica-Tarraco,route,,,,Deobrigula,Deobrigula,Deobrigula,m. p.,XV,m. p. XV,15.0,,https://pleiades.stoa.org/places/236450,42.349723,-3.8143853333333295,,station,
420,,,23. HISPANIA.,Asturica-Tarraco,route,,,,Tritium,Tritium,Tritium,m. p.,XXI,m. p. XXI,21.0,,https://pleiades.stoa.org/places/236691,42.459336,-3.484908,,settlement,
421,,,23. HISPANIA.,Asturica-Tarraco,route,,,,Virovenna,Virovesca,Virovesca,m. p.,XI,m. p. XI,11.0,,https://pleiades.stoa.org/places/246748,42.550298,-3.32337,,settlement,
422,,,23. HISPANIA.,Asturica-Tarraco,route,,,,Atiliana,Atiliana,Atiliana,m. p.,XXX,m. p. XXX,30.0,,https://pleiades.stoa.org/places/246200,42.488454,-2.795062,,station,
423,,,23. HISPANIA.,Asturica-Tarraco,route,,,,Barbariana,Barbariana,Barbariana,m. p.,XXXII,m. p. XXXII,32.0,,https://pleiades.stoa.org/places/246225,42.446688,-2.290618,,station,
424,,,23. HISPANIA.,Asturica-Tarraco,route,,,,Craccuris,Graccurris,Ilurcis/Grac(ch)urris,m. p.,XXXII,m. p. XXXII,32.0,,https://pleiades.stoa.org/places/246435,42.178586,-1.749327,,settlement,
425,,,23. HISPANIA.,Asturica-Tarraco,route,,,,Bellisone,Balsio/Belsinum,Belsinon/*Balsio,m. p.,XXVIII,m. p. XXVIII,28.0,,https://pleiades.stoa.org/places/246235,41.900517,-1.418493,,settlement,
426,,,23. HISPANIA.,Asturica-Tarraco,route,,,,Caesarea Augusta,Caesaraugusta,Col. Caesaraugusta,m. p.,XXXVI,m. p. XXXVI,36.0,,https://pleiades.stoa.org/places/246344,41.6541855,-0.8772685,,settlement,
427,,,23. HISPANIA.,Asturica-Tarraco,route,,,,Gallicum,Gallicum,Gallicum,m. p.,XV,m. p. XV,15.0,,https://pleiades.stoa.org/places/246402,41.869036,-0.788248,,station (road or coastal),
428,,,23. HISPANIA.,Asturica-Tarraco,route,,,,Bortinae,Burtinae,Bourtina,m. p.,XVIII,m. p. XVIII,18.0,,https://pleiades.stoa.org/places/246255,42.037142,-0.579741,,settlement,
429,,,23. HISPANIA.,Asturica-Tarraco,route,,,,Oscam,Osca,Osca/Urbs Victrix,m. p.,XII,m. p. XII,12.0,,https://pleiades.stoa.org/places/246539,42.1394475,-0.407326,,settlement,
430,,,23. HISPANIA.,Asturica-Tarraco,route,,,,Caum,Caum,Caum,m. p.,XXVIIII,m. p. XXVIIII,29.0,,https://pleiades.stoa.org/places/246318,41.961262,-0.001435,,settlement,
431,,,23. HISPANIA.,Asturica-Tarraco,route,,,,Mendiculeia,Mendiculeia,Mendiculeia,m. p.,XVIIII,m. p. XVIIII,19.0,,https://pleiades.stoa.org/places/246498,41.812771,0.328559,,station,
432,,,23. HISPANIA.,Asturica-Tarraco,route,,,,Ilerda,Ilerda,Ilerda,m. p.,XXII,m. p. XXII,22.0,,https://pleiades.stoa.org/places/246431,41.6159535,0.625938,,settlement,or https://pleiades.stoa.org/places/271056
433,,,23. HISPANIA.,Asturica-Tarraco,route,,ad,,Ad Novas,Ad Novas,Ad Novas,m. p.,XVIII,m. p. XVIII,18.0,,https://pleiades.stoa.org/places/246138,41.4288637,0.9736408,,station,
434,,,23. HISPANIA.,Asturica-Tarraco,route,,ad,,Ad Septimum Decimum,Ad Septimum Decimum,Ad Septimum Decimum,m. p.,XIII,m. p. XIII,13.0,,https://pleiades.stoa.org/places/246140,41.336206,1.176063,,station,
435,,,23. HISPANIA.,Asturica-Tarraco,route,,,,Tarracone,Tarraco,Col. Tarraco,m. p.,XVII,m. p. XVII,17.0,,https://pleiades.stoa.org/places/246349,41.116892,1.2583375,,settlement,
436,,452.6,23. HISPANIA.,Caesaraugusta-Benearnum,sum-route,Item a Caesarea Augusta Beneharno m. p. CXII sic:,,,Caesarea Augusta,Caesaraugusta,Col. Caesaraugusta,,,,,,https://pleiades.stoa.org/places/246344,41.6541855,-0.8772685,,,
437,,452.6,23. HISPANIA.,Caesaraugusta-Benearnum,sum-route,Item a Caesarea Augusta Beneharno m. p. CXII sic:,,,Beneharno,Benearnum,Bene(h)arnum,m. p.,CXII , m. p. CXII ,,,https://pleiades.stoa.org/places/246237,43.332678,-0.434655,,,
438,,,23. HISPANIA.,Caesaraugusta-Benearnum,route,,,,,Caesaraugusta,Col. Caesaraugusta,,,,0.0,,https://pleiades.stoa.org/places/246344,41.6541855,-0.8772685,,settlement,
439,,,23. HISPANIA.,Caesaraugusta-Benearnum,route,,,,Foro Gallorum,Forum Gallorum,Forum Gallorum,m. p.,XXX,m. p. XXX,30.0,,https://pleiades.stoa.org/places/246395,42.27498,-0.688751,forum,station (road or coastal),
440,,,23. HISPANIA.,Caesaraugusta-Benearnum,route,,,,Ebelino,Ebelinum,Ebelinum,m. p.,XXII,m. p. XXII,22.0,,https://pleiades.stoa.org/places/246373,42.316749,-0.696297,,station,
441,,,23. HISPANIA.,Caesaraugusta-Benearnum,route,,,,Summo Pyreneo,Summum Pyreneum,Summus Pyreneus,m. p.,XXIIII,m. p. XXIIII,24.0,,https://pleiades.stoa.org/places/246672,42.757527,-0.82811,,station,
442,,,23. HISPANIA.,Caesaraugusta-Benearnum,route,,,,Foro Ligneo,Forum Ligneum,Forum Ligneum,m. p.,V,m. p. V,5.0,,https://pleiades.stoa.org/places/246396,42.934045,-0.635378,forum,station,
443,,,23. HISPANIA.,Caesaraugusta-Benearnum,route,,,,Aspalluga,Aspalluga,Aspalluga,m. p.,VII,m. p. VII,7.0,,https://pleiades.stoa.org/places/246195,42.97454,-0.599317,,station,
444,,,23. HISPANIA.,Caesaraugusta-Benearnum,route,,,,Ilurone,Iluro,Iluro,m. p.,XII,m. p. XII,12.0,,https://pleiades.stoa.org/places/246437,43.193235,-0.604491,,settlement,
445,,,23. HISPANIA.,Caesaraugusta-Benearnum,route,,,,Benearnum,Benearnum,Bene(h)arnum,m. p.,XII,m. p. XII,12.0,,https://pleiades.stoa.org/places/246237,43.332678,-0.434655,,settlement,
