sequence-number,place_id,CTS URN,region,route_label,route_type,text_transcription,direction,direction_type,place_transcription,place_normalized,pleiades_label,distance_unit,distance_ancient,distance-ancient,distance_modern,revised_distance,place_uri,latitude,longitude,placetype,placetype_pleiades,comment
3,,,6. ITER TRACIAE.,Kabyle-Hadrianopolis,route,,per compendium,,,Kabyle/Diospolis,Kabyle/Diospolis,,,,0.0,,https://pleiades.stoa.org/places/216859,42.5501536600523,26.4833349450105,,settlement,
4,,,6. ITER TRACIAE.,Kabyle-Hadrianopolis,route,,,,Orudisza ad Burgum,Orudissa,Odrysae (region),m. p.,XXX,m. p. XXX,30.0,,https://pleiades.stoa.org/places/216906,42.4048025058946,26.828072801517,,region,Uncertain identification
6,,,6. ITER TRACIAE.,Kabyle-Hadrianopolis,route,,,,Adrianopoli,Hadrianopolis,Hadrianoupolis,m. p.,XXIIII,m. p. XXIIII,24.0,,https://pleiades.stoa.org/places/501428,41.676459,26.562891,,settlement,
9,,,6. ITER TRACIAE.,Plotinopolis-Heraclea/Perinthus,route,,,,,Plotinopolis,Plotino(u)polis,,,,0.0,,https://pleiades.stoa.org/places/501572,41.358625,26.499702,,settlement,
10,,,6. ITER TRACIAE.,Plotinopolis-Heraclea/Perinthus,route,,,,Traianopolim,Traianopolis,Traianopolis,m. p.,XXII,m. p. XXII,22.0,,https://pleiades.stoa.org/places/648772,36.258509,32.282734,,settlement,
11,,,6. ITER TRACIAE.,Plotinopolis-Heraclea/Perinthus,route,,,,Apris,Aproi,Ad Duodecimum,m. p.,XXIII,m. p. XXIII,23.0,,https://pleiades.stoa.org/places/501326,41.25,24.25,,station (road or coastal),
12,,,6. ITER TRACIAE.,Plotinopolis-Heraclea/Perinthus,route,,,,Resisto,Resisthon/Bisanthe,Bisanthe/Rhaidestos,m. p.,XXII,m. p. XXII,22.0,,https://pleiades.stoa.org/places/511187,40.978415,27.508023,,settlement,
13,,,6. ITER TRACIAE.,Plotinopolis-Heraclea/Perinthus,route,,,,Heraclea,Perinthus/Heraclea,Perinthus/Heraclea,m. p.,XXV,m. p. XXV,25.0,,https://pleiades.stoa.org/places/511357,40.971013,27.952973,,settlement,
16,,,6. ITER TRACIAE.,Sebasteia-Kokussos-1,route,,,,,Sebasteia,Sebasteia/Megalopolis?/Talaura?,,,,0.0,,https://pleiades.stoa.org/places/629075,39.7490195,37.016607,,settlement,
18,,,6. ITER TRACIAE.,Sebasteia-Kokussos-1,route,,,,Euspena,Euspoena,Euspena,m. p.,XXVIII,m. p. XXVIII,28.0,,https://pleiades.stoa.org/places/628977,39.235631,37.385969,,settlement,
21,,,6. ITER TRACIAE.,Sebasteia-Kokussos-1,route,,,,Pisonos,Pisonos,Siniskolon,m. p.,XXXII,m. p. XXXII,32.0,,https://pleiades.stoa.org/places/629080,38.625474,38.132024,,settlement,
22,,,6. ITER TRACIAE.,Sebasteia-Kokussos-1,route,,,,Meletena,Melitene,Melitene,m. p.,XXII,m. p. XXII,22.0,,https://pleiades.stoa.org/places/629040,38.382217,38.361152,,settlement,
23,,,6. ITER TRACIAE.,Sebasteia-Kokussos-1,route,,,,Arcas,Arca,Arca,m. p.,XXVI,m. p. XXVI,26.0,,https://pleiades.stoa.org/places/628929,38.33454,37.9711315,,settlement,
25,,,6. ITER TRACIAE.,Sebasteia-Kokussos-1,route,,,,Osdara,Asdara,Osdara,m. p.,XXIIII,m. p. XXIIII,24.0,,https://pleiades.stoa.org/places/629049,38.240638,37.328382,,settlement,
26,,,6. ITER TRACIAE.,Sebasteia-Kokussos-1,route,,,,Ptandari,Tanadaris,Tanadaris,m. p.,XXIIII,m. p. XXIIII,24.0,,https://pleiades.stoa.org/places/629091,38.422166,36.913591,,settlement,
27,,,6. ITER TRACIAE.,Sebasteia-Kokussos-1,route,,,,Cocuso,Kokussos,Kokousos,m. p.,XXXVIII,m. p. XXXVIII,38.0,,https://pleiades.stoa.org/places/629013,38.031581,36.4983445,,settlement,
30,,,6. ITER TRACIAE.,Sebasteia-Kokussos-2,route,,,,,Sebasteia,Sebasteia/Megalopolis?/Talaura?,,,,0.0,,https://pleiades.stoa.org/places/629075,39.7490195,37.016607,,settlement,
32,,,6. ITER TRACIAE.,Sebasteia-Kokussos-2,route,,,,Malandara,Malandara,Malandara,m. p.,XXX,m. p. XXX,30.0,,https://pleiades.stoa.org/places/629031,39.3502785,36.4101085,,station,
33,,,6. ITER TRACIAE.,Sebasteia-Kokussos-2,route,,,,Armaxa,Armaza,Armaxa,m. p.,XXVIII,m. p. XXVIII,28.0,,https://pleiades.stoa.org/places/628935,39.18618,36.0663835,,settlement,
34,,,6. ITER TRACIAE.,Sebasteia-Kokussos-2,route,,,,Eulepa,Eulepa,Eulepa,m. p.,XXIIII,m. p. XXIIII,24.0,,https://pleiades.stoa.org/places/628974,39.02792,35.870839,,settlement,
35,,,6. ITER TRACIAE.,Sebasteia-Kokussos-2,route,,per,,Caesarea,Mazaca Caesarea,Mazaka/Eusebeia/Caesarea,m. p.,XVI,m. p. XVI,16.0,,https://pleiades.stoa.org/places/629035,38.72640055,35.4743607,,settlement,
36,,,6. ITER TRACIAE.,Sebasteia-Kokussos-2,route,,,,Artaxata,Artaxata,Arasaxa,m. p.,XXVII,m. p. XXVII,27.0,,https://pleiades.stoa.org/places/628928,38.6239795,35.87671,,settlement,
37,,,6. ITER TRACIAE.,Sebasteia-Kokussos-2,route,,,,Coduzalaba,Coduzalaba,Coduzalaba,m. p.,XVIIII,m. p. XVIIII,19.0,,https://pleiades.stoa.org/places/629009,38.15395,35.786827,,settlement,
38,,,6. ITER TRACIAE.,Sebasteia-Kokussos-2,route,,,,Comana,Komana,Comana/Hierapolis/Chryse,m. p.,XXIIII,m. p. XXIIII,24.0,,https://pleiades.stoa.org/places/628959,38.331325235828,36.3239848355357,,settlement,
39,,,6. ITER TRACIAE.,Sebasteia-Kokussos-2,route,,,,Ptandari,Tanadaris,Tanadaris,m. p.,XXIIII,m. p. XXIIII,24.0,,https://pleiades.stoa.org/places/629091,38.422166,36.913591,,settlement,
40,,,6. ITER TRACIAE.,Sebasteia-Kokussos-2,route,,,,Cocuso,Kokussos,Kokousos,m. p.,XXXVIII,m. p. XXXVIII,38.0,,https://pleiades.stoa.org/places/629013,38.031581,36.4983445,,settlement,
43,,,6. ITER TRACIAE.,Sebasteia-Kokussos-3,route,,per compendium,,,Sebasteia,Sebasteia/Megalopolis?/Talaura?,,,,0.0,,https://pleiades.stoa.org/places/629075,39.7490195,37.016607,,settlement,
44,,,6. ITER TRACIAE.,Sebasteia-Kokussos-3,route,,,,Tonosa,Tonosa,Tonosa,m. p.,L,m. p. L,50.0,,https://pleiades.stoa.org/places/629099,39.283695,36.75576,,settlement,
45,,,6. ITER TRACIAE.,Sebasteia-Kokussos-3,route,,,,Ariarathia,Ariarathia,Ariaratheia,m. p.,L,m. p. L,50.0,,https://pleiades.stoa.org/places/628934,38.723507,36.392334,,settlement,
46,,,6. ITER TRACIAE.,Sebasteia-Kokussos-3,route,,,,Coduzalaba,Coduzalaba,Coduzalaba,m. p.,XX,m. p. XX,20.0,,https://pleiades.stoa.org/places/629009,38.15395,35.786827,,settlement,
47,,,6. ITER TRACIAE.,Sebasteia-Kokussos-3,route,,,,Comana,Komana,Comana,m. p.,XXIIII,m. p. XXIIII,24.0,,https://pleiades.stoa.org/places/629028,38.1898205,37.086546,,settlement,
48,,,6. ITER TRACIAE.,Sebasteia-Kokussos-3,route,,,,Ptandari,Tanadaris,Tanadaris,m. p.,XXIIII,m. p. XXIIII,24.0,,https://pleiades.stoa.org/places/629091,38.422166,36.913591,,settlement,
49,,,6. ITER TRACIAE.,Sebasteia-Kokussos-3,route,,,,Cocuso,Kokussos,Kokousos,m. p.,XXXVIII,m. p. XXXVIII,38.0,,https://pleiades.stoa.org/places/629013,38.031581,36.4983445,,settlement,
52,,,6. ITER TRACIAE.,Arabissos-Satala,route,,per compendium,,,Arabissos/Tripotamos,Arabissos/Tripotamos,,,,0.0,,https://pleiades.stoa.org/places/628925,38.246013,36.911673,,settlement,
53,,,6. ITER TRACIAE.,Arabissos-Satala,route,,,,Tonosa,Tonosa,Tonosa,m. p.,XXVIII,m. p. XXVIII,28.0,,https://pleiades.stoa.org/places/629099,39.283695,36.75576,,settlement,
54,,,6. ITER TRACIAE.,Arabissos-Satala,route,,,,Zoana,Zoana,Zoana,m. p.,XXV,m. p. XXV,25.0,,https://pleiades.stoa.org/places/629108,39.408267,37.091813,,settlement,
55,,,6. ITER TRACIAE.,Arabissos-Satala,route,,,,Gundusa,Godasa,Gundusa,m. p.,XXIII,m. p. XXIII,23.0,,https://pleiades.stoa.org/places/628984,39.571371,37.308303,,settlement,
56,,,6. ITER TRACIAE.,Arabissos-Satala,route,,,,Eumeis,Eumeis,Kamisa/Comassa,m. p.,XXX,m. p. XXX,30.0,,https://pleiades.stoa.org/places/628997,39.845769,37.401155,,settlement,
57,,,6. ITER TRACIAE.,Arabissos-Satala,route,,,,Sara,Zara,Zara,m. p.,XVIII,m. p. XVIII,18.0,,https://pleiades.stoa.org/places/629105,39.89671,37.755439,,settlement,
58,,,6. ITER TRACIAE.,Arabissos-Satala,route,,,,Dagalasso,Megalossus,Megalossos/‘Dagalasso’,m. p.,XX,m. p. XX,20.0,,https://pleiades.stoa.org/places/857231,40.196836,37.980042,,station,
59,,,6. ITER TRACIAE.,Arabissos-Satala,route,,,,Nicopoli,Nicopolis,Nicopolis,m. p.,XXIIII,m. p. XXIIII,24.0,,https://pleiades.stoa.org/places/857248,40.1485567,38.14353355,,settlement,
60,,,6. ITER TRACIAE.,Arabissos-Satala,route,,,,Olotoaelariza,Olotoedariza,Olotoedariza,m. p.,XXIIII,m. p. XXIIII,24.0,,https://pleiades.stoa.org/places/857255,40.07737,38.594684,,settlement,
62,,,6. ITER TRACIAE.,Arabissos-Satala,route,,,,Haza,Haza,Haza/Hassis,m. p.,XXIIII,m. p. XXIIII,24.0,,https://pleiades.stoa.org/places/874507,39.983333,39.333333,,fort,
63,,,6. ITER TRACIAE.,Arabissos-Satala,route,,,,Satala leg. XV Apollinans,Satala,Satala,m. p.,XXVI,m. p. XXVI,26.0,,https://pleiades.stoa.org/places/874684,40.02789515,39.59791835,legio,fort-2,
66,,,6. ITER TRACIAE.,Germanicia-Edessa-1,route,,,,,Germanicia,Germanikeia,,,,0.0,,https://pleiades.stoa.org/places/658474,37.5841372,36.9264045,,settlement,
67,,,6. ITER TRACIAE.,Germanicia-Edessa-1,route,,,,Sicos Basilisses,Sicos Basilisses,Sicos Basilisses,m. p.,XX,m. p. XX,20.0,,https://pleiades.stoa.org/places/658597,37.411526,37.330858,,station,
68,,,6. ITER TRACIAE.,Germanicia-Edessa-1,route,,per,,Dolica,Doliche,Doliche,m. p.,X,m. p. X,10.0,,https://pleiades.stoa.org/places/658455,37.1277922574938,37.3452345777126,,settlement,
69,,,6. ITER TRACIAE.,Germanicia-Edessa-1,route,,per,,Zeuma,Zeugma,Zeugma,m. p.,XII,m. p. XII,12.0,,https://pleiades.stoa.org/places/658636,37.058156,37.86983,,settlement,
70,,,6. ITER TRACIAE.,Germanicia-Edessa-1,route,,,,Bemmaris,Bemmaris,Can(n)aba,m. p.,XX,m. p. XX,20.0,,https://pleiades.stoa.org/places/658421,37.126213,38.186464,,station,
71,,,6. ITER TRACIAE.,Germanicia-Edessa-1,route,,,,Edissa,Edessa,Edessa/Antiochia ad Callirhoem,m. p.,XXV,m. p. XXV,25.0,,https://pleiades.stoa.org/places/658457,37.1625575,38.781432,,settlement,
74,,,6. ITER TRACIAE.,Germanicia-Edessa-2,route,,,,,Germanicia,Germanikeia,,,,0.0,,https://pleiades.stoa.org/places/658474,37.5841372,36.9264045,,settlement,
75,,,6. ITER TRACIAE.,Germanicia-Edessa-2,route,In Catabana,in,,Catabana,Catabana,Catabana,m. p.,XV,m. p. XV,15.0,,https://pleiades.stoa.org/places/658428,37.467406,37.34102,,settlement,
76,,,6. ITER TRACIAE.,Germanicia-Edessa-2,route,,,,Nisus,Cisus,Nisus/Cesum,m. p.,XVI,m. p. XVI,16.0,,https://pleiades.stoa.org/places/658551,37.691289,37.860099,,settlement,
77,,,6. ITER TRACIAE.,Germanicia-Edessa-2,route,,,,Tharse,Tarsa,T(h)arsa,m. p.,XIIII,m. p. XIIII,14.0,,https://pleiades.stoa.org/places/658617,37.506344,38.226396,,settlement,
78,,,6. ITER TRACIAE.,Germanicia-Edessa-2,route,,per,,Samosata leg. VII,Samosata,Samosata,m. p.,XIII,m. p. XIII,13.0,,https://pleiades.stoa.org/places/658587,37.525756,38.530357,legio,settlement,
79,,,6. ITER TRACIAE.,Germanicia-Edessa-2,route,,,,Edissa,Edessa,Edessa/Antiochia ad Callirhoem,m. p.,XII,m. p. XII,12.0,,https://pleiades.stoa.org/places/658457,37.1625575,38.781432,,settlement,
82,,,6. ITER TRACIAE.,Antiochia-Emesa,route,,,,,Antiochia,Antiochia/Theoupolis,,,,0.0,,https://pleiades.stoa.org/places/658381,36.2225515,36.183214,,urban,
85,,,6. ITER TRACIAE.,Antiochia-Emesa,route,,,,Apamia,Apameia,Pella/Apamea,m. p.,XX,m. p. XX,20.0,,https://pleiades.stoa.org/places/668335,35.4213771435961,36.402413280231,,settlement,
86,,,6. ITER TRACIAE.,Antiochia-Emesa,route,,,,Larissa,Larissa,Larissa/Sizara,m. p.,XVI,m. p. XVI,16.0,,https://pleiades.stoa.org/places/668292,35.2663435,36.5664463,,settlement,
87,,,6. ITER TRACIAE.,Antiochia-Emesa,route,,,,Epitania,Epiphania/Amathe,Amathe/Epiphaneia,m. p.,XVI,m. p. XVI,16.0,,https://pleiades.stoa.org/places/668182,35.1329746,36.7488012,,settlement,
88,,,6. ITER TRACIAE.,Antiochia-Emesa,route,,,,Arethusa,Arethusa,Areth(o)usa,m. p.,XVI,m. p. XVI,16.0,,https://pleiades.stoa.org/places/668199,34.960169,36.735111,,settlement,
89,,,6. ITER TRACIAE.,Antiochia-Emesa,route,,,,Hemesa,Emesa,(H)Emesa,m. p.,XVI,m. p. XVI,16.0,,https://pleiades.stoa.org/places/668261,34.7376565,36.719319,,settlement,
92,,,6. ITER TRACIAE.,Arabissos-Muzana,route,,,,,Arabissos/Tripotamos,Arabissos/Tripotamos,,,,0.0,,https://pleiades.stoa.org/places/628925,38.246013,36.911673,,settlement,
93,,,6. ITER TRACIAE.,Arabissos-Muzana,route,,in medio,,In Medio,In Medio,In Medio,m. p.,XXII,m. p. XXII,22.0,,https://pleiades.stoa.org/places/628992,39.454496,36.957087,,station,
97,,,6. ITER TRACIAE.,Germanicia-Edessa-3,route,,,,,Germanicia,Germanikeia,,,,0.0,,https://pleiades.stoa.org/places/658474,37.5841372,36.9264045,,settlement,
98,,,6. ITER TRACIAE.,Germanicia-Edessa-3,route,,,,Sico Basilisses,Sico Basilisses,Sicos Basilisses,m. p.,XV,m. p. XV,15.0,,https://pleiades.stoa.org/places/658597,37.411526,37.330858,,station,
99,,,6. ITER TRACIAE.,Germanicia-Edessa-3,route,,,,Dolica,Doliche,Doliche,m. p.,XV,m. p. XV,15.0,,https://pleiades.stoa.org/places/658455,37.1277922574938,37.3452345777126,,settlement,
100,,,6. ITER TRACIAE.,Germanicia-Edessa-3,route,,,,Zeuma,Zeugma,Zeugma,m. p.,XIIII,m. p. XIIII,14.0,,https://pleiades.stoa.org/places/658636,37.058156,37.86983,,settlement,
101,,,6. ITER TRACIAE.,Germanicia-Edessa-3,route,,,,Cannaba,Cannaba,Can(n)aba,m. p.,XIII,m. p. XIII,13.0,,https://pleiades.stoa.org/places/658421,37.126213,38.186464,,station,
102,,,6. ITER TRACIAE.,Germanicia-Edessa-3,route,,,,In Medio,In Medio,In Medio,m. p.,XII,m. p. XII,12.0,,https://pleiades.stoa.org/places/658487,37.152848,38.399985,,station,
103,,,6. ITER TRACIAE.,Germanicia-Edessa-3,route,,,,Aedissa,Edessa,Edessa/Antiochia ad Callirhoem,m. p.,XV,m. p. XV,15.0,,https://pleiades.stoa.org/places/658457,37.1625575,38.781432,,settlement,
106,,,6. ITER TRACIAE.,Cyrrhus-Edessa,route,,,,,Cyrrhus,Cyrrus/Hagioupolis,,,,0.0,,https://pleiades.stoa.org/places/658446,36.7450685842699,36.9597132065432,,settlement,
107,,,6. ITER TRACIAE.,Cyrrhus-Edessa,route,,,,Ciliza sive Urmagiganti,Kiliza,Ciliza/Urmagiganti,m. p.,XII,m. p. XII,12.0,,https://pleiades.stoa.org/places/658442,36.716346,37.114125,,settlement,
108,,,6. ITER TRACIAE.,Cyrrhus-Edessa,route,,,,Abarara,Abarara,Abarara,m. p.,X,m. p. X,10.0,,https://pleiades.stoa.org/places/658362,36.807851,37.416023,,station,
109,,,6. ITER TRACIAE.,Cyrrhus-Edessa,route,,,,Zeugma,Zeugma,Zeugma,m. p.,XXII,m. p. XXII,22.0,,https://pleiades.stoa.org/places/658636,37.058156,37.86983,,settlement,
110,,,6. ITER TRACIAE.,Cyrrhus-Edessa,route,,,,Bemmari Canna,Bemmaris,Batnae/Markopolis,m. p.,XL,m. p. XL,40.0,,https://pleiades.stoa.org/places/658405,36.9763845,38.424374,,settlement,
111,,,6. ITER TRACIAE.,Cyrrhus-Edessa,route,,,,Bathenas Meri,Bathnae,Batnae/Markopolis,m. p.,VIII,m. p. VIII,8.0,,https://pleiades.stoa.org/places/658405,36.9763845,38.424374,,settlement,
112,,,6. ITER TRACIAE.,Cyrrhus-Edessa,route,,,,Aedissa,Edessa,Edessa/Antiochia ad Callirhoem,m. p.,X,m. p. X,10.0,,https://pleiades.stoa.org/places/658457,37.1625575,38.781432,,settlement,
115,,,6. ITER TRACIAE.,Nicopolis-Edessa,route,,,,,Nicopolis,Nicopolis,,,,0.0,,https://pleiades.stoa.org/places/658547,37.0262595,36.6325185,,settlement,
116,,,6. ITER TRACIAE.,Nicopolis-Edessa,route,,,,Aliaria,Aliaria,Aliaria,m. p.,XIII,m. p. XIII,13.0,,https://pleiades.stoa.org/places/658373,37.163189,36.722278,,station,
117,,,6. ITER TRACIAE.,Nicopolis-Edessa,route,,,,Gerbedisso,Gerbedisso,Gerbedisso,m. p.,XV,m. p. XV,15.0,,https://pleiades.stoa.org/places/658473,37.171671,36.903186,,station,
118,,,6. ITER TRACIAE.,Nicopolis-Edessa,route,,,,Dolicha,Doliche,Doliche,m. p.,XX,m. p. XX,20.0,,https://pleiades.stoa.org/places/658455,37.1277922574938,37.3452345777126,,settlement,
119,,,6. ITER TRACIAE.,Nicopolis-Edessa,route,,,,Zeuma,Zeugma,Zeugma,m. p.,XXIIII,m. p. XXIIII,24.0,,https://pleiades.stoa.org/places/658636,37.058156,37.86983,,settlement,
120,,,6. ITER TRACIAE.,Nicopolis-Edessa,route,,,,Canaba,Cannaba,Can(n)aba,m. p.,XXV,m. p. XXV,25.0,,https://pleiades.stoa.org/places/658421,37.126213,38.186464,,station,
121,,,6. ITER TRACIAE.,Nicopolis-Edessa,route,,,,In Medio,In Medio,In Medio,m. p.,XXII,m. p. XXII,22.0,,https://pleiades.stoa.org/places/658487,37.152848,38.399985,,station,
122,,,6. ITER TRACIAE.,Nicopolis-Edessa,route,,,,Aedissa,Edessa,Edessa/Antiochia ad Callirhoem,m. p.,XVIII,m. p. XVIII,18.0,,https://pleiades.stoa.org/places/658457,37.1625575,38.781432,,settlement,
125,,,6. ITER TRACIAE.,Callecoma-Edessa,route,,,,,Callecoma/Callicome,Callicome,,,,0.0,,https://pleiades.stoa.org/places/658420,36.217791,37.193425,,station,
126,,,6. ITER TRACIAE.,Callecoma-Edessa,route,,,,Bathnas,Bathnae,Batnai,m. p.,XXIIII,m. p. XXIIII,24.0,,https://pleiades.stoa.org/places/658406,36.383528,37.53822,,settlement,
127,,,6. ITER TRACIAE.,Callecoma-Edessa,route,,,,Hierapoli,Hierapolis/Bambyke,Hierapolis/Bambyke,m. p.,XXI,m. p. XXI,21.0,,https://pleiades.stoa.org/places/658480,36.526326,37.956528,,settlement,
129,,,6. ITER TRACIAE.,Callecoma-Edessa,route,,,,Bathanas,Bathnae,Batnae/Markopolis,m. p.,XV,m. p. XV,15.0,,https://pleiades.stoa.org/places/658405,36.9763845,38.424374,,settlement,
130,,,6. ITER TRACIAE.,Callecoma-Edessa,route,,,,Aedissa,Edessa,Edessa/Antiochia ad Callirhoem,m. p.,XV,m. p. XV,15.0,,https://pleiades.stoa.org/places/658457,37.1625575,38.781432,,settlement,
133,,,6. ITER TRACIAE.,Carrhae-Hierapolis,route,,,,,Karrhai/Carrhae,Harran/Carrhae,,,,0.0,,https://pleiades.stoa.org/places/658427,36.8635943093853,39.0307496505361,,settlement,
134,,,6. ITER TRACIAE.,Carrhae-Hierapolis,route,,,,Bathnas,Bathnae,Batnae/Markopolis,m. p.,XXX,m. p. XXX,30.0,,https://pleiades.stoa.org/places/658405,36.9763845,38.424374,,settlement,
136,,,6. ITER TRACIAE.,Carrhae-Hierapolis,route,,,,Hierapoli,Hierapolis/Bambyke,Hierapolis/Bambyke,m. p.,XXXI,m. p. XXXI,31.0,,https://pleiades.stoa.org/places/658480,36.526326,37.956528,,settlement,
139,,,6. ITER TRACIAE.,Cyrrhus-Emesa,route,,,,,Cyrrhus,Cyrrus/Hagioupolis,,,,0.0,,https://pleiades.stoa.org/places/658446,36.7450685842699,36.9597132065432,,settlement,
140,,,6. ITER TRACIAE.,Cyrrhus-Emesa,route,,,,Minnicam,Minnica,Minnica,m. p.,XX,m. p. XX,20.0,,https://pleiades.stoa.org/places/658536,36.520874,37.081608,,station,
141,,,6. ITER TRACIAE.,Cyrrhus-Emesa,route,,,,Beroa,Beroa,Beroia,m. p.,XXII,m. p. XXII,22.0,,https://pleiades.stoa.org/places/658409,36.1994074124961,37.1628351411131,,settlement,
142,,,6. ITER TRACIAE.,Cyrrhus-Emesa,route,,,,Calcida,Chalcis,Chalcis ad Belum,m. p.,XVIII,m. p. XVIII,18.0,,https://pleiades.stoa.org/places/668226,36.007956,37.009719,,settlement,
143,,,6. ITER TRACIAE.,Cyrrhus-Emesa,route,,,,Arra,Arra,Arra,m. p.,XX,m. p. XX,20.0,,https://pleiades.stoa.org/places/609323,38.61636,31.939387,,settlement,
145,,,6. ITER TRACIAE.,Cyrrhus-Emesa,route,,,,Epifania,Epiphania/Amathe,Amathe/Epiphaneia,m. p.,XVI,m. p. XVI,16.0,,https://pleiades.stoa.org/places/668182,35.1329746,36.7488012,,settlement,
146,,,6. ITER TRACIAE.,Cyrrhus-Emesa,route,,,,Aretusa,Arethusa,Areth(o)usa,m. p.,XVI,m. p. XVI,16.0,,https://pleiades.stoa.org/places/668199,34.960169,36.735111,,settlement,
147,,,6. ITER TRACIAE.,Cyrrhus-Emesa,route,,,,Hemesa,Emesa,(H)Emesa,m. p.,XVI,m. p. XVI,16.0,,https://pleiades.stoa.org/places/668261,34.7376565,36.719319,,settlement,
150,,,6. ITER TRACIAE.,Doliche-Seriane,route,,,,,Doliche,Doliche,,,,0.0,,https://pleiades.stoa.org/places/658455,37.1277922574938,37.3452345777126,,settlement,
151,,,6. ITER TRACIAE.,Doliche-Seriane,route,,,,Hanunea,Chaonia/Channunia,Chaonia/Channunia,,,,0.0,,https://pleiades.stoa.org/places/658433,36.879642,37.268251,,station,
152,,,6. ITER TRACIAE.,Doliche-Seriane,route,,,,Cyrro,Cyrrhus,Cyrrus/Hagioupolis,m. p.,XXIIII,m. p. XXIIII,24.0,,https://pleiades.stoa.org/places/658446,36.7450685842699,36.9597132065432,,settlement,
153,,,6. ITER TRACIAE.,Doliche-Seriane,route,,,,Minnica,Minnica,Minnica,m. p.,XXIIII,m. p. XXIIII,24.0,,https://pleiades.stoa.org/places/658536,36.520874,37.081608,,station,
154,,,6. ITER TRACIAE.,Doliche-Seriane,route,,,,Borea,Borea,Beroia,m. p.,XX,m. p. XX,20.0,,https://pleiades.stoa.org/places/658409,36.1994074124961,37.1628351411131,,settlement,
155,,,6. ITER TRACIAE.,Doliche-Seriane,route,,,,Calcida,Chalcis,Chalcis ad Belum,m. p.,XV,m. p. XV,15.0,,https://pleiades.stoa.org/places/668226,36.007956,37.009719,,settlement,
156,,,6. ITER TRACIAE.,Doliche-Seriane,route,,,,Androna,Androna,Androna/Andarna,m. p.,XXVII,m. p. XXVII,27.0,,https://pleiades.stoa.org/places/668189,35.5339668923135,37.3619165815084,,settlement,
157,,,6. ITER TRACIAE.,Doliche-Seriane,route,,,,Seriane,Seriane,Seriane?,m. p.,XVIII,m. p. XVIII,18.0,,https://pleiades.stoa.org/places/668369,35.387685,37.800064,,settlement,
160,,,6. ITER TRACIAE.,Callecoma-Larissa,route,,,,,Callecoma/Callicome,Callicome,,,,0.0,,https://pleiades.stoa.org/places/658420,36.217791,37.193425,,station,
161,,,6. ITER TRACIAE.,Callecoma-Larissa,route,,,,Calcida,Chalcis,Chalcis ad Belum,m. p.,XVIII,m. p. XVIII,18.0,,https://pleiades.stoa.org/places/668226,36.007956,37.009719,,settlement,
162,,,6. ITER TRACIAE.,Callecoma-Larissa,route,,,,Temmeliso,Temmeliso/Thelmenissos,*Telmenissos/Maratomyrton?,m. p.,XX,m. p. XX,20.0,,https://pleiades.stoa.org/places/668384,35.663986,36.741299,,station,
163,,,6. ITER TRACIAE.,Callecoma-Larissa,route,,,,Apamia,Apameia,Pella/Apamea,m. p.,XXV,m. p. XXV,25.0,,https://pleiades.stoa.org/places/668335,35.4213771435961,36.402413280231,,settlement,
164,,,6. ITER TRACIAE.,Callecoma-Larissa,route,,,,Larissa,Larissa,Larissa/Sizara,m. p.,XVI,m. p. XVI,16.0,,https://pleiades.stoa.org/places/668292,35.2663435,36.5664463,,settlement,
167,,,6. ITER TRACIAE.,Euaria-Neapolis,route,,,,,Euaria,Aueria/Euareia,,,,0.0,,https://pleiades.stoa.org/places/668202,34.3077,37.100931,,settlement,
168,,,6. ITER TRACIAE.,Euaria-Neapolis,route,,,,Geroda,Geroda,Geroda/Korada?,m. p.,XL,m. p. XL,40.0,,https://pleiades.stoa.org/places/678159,33.800702,36.712165,,station,
169,,,6. ITER TRACIAE.,Euaria-Neapolis,route,,,,Thelsee,Thelseai,Thelseai,m. p.,XVI,m. p. XVI,16.0,,https://pleiades.stoa.org/places/678427,33.64758,36.664993,,settlement,
170,,,6. ITER TRACIAE.,Euaria-Neapolis,route,,,,Damasco,Damascus,Damascus,m. p.,XXIIII,m. p. XXIIII,24.0,,https://pleiades.stoa.org/places/678106,33.511612,36.309102,,settlement,
171,,,6. ITER TRACIAE.,Euaria-Neapolis,route,,,,Aere,Aere,Aere,m. p.,XXXII,m. p. XXXII,32.0,,https://pleiades.stoa.org/places/678004,33.071101,36.185274,,settlement,
172,,,6. ITER TRACIAE.,Euaria-Neapolis,route,,,,Neve,Neve,Neue,m. p.,XXX,m. p. XXX,30.0,,https://pleiades.stoa.org/places/678307,32.889163,36.0422425,,settlement,
173,,,6. ITER TRACIAE.,Euaria-Neapolis,route,,,,Capitoliada,Kapitolias,Kapitolias,m. p.,XXXVI,m. p. XXXVI,36.0,,https://pleiades.stoa.org/places/678224,32.5986015,35.8582935,,settlement,
174,,,6. ITER TRACIAE.,Euaria-Neapolis,route,,,,Gadara,Gadara,Gadara,m. p.,XVI,m. p. XVI,16.0,,https://pleiades.stoa.org/places/697665,32.022341,35.716993,,settlement,
175,,,6. ITER TRACIAE.,Euaria-Neapolis,route,,,,Scytopoli,Scythopolis,Scythopolis/Nysa,m. p.,XVI,m. p. XVI,16.0,,https://pleiades.stoa.org/places/678378,32.5033615,35.502981,,settlement,
176,,,6. ITER TRACIAE.,Euaria-Neapolis,route,,,,In Medio,In Medio,In Medio,m. p.,X,m. p. X,10.0,,https://pleiades.stoa.org/places/628992,39.454496,36.957087,,station,Could this be Aser?
177,,,6. ITER TRACIAE.,Euaria-Neapolis,route,,,,Neapoli,Neapolis,Neapolis,m. p.,VII,m. p. VII,7.0,,https://pleiades.stoa.org/places/678301,32.218685,35.262911,,settlement,
180,,,6. ITER TRACIAE.,Seriane-Scytopolis,route,,,,,Seriane,Seriane?,,,,0.0,,https://pleiades.stoa.org/places/668369,35.387685,37.800064,,settlement,
181,,,6. ITER TRACIAE.,Seriane-Scytopolis,route,,,,Salaminiada,Salamias,Salamias,m. p.,XXXII,m. p. XXXII,32.0,,https://pleiades.stoa.org/places/668362,35.050807,37.057146,,settlement,
182,,,6. ITER TRACIAE.,Seriane-Scytopolis,route,,,,Hemisa,Emesa,(H)Emesa,m. p.,XVIII,m. p. XVIII,18.0,,https://pleiades.stoa.org/places/668261,34.7376565,36.719319,,settlement,
183,,,6. ITER TRACIAE.,Seriane-Scytopolis,route,,,,Laudicia,Laodicea,Laodicea ad Libanum,m. p.,XVIII,m. p. XVIII,18.0,,https://pleiades.stoa.org/places/668291,34.5570749356809,36.5193778642442,,settlement,
184,,,6. ITER TRACIAE.,Seriane-Scytopolis,route,,,,Libo,Libo,Libo,m. p.,XXXII,m. p. XXXII,32.0,,https://pleiades.stoa.org/places/668297,34.20290655,36.35742265,,settlement,
185,,,6. ITER TRACIAE.,Seriane-Scytopolis,route,,,,Heliupoli,Heliopolis,Heliopolis/Col. Iulia Augusta Felix,m. p.,XXXII,m. p. XXXII,32.0,,https://pleiades.stoa.org/places/678179,34.0063794317348,36.2038547330563,,settlement,
186,,,6. ITER TRACIAE.,Seriane-Scytopolis,route,,,,Abila,Abila,Abila Lysaniou,m. p.,XXXVIII,m. p. XXXVIII,38.0,,https://pleiades.stoa.org/places/677993,33.627108,36.1159485,,settlement,
187,,,6. ITER TRACIAE.,Seriane-Scytopolis,route,,,,Damasco,Damascus,Damascus,m. p.,XVIII,m. p. XVIII,18.0,,https://pleiades.stoa.org/places/678106,33.511612,36.309102,,settlement,
188,,,6. ITER TRACIAE.,Seriane-Scytopolis,route,,,,Aere,Aere,Aere,m. p.,XXXII,m. p. XXXII,32.0,,https://pleiades.stoa.org/places/678004,33.071101,36.185274,,settlement,
189,,,6. ITER TRACIAE.,Seriane-Scytopolis,route,,,,Neve,Neve,Neue,m. p.,XXX,m. p. XXX,30.0,,https://pleiades.stoa.org/places/678307,32.889163,36.0422425,,settlement,
190,,,6. ITER TRACIAE.,Seriane-Scytopolis,route,,,,Capitoliada,Kapitolias,Kapitolias,m. p.,XXXVI,m. p. XXXVI,36.0,,https://pleiades.stoa.org/places/678224,32.5986015,35.8582935,,settlement,
191,,,6. ITER TRACIAE.,Seriane-Scytopolis,route,,,,Gadara,Gadara,Gadara,m. p.,XVI,m. p. XVI,16.0,,https://pleiades.stoa.org/places/697665,32.022341,35.716993,,settlement,
192,,,6. ITER TRACIAE.,Seriane-Scytopolis,route,,,,Scytopoli,Scythopolis,Scythopolis/Nysa,m. p.,XVI,m. p. XVI,16.0,,https://pleiades.stoa.org/places/678378,32.5033615,35.502981,,settlement,
195,,,6. ITER TRACIAE.,Caesarea-Eleutheropolis,route,,,,,Caesarea,Caesarea,,,,0.0,,https://pleiades.stoa.org/places/678401,32.5018388,34.8924472,,settlement,
196,,,6. ITER TRACIAE.,Caesarea-Eleutheropolis,route,,,,Betaro,Bethar,Bethar,m. p.,XXXI,m. p. XXXI,31.0,,https://pleiades.stoa.org/places/687851,31.743201,35.12239,,settlement,
197,,,6. ITER TRACIAE.,Caesarea-Eleutheropolis,route,,,,Diospoli,Diospolis,Lydda/Diospolis/Georgioupolis,m. p.,XXVIII,m. p. XXVIII,28.0,,https://pleiades.stoa.org/places/687953,31.9582535,34.892378,,settlement,
198,,,6. ITER TRACIAE.,Caesarea-Eleutheropolis,route,,,,Eleuteropoli,Eleutheropolis,Eleutheropolis,m. p.,XVIII,m. p. XVIII,18.0,,https://pleiades.stoa.org/places/687854,31.614254,34.8910485,,settlement,
201,,,6. ITER TRACIAE.,Damascus-Emesa,route,,,,,Damascus,Damascus,,,,0.0,,https://pleiades.stoa.org/places/678106,33.511612,36.309102,,settlement,
202,,,6. ITER TRACIAE.,Damascus-Emesa,route,,,,Abila,Abila,Abila Lysaniou,m. p.,XXXVIII,m. p. XXXVIII,38.0,,https://pleiades.stoa.org/places/677993,33.627108,36.1159485,,settlement,
203,,,6. ITER TRACIAE.,Damascus-Emesa,route,,,,Heliupoli,Heliopolis,Heliopolis/Col. Iulia Augusta Felix,m. p.,XXXII,m. p. XXXII,32.0,,https://pleiades.stoa.org/places/678179,34.0063794317348,36.2038547330563,,settlement,
204,,,6. ITER TRACIAE.,Damascus-Emesa,route,,,,Conna,Conna,Conna,m. p.,XXXII,m. p. XXXII,32.0,,https://pleiades.stoa.org/places/668231,34.274374,36.422446,,settlement,
205,,,6. ITER TRACIAE.,Damascus-Emesa,route,,,,Laudicia,Laodicea,Laodicea ad Libanum,m. p.,XXXII,m. p. XXXII,32.0,,https://pleiades.stoa.org/places/668291,34.5570749356809,36.5193778642442,,settlement,
206,,,6. ITER TRACIAE.,Damascus-Emesa,route,,,,Hemesa,Emesa,(H)Emesa,m. p.,XVIII,m. p. XVIII,18.0,,https://pleiades.stoa.org/places/668261,34.7376565,36.719319,,settlement,
209,,,6. ITER TRACIAE.,Neapolis-Ascalona,route,,,,,Neapolis,Neapolis,,,,0.0,,https://pleiades.stoa.org/places/678301,32.218685,35.262911,,settlement,
210,,,6. ITER TRACIAE.,Neapolis-Ascalona,route,,,,Elia,Aelia/Helya Capitolina,Ierusalem/Hierosolyma/Col. Aelia Capitolina,m. p.,XXX,m. p. XXX,30.0,,https://pleiades.stoa.org/places/687928,31.7771895,35.234978,,settlement,
211,,,6. ITER TRACIAE.,Neapolis-Ascalona,route,,,,Eleuteropoli,Eleutheropolis,Eleutheropolis,m. p.,XX,m. p. XX,20.0,,https://pleiades.stoa.org/places/687854,31.614254,34.8910485,,settlement,
212,,,6. ITER TRACIAE.,Neapolis-Ascalona,route,,,,Ascalona,Askalon,Ashqelon/Ascalon,m. p.,XXIIII,m. p. XXIIII,24.0,,https://pleiades.stoa.org/places/687839,31.664797212162,34.5505214667151,,basilica,
215,,,6. ITER TRACIAE.,Claudiopolis-Ancyra,route,,,,,Claudiopolis,Bithynion/Claudiopolis/Hadriana,,,,0.0,,https://pleiades.stoa.org/places/844879,40.7561925,31.5858565,,settlement,
216,,,6. ITER TRACIAE.,Claudiopolis-Ancyra,route,,,,Gratia,Cratia/Krateia,Krateia/Flaviopolis/*Agrippeia?,m. p.,XXIIII,m. p. XXIIII,24.0,,https://pleiades.stoa.org/places/844991,40.812102,32.1649185,,settlement,
217,,,6. ITER TRACIAE.,Claudiopolis-Ancyra,route,,,,Garus vicus,Carus,Carus Vicus,m. p.,XXX,m. p. XXX,30.0,,https://pleiades.stoa.org/places/844886,40.482434,32.204175,vicus,settlement,
218,,,6. ITER TRACIAE.,Claudiopolis-Ancyra,route,,,,Legna,Legna,Legna,m. p.,XXIIII,m. p. XXIIII,24.0,,https://pleiades.stoa.org/places/845003,40.368783,32.354826,,station,
219,,,6. ITER TRACIAE.,Claudiopolis-Ancyra,route,,,,Grentius,Crentius,Krentios,m. p.,XXXII,m. p. XXXII,32.0,,https://pleiades.stoa.org/places/844993,40.184196,32.496599,,station,
220,,,6. ITER TRACIAE.,Claudiopolis-Ancyra,route,,,,Ancyra,Ankyra,Ankyra,m. p.,XXIIII,m. p. XXIIII,24.0,,https://pleiades.stoa.org/places/609305,39.1558245,28.8550855,,settlement,
223,,,6. ITER TRACIAE.,Pessinous-Ancyra,route,,,,,Pessinous/Iustinianoupolis,Pessinous/Iustinianoupolis,,,,0.0,,https://pleiades.stoa.org/places/609500,39.3328818667816,31.5835606226278,,settlement,
224,,,6. ITER TRACIAE.,Pessinous-Ancyra,route,,,,Germa,Germa,(Col. Iulia Aug. Felix) Germa,m. p.,XVI,m. p. XVI,16.0,,https://pleiades.stoa.org/places/609351,39.5329225,31.6285363,,settlement,
225,,,6. ITER TRACIAE.,Pessinous-Ancyra,route,,,,Vinda,Vindia/Gordion,Gordion/Vindia?,m. p.,XXIIII,m. p. XXIIII,24.0,,https://pleiades.stoa.org/places/609393,39.6503052703313,31.9784831232525,,settlement,
226,,,6. ITER TRACIAE.,Pessinous-Ancyra,route,,,,Papyra,Papyra,Papira,m. p.,XXXII,m. p. XXXII,32.0,,https://pleiades.stoa.org/places/619234,39.772272,32.458677,,station,
227,,,6. ITER TRACIAE.,Pessinous-Ancyra,route,,,,Ancyra,Ankyra,Ancyra,m. p.,XXVII,m. p. XXVII,27.0,,https://pleiades.stoa.org/places/619103,39.9437925,32.859333,,settlement,
230,,,6. ITER TRACIAE.,Tabia-Mazaca Caesarea,route,,,,,Tabia,Tabia,,,,0.0,,https://pleiades.stoa.org/places/619267,39.8554953333333,34.5072526666667,,settlement,
231,,,6. ITER TRACIAE.,Tabia-Mazaca Caesarea,route,,,,Therma,Therma,Therma,m. p.,XVIII,m. p. XVIII,18.0,,https://pleiades.stoa.org/places/619271,39.629832,34.413417,,station,
232,,,6. ITER TRACIAE.,Tabia-Mazaca Caesarea,route,,,,Soanda,Soanda,Soanda,m. p.,XVIII,m. p. XVIII,18.0,,https://pleiades.stoa.org/places/619261,39.299498,34.520165,,station,
233,,,6. ITER TRACIAE.,Tabia-Mazaca Caesarea,route,,,,Sacoena,Sacoena,Sacoena,m. p.,XXXII,m. p. XXXII,32.0,,https://pleiades.stoa.org/places/619250,39.080968,34.747983,,station,
234,,,6. ITER TRACIAE.,Tabia-Mazaca Caesarea,route,,,,Ochras,Ochras,Ochras,m. p.,XVI,m. p. XVI,16.0,,https://pleiades.stoa.org/places/619225,38.930124,34.886648,,station,
235,,,6. ITER TRACIAE.,Tabia-Mazaca Caesarea,route,,,,Caesarea,Mazaca Caesarea,Mazaka/Eusebeia/Caesarea,m. p.,XXIIII,m. p. XXIIII,24.0,,https://pleiades.stoa.org/places/629035,38.72640055,35.4743607,,settlement,
238,,,6. ITER TRACIAE.,Dorilaeum-Ancyra,route,,,,,Dorylaeum,Dorylaion,,,,0.0,,https://pleiades.stoa.org/places/609367,39.77489,30.51684,,settlement,
240,,,6. ITER TRACIAE.,Dorilaeum-Ancyra,route,,,,Germa,Germa,(Col. Iulia Aug. Felix) Germa,m. p.,XX,m. p. XX,20.0,,https://pleiades.stoa.org/places/609351,39.5329225,31.6285363,,settlement,
241,,,6. ITER TRACIAE.,Dorilaeum-Ancyra,route,,,,Vindia,Vindia/Gordion,Vindia?,m. p.,XXXII,m. p. XXXII,32.0,,https://pleiades.stoa.org/places/609393,39.6503052703313,31.9784831232525,,settlement,
242,,,6. ITER TRACIAE.,Dorilaeum-Ancyra,route,,,,Papyra,Papyra,Papira,m. p.,XXXII,m. p. XXXII,32.0,,https://pleiades.stoa.org/places/619234,39.772272,32.458677,,station,
243,,,6. ITER TRACIAE.,Dorilaeum-Ancyra,route,,,,Ancyra,Ankyra,Ancyra,m. p.,XXVII,m. p. XXVII,27.0,,https://pleiades.stoa.org/places/619103,39.9437925,32.859333,,settlement,
246,,,6. ITER TRACIAE.,Ancyra-Tabia,route,,,,,Ankyra,Ancyra,,,,0.0,,https://pleiades.stoa.org/places/619103,39.9437925,32.859333,,settlement,
247,,,6. ITER TRACIAE.,Ancyra-Tabia,route,,,,Bolecasgus,Bolegasgus,Bolecasgus,m. p.,XXIIII,m. p. XXIIII,24.0,,https://pleiades.stoa.org/places/619126,40.0090835,33.2186,,station,
248,,,6. ITER TRACIAE.,Ancyra-Tabia,route,,,,Sarmalius,Sarmalius,Sarmalius,m. p.,XXIIII,m. p. XXIIII,24.0,,https://pleiades.stoa.org/places/619255,39.9099095,33.461863,,station,
249,,,6. ITER TRACIAE.,Ancyra-Tabia,route,,,,Ecobrogis,Eccobriga,Ecobrogis/Eccobriga,m. p.,XX,m. p. XX,20.0,,https://pleiades.stoa.org/places/619153,40.0383648795705,33.7521518643608,,settlement,
251,,,6. ITER TRACIAE.,Ancyra-Tabia,route,,,,Tavia,Tabia,Tabia,m. p.,XXIIII,m. p. XXIIII,24.0,,https://pleiades.stoa.org/places/619267,39.8554953333333,34.5072526666667,,settlement,
254,,,6. ITER TRACIAE.,Tabia-Sebasteia-1,route,,,,,Tabia,Tabia,,,,0.0,,https://pleiades.stoa.org/places/619267,39.8554953333333,34.5072526666667,,settlement,
255,,,6. ITER TRACIAE.,Tabia-Sebasteia-1,route,,,,Corniaspa,Corniaspa,Corniaspa,m. p.,XXI,m. p. XXI,21.0,,https://pleiades.stoa.org/places/619145,39.8598676666667,34.7608603333333,,settlement,
257,,,6. ITER TRACIAE.,Tabia-Sebasteia-1,route,,,,Sibora,Sibora,Sibora/Foroba?,m. p.,XXV,m. p. XXV,25.0,,https://pleiades.stoa.org/places/629079,39.6976455,35.2864275,,settlement,
258,,,6. ITER TRACIAE.,Tabia-Sebasteia-1,route,,,,Agriane,Agriana/Agranai,Agranai,m. p.,XX,m. p. XX,20.0,,https://pleiades.stoa.org/places/628919,39.739003,35.838751,,settlement,
259,,,6. ITER TRACIAE.,Tabia-Sebasteia-1,route,,,,Simos,Simos,Phiara,m. p.,XXX,m. p. XXX,30.0,,https://pleiades.stoa.org/places/629054,39.864116,36.594603,,settlement,
260,,,6. ITER TRACIAE.,Tabia-Sebasteia-1,route,,,,Sebastia,Sebasteia,Sebasteia/Megalopolis?/Talaura?,m. p.,XL,m. p. XL,40.0,,https://pleiades.stoa.org/places/629075,39.7490195,37.016607,,settlement,
263,,,6. ITER TRACIAE.,Tabia-Sebasteia-2,route,,,,,Tabia,Tabia,,,,0.0,,https://pleiades.stoa.org/places/619267,39.8554953333333,34.5072526666667,,settlement,
266,,,6. ITER TRACIAE.,Tabia-Sebasteia-2,route,,,,Sebastopoli,Sebastopolis,Sebastopolis/Herakleopolis/Karana?,m. p.,XL,m. p. XL,40.0,,https://pleiades.stoa.org/places/629076,39.9973910488711,36.0833694770224,,settlement,
267,,,6. ITER TRACIAE.,Tabia-Sebasteia-2,route,,,,Verisa,Verisa,Verisa,m. p.,XXIIII,m. p. XXIIII,24.0,,https://pleiades.stoa.org/places/857369,40.102781,36.484083,,settlement,
268,,,6. ITER TRACIAE.,Tabia-Sebasteia-2,route,,,,Fiarasi,Phiara,Phiara,m. p.,XII,m. p. XII,12.0,,https://pleiades.stoa.org/places/629054,39.864116,36.594603,,settlement,
269,,,6. ITER TRACIAE.,Tabia-Sebasteia-2,route,,,,Sebastia,Sebasteia,Sebasteia/Megalopolis?/Talaura?,m. p.,XXXVI,m. p. XXXVI,36.0,,https://pleiades.stoa.org/places/629075,39.7490195,37.016607,,settlement,
272,,,6. ITER TRACIAE.,Ancyra-Mazaca Caesarea,route,,,,,Ankyra,Ancyra,,,,0.0,,https://pleiades.stoa.org/places/619103,39.9437925,32.859333,,settlement,
273,,,6. ITER TRACIAE.,Ancyra-Mazaca Caesarea,route,,,,Gorbeus,Gorbeus,Gorbeus,m. p.,XXIIII,m. p. XXIIII,24.0,,https://pleiades.stoa.org/places/619167,39.69484,32.87447,,settlement,
274,,,6. ITER TRACIAE.,Ancyra-Mazaca Caesarea,route,,,,Orsologiaco,Rosolodiacus,Orsologiakos/Rosolodiacus,m. p.,XVIII,m. p. XVIII,18.0,,https://pleiades.stoa.org/places/619228,39.588876,32.896893,,station,
275,,,6. ITER TRACIAE.,Ancyra-Mazaca Caesarea,route,,,,Aspona,Aspona,Aspona,m. p.,XX,m. p. XX,20.0,,https://pleiades.stoa.org/places/619118,39.302241,33.307757,,settlement,
276,,,6. ITER TRACIAE.,Ancyra-Mazaca Caesarea,route,,,,Parnasso,Parnassos,Parnassos,m. p.,XXII,m. p. XXII,22.0,,https://pleiades.stoa.org/places/619235,38.9918185,33.570111,,settlement,
277,,,6. ITER TRACIAE.,Ancyra-Mazaca Caesarea,route,,,,Nisa,Nyssa,Nys(s)a,m. p.,XXIIII,m. p. XXIIII,24.0,,https://pleiades.stoa.org/places/619222,38.932743,33.95189,,settlement,
278,,,6. ITER TRACIAE.,Ancyra-Mazaca Caesarea,route,,,,Asiana,Asiana,Ouenasa,m. p.,XXXII,m. p. XXXII,32.0,,https://pleiades.stoa.org/places/619230,38.723059,34.7659895,,settlement,Uncertain identification
279,,,6. ITER TRACIAE.,Ancyra-Mazaca Caesarea,route,,,,Saccasena,Saccasena,Saccasena,m. p.,XXVIII,m. p. XXVIII,28.0,,https://pleiades.stoa.org/places/619249,38.7759735,35.109191,,settlement,
280,,,6. ITER TRACIAE.,Ancyra-Mazaca Caesarea,route,,,,Caesarea,Mazaca Caesarea,Mazaka/Eusebeia/Caesarea,m. p.,XXX,m. p. XXX,30.0,,https://pleiades.stoa.org/places/629035,38.72640055,35.4743607,,settlement,
283,,,6. ITER TRACIAE.,Mazaca Caesarea-Satala,route,,,,,Mazaca Caesarea,Mazaka/Eusebeia/Caesarea,,,,0.0,,https://pleiades.stoa.org/places/629035,38.72640055,35.4743607,,settlement,
284,,,6. ITER TRACIAE.,Mazaca Caesarea-Satala,route,,,,Eulepa,Eulepa,Eulepa,m. p.,XVI,m. p. XVI,16.0,,https://pleiades.stoa.org/places/628974,39.02792,35.870839,,settlement,
285,,,6. ITER TRACIAE.,Mazaca Caesarea-Satala,route,,,,Armaxa,Armaza,Armaxa,m. p.,XXIIII,m. p. XXIIII,24.0,,https://pleiades.stoa.org/places/628935,39.18618,36.0663835,,settlement,
286,,,6. ITER TRACIAE.,Mazaca Caesarea-Satala,route,,,,Marandara,Malandara,Malandara,m. p.,XXVIII,m. p. XXVIII,28.0,,https://pleiades.stoa.org/places/629031,39.3502785,36.4101085,,station,
288,,,6. ITER TRACIAE.,Mazaca Caesarea-Satala,route,,,,Sebastia,Sebasteia,Sebasteia,m. p.,XXVIII,m. p. XXVIII,28.0,,https://pleiades.stoa.org/places/638743,37.8891725,29.8094275,,settlement,
289,,,6. ITER TRACIAE.,Mazaca Caesarea-Satala,route,,,,Camisa,Kamisa,Kamisa/Comassa,m. p.,XXVII,m. p. XXVII,27.0,,https://pleiades.stoa.org/places/628997,39.845769,37.401155,,settlement,
290,,,6. ITER TRACIAE.,Mazaca Caesarea-Satala,route,,,,Zara,Zara,Zara,m. p.,XVIII,m. p. XVIII,18.0,,https://pleiades.stoa.org/places/629105,39.89671,37.755439,,settlement,
291,,,6. ITER TRACIAE.,Mazaca Caesarea-Satala,route,,,,Dagolasso,Megalossus,Megalossos/‘Dagalasso’,m. p.,XX,m. p. XX,20.0,,https://pleiades.stoa.org/places/857231,40.196836,37.980042,,station,
292,,,6. ITER TRACIAE.,Mazaca Caesarea-Satala,route,,,,Nicopoli,Nicopolis,Nicopolis,m. p.,XXIIII,m. p. XXIIII,24.0,,https://pleiades.stoa.org/places/857248,40.1485567,38.14353355,,settlement,
293,,,6. ITER TRACIAE.,Mazaca Caesarea-Satala,route,,,,Olotedariza,Olotoedariza,Olotoedariza,m. p.,XXIIII,m. p. XXIIII,24.0,,https://pleiades.stoa.org/places/857255,40.07737,38.594684,,settlement,
295,,,6. ITER TRACIAE.,Mazaca Caesarea-Satala,route,,,,Haia,Aza/Haza,Haza/Hassis,m. p.,XXVI,m. p. XXVI,26.0,,https://pleiades.stoa.org/places/874507,39.983333,39.333333,,fort,
296,,,6. ITER TRACIAE.,Mazaca Caesarea-Satala,route,,,,Satala,Satala,Satala,m. p.,XXVI,m. p. XXVI,26.0,,https://pleiades.stoa.org/places/874684,40.02789515,39.59791835,,fort-2,
299,,,6. ITER TRACIAE.,Satala-Samosata,route,,per ripam,,,Satala,Satala,,,,0.0,,https://pleiades.stoa.org/places/874684,40.02789515,39.59791835,,fort-2,
301,,,6. ITER TRACIAE.,Satala-Samosata,route,,,,Arauracos,Arauraca,Arauraka,m. p.,XXVIII,m. p. XXVIII,28.0,,https://pleiades.stoa.org/places/857037,40.129279,39.141987,,settlement,
302,,,6. ITER TRACIAE.,Satala-Samosata,route,,,,Carsagis,Carsagis,Chorsabia/Carsa(g)is,m. p.,XXIIII,m. p. XXIIII,24.0,,https://pleiades.stoa.org/places/628954,39.898965,38.9485065,,fort,
304,,,6. ITER TRACIAE.,Satala-Samosata,route,,,,Analiba,Analiba,Analib(l)a,m. p.,XXVIII,m. p. XXVIII,28.0,,https://pleiades.stoa.org/places/628922,39.528217,38.582014,,fort,
305,,,6. ITER TRACIAE.,Satala-Samosata,route,,,,Zimara,Zimara,Zimara,m. p.,XVI,m. p. XVI,16.0,,https://pleiades.stoa.org/places/629106,39.412813,38.375939,,fort,
306,,,6. ITER TRACIAE.,Satala-Samosata,route,,,,Teucila,Teucila,Teucila,m. p.,XVI,m. p. XVI,16.0,,https://pleiades.stoa.org/places/629095,39.168914,38.320316,,station,
307,,,6. ITER TRACIAE.,Satala-Samosata,route,,,,Sabus,Sabus,Sabus,m. p.,XXVIII,m. p. XXVIII,28.0,,https://pleiades.stoa.org/places/629065,39.069531,38.677369,,fort,
308,,,6. ITER TRACIAE.,Satala-Samosata,route,,,,Dascusa,Dascusa,Dascusa,m. p.,XVI,m. p. XVI,16.0,,https://pleiades.stoa.org/places/628963,38.9378535,38.733303,,fort,
309,,,6. ITER TRACIAE.,Satala-Samosata,route,,,,Chiaca,Ciaca,Kiakis,m. p.,XXXII,m. p. XXXII,32.0,,https://pleiades.stoa.org/places/629008,38.684612,38.387036,,fort,
310,,,6. ITER TRACIAE.,Satala-Samosata,route,,,,Melitena,Melitene,Melitene,m. p.,XVIII,m. p. XVIII,18.0,,https://pleiades.stoa.org/places/629040,38.382217,38.361152,,settlement,
311,,,6. ITER TRACIAE.,Satala-Samosata,route,,,,Miasena,Miasena,Miasena,m. p.,XII,m. p. XII,12.0,,https://pleiades.stoa.org/places/629042,38.146215,38.687646,,settlement,
312,,,6. ITER TRACIAE.,Satala-Samosata,route,,,,Lacotina,Lacontena,Lacotena,m. p.,XXVIII,m. p. XXVIII,28.0,,https://pleiades.stoa.org/places/658516,37.989649,38.613281,,settlement,
313,,,6. ITER TRACIAE.,Satala-Samosata,route,,,,Perre,Perre,Perre,m. p.,XXVI,m. p. XXVI,26.0,,https://pleiades.stoa.org/places/658568,37.778243,38.2865415,,settlement,
314,,,6. ITER TRACIAE.,Satala-Samosata,route,,,,Samosata,Samosata,Samosata,m. p.,XXIIII,m. p. XXIIII,24.0,,https://pleiades.stoa.org/places/658587,37.525756,38.530357,,settlement,
317,,,6. ITER TRACIAE.,Mazaca Caesarea-Melitene,route,,,,,Mazaca Caesarea,Mazaka/Eusebeia/Caesarea,,,,0.0,,https://pleiades.stoa.org/places/629035,38.72640055,35.4743607,,settlement,
318,,,6. ITER TRACIAE.,Mazaca Caesarea-Melitene,route,,,,Artaxata,Artaxata,Arasaxa,m. p.,XXIIII,m. p. XXIIII,24.0,,https://pleiades.stoa.org/places/628928,38.6239795,35.87671,,settlement,
319,,,6. ITER TRACIAE.,Mazaca Caesarea-Melitene,route,,,,Codozalaba,Coduzaleba,Coduzalaba/Sabalassos?,m. p.,XXIIII,m. p. XXIIII,24.0,,https://pleiades.stoa.org/places/628958,38.484719,36.504406,,settlement,
320,,,6. ITER TRACIAE.,Mazaca Caesarea-Melitene,route,,,,Comana,Komana,Comana,m. p.,XXVI,m. p. XXVI,26.0,,https://pleiades.stoa.org/places/629028,38.1898205,37.086546,,settlement,
321,,,6. ITER TRACIAE.,Mazaca Caesarea-Melitene,route,,,,Siricis,Siricae,Siricis,m. p.,XXIIII,m. p. XXIIII,24.0,,https://pleiades.stoa.org/places/629081,38.204189,36.458778,,settlement,
322,,,6. ITER TRACIAE.,Mazaca Caesarea-Melitene,route,,,,Ptandaris,Tanadaris,Tanadaris,m. p.,XVI,m. p. XVI,16.0,,https://pleiades.stoa.org/places/629091,38.422166,36.913591,,settlement,
323,,,6. ITER TRACIAE.,Mazaca Caesarea-Melitene,route,,,,Arabiso,Arabissos/Tripotamos,Arabissos/Tripotamos,m. p.,XII,m. p. XII,12.0,,https://pleiades.stoa.org/places/628925,38.246013,36.911673,,settlement,
324,,,6. ITER TRACIAE.,Mazaca Caesarea-Melitene,route,,,,Osdara,Asdara,Osdara,m. p.,XXVIII,m. p. XXVIII,28.0,,https://pleiades.stoa.org/places/629049,38.240638,37.328382,,settlement,
326,,,6. ITER TRACIAE.,Mazaca Caesarea-Melitene,route,,,,Arcas,Arca,Arca,m. p.,XXII,m. p. XXII,22.0,,https://pleiades.stoa.org/places/628929,38.33454,37.9711315,,settlement,
327,,,6. ITER TRACIAE.,Mazaca Caesarea-Melitene,route,,,,Melitena,Melitene,Melitene,m. p.,XXVIII,m. p. XXVIII,28.0,,https://pleiades.stoa.org/places/629040,38.382217,38.361152,,settlement,
330,,,6. ITER TRACIAE.,Mazaca Caesarea-Anazarbos,route,,,,,Mazaca Caesarea,Mazaka/Eusebeia/Caesarea,,,,0.0,,https://pleiades.stoa.org/places/629035,38.72640055,35.4743607,,settlement,
331,,,6. ITER TRACIAE.,Mazaca Caesarea-Anazarbos,route,,,,Arassaxa,Artaxata,Arasaxa,m. p.,XXIIII,m. p. XXIIII,24.0,,https://pleiades.stoa.org/places/628928,38.6239795,35.87671,,settlement,
332,,,6. ITER TRACIAE.,Mazaca Caesarea-Anazarbos,route,,,,Codozalaba,Coduzaleba,Coduzalaba/Sabalassos?,m. p.,XXIIII,m. p. XXIIII,24.0,,https://pleiades.stoa.org/places/628958,38.484719,36.504406,,settlement,
333,,,6. ITER TRACIAE.,Mazaca Caesarea-Anazarbos,route,,,,Comana,Komana,Comana,m. p.,XXVI,m. p. XXVI,26.0,,https://pleiades.stoa.org/places/629028,38.1898205,37.086546,,settlement,
334,,,6. ITER TRACIAE.,Mazaca Caesarea-Anazarbos,route,,,,Siricis,Siricae,Siricis,m. p.,XXIIII,m. p. XXIIII,24.0,,https://pleiades.stoa.org/places/629081,38.204189,36.458778,,settlement,
335,,,6. ITER TRACIAE.,Mazaca Caesarea-Anazarbos,route,,,,Cocuso,Kokussos,Kokousos,m. p.,XV,m. p. XV,15.0,,https://pleiades.stoa.org/places/629013,38.031581,36.4983445,,settlement,
339,,,6. ITER TRACIAE.,Mazaca Caesarea-Anazarbos,route,,,,Flaviada,Flavias,Flavias,m. p.,XXII,m. p. XXII,22.0,,https://pleiades.stoa.org/places/658569,37.3664785,36.1015675,,settlement,
340,,,6. ITER TRACIAE.,Mazaca Caesarea-Anazarbos,route,,,,Anazarbo,Anazarbos,Anazarbos,m. p.,XVIII,m. p. XVIII,18.0,,https://pleiades.stoa.org/places/659874,37.25,35.75,,bridge,
343,,,6. ITER TRACIAE.,Sebasteia-Kokussos-4,route,,,,,Sebasteia,Sebasteia/Megalopolis?/Talaura?,,,,0.0,,https://pleiades.stoa.org/places/629075,39.7490195,37.016607,,settlement,
344,,,6. ITER TRACIAE.,Sebasteia-Kokussos-4,route,,in medio,,In Medio,In Medio,In Medio,m. p.,XXV,m. p. XXV,25.0,,https://pleiades.stoa.org/places/628992,39.454496,36.957087,,station,
345,,,6. ITER TRACIAE.,Sebasteia-Kokussos-4,route,,,,Tonosa,Tonosa,Tonosa,m. p.,XXV,m. p. XXV,25.0,,https://pleiades.stoa.org/places/629099,39.283695,36.75576,,settlement,
346,,,6. ITER TRACIAE.,Sebasteia-Kokussos-4,route,,in medio,,In Medio,In Medio,Symposion/In Medio?,m. p.,XXV,m. p. XXV,25.0,,https://pleiades.stoa.org/places/629088,38.9383575,36.674519,,settlement,
347,,,6. ITER TRACIAE.,Sebasteia-Kokussos-4,route,,,,Ariarathia,Ariaratheia,Ariaratheia,m. p.,XXV,m. p. XXV,25.0,,https://pleiades.stoa.org/places/628934,38.723507,36.392334,,settlement,
348,,,6. ITER TRACIAE.,Sebasteia-Kokussos-4,route,,,,Doduzalaba,Coduzaleba,Coduzalaba/Sabalassos?,m. p.,XX,m. p. XX,20.0,,https://pleiades.stoa.org/places/628958,38.484719,36.504406,,settlement,
349,,,6. ITER TRACIAE.,Sebasteia-Kokussos-4,route,,,,Comana,Komana,Comana,m. p.,XXIIII,m. p. XXIIII,24.0,,https://pleiades.stoa.org/places/629028,38.1898205,37.086546,,settlement,
350,,,6. ITER TRACIAE.,Sebasteia-Kokussos-4,route,,,,Tandari,Tanadaris,Tanadaris,m. p.,XXIIII,m. p. XXIIII,24.0,,https://pleiades.stoa.org/places/629091,38.422166,36.913591,,settlement,
351,,,6. ITER TRACIAE.,Sebasteia-Kokussos-4,route,,,,Cocuso,Kokussos,Kokousos,m. p.,XXXVIII,m. p. XXXVIII,38.0,,https://pleiades.stoa.org/places/629013,38.031581,36.4983445,,settlement,
354,,,6. ITER TRACIAE.,Nicopolis-Arabissos,route,,,,,Nicopolis,Nicopolis,,,,0.0,,https://pleiades.stoa.org/places/857248,40.1485567,38.14353355,,settlement,
355,,,6. ITER TRACIAE.,Nicopolis-Arabissos,route,,,,Dagalasso,Megalossus,Megalossos/‘Dagalasso’,m. p.,XXIIII,m. p. XXIIII,24.0,,https://pleiades.stoa.org/places/857231,40.196836,37.980042,,station,
356,,,6. ITER TRACIAE.,Nicopolis-Arabissos,route,,,,Zara,Zara,Zara,m. p.,XX,m. p. XX,20.0,,https://pleiades.stoa.org/places/629105,39.89671,37.755439,,settlement,
357,,,6. ITER TRACIAE.,Nicopolis-Arabissos,route,,,,Camisa,Kamisa,Kamisa/Comassa,m. p.,XVIII,m. p. XVIII,18.0,,https://pleiades.stoa.org/places/628997,39.845769,37.401155,,settlement,
358,,,6. ITER TRACIAE.,Nicopolis-Arabissos,route,,,,Sebastia,Sebasteia,Sebasteia,m. p.,XXIIII,m. p. XXIIII,24.0,,https://pleiades.stoa.org/places/638743,37.8891725,29.8094275,,settlement,
359,,,6. ITER TRACIAE.,Nicopolis-Arabissos,route,,,,In Medio,In Medio,Symposion/In Medio?,m. p.,XXV,m. p. XXV,25.0,,https://pleiades.stoa.org/places/629088,38.9383575,36.674519,,settlement,
360,,,6. ITER TRACIAE.,Nicopolis-Arabissos,route,,,,Ariarathia,Ariaratheia,Ariaratheia,m. p.,XXV,m. p. XXV,25.0,,https://pleiades.stoa.org/places/628934,38.723507,36.392334,,settlement,
361,,,6. ITER TRACIAE.,Nicopolis-Arabissos,route,,,,Coduzalaba,Coduzaleba,Coduzalaba/Sabalassos?,m. p.,XX,m. p. XX,20.0,,https://pleiades.stoa.org/places/628958,38.484719,36.504406,,settlement,
362,,,6. ITER TRACIAE.,Nicopolis-Arabissos,route,,,,Comana,Komana,Comana,m. p.,XXIIII,m. p. XXIIII,24.0,,https://pleiades.stoa.org/places/629028,38.1898205,37.086546,,settlement,
363,,,6. ITER TRACIAE.,Nicopolis-Arabissos,route,,,,Tandari,Tanadaris,Tanadaris,m. p.,XXIIII,m. p. XXIIII,24.0,,https://pleiades.stoa.org/places/629091,38.422166,36.913591,,settlement,
364,,,6. ITER TRACIAE.,Nicopolis-Arabissos,route,,,,Arabisso,Arabissos/Tripotamos,Arabissos/Tripotamos,m. p.,XXII,m. p. XXII,22.0,,https://pleiades.stoa.org/places/628925,38.246013,36.911673,,settlement,
367,,,6. ITER TRACIAE.,Sebastopolis-Mazaca Caesarea,route,,,,,Sebastopolis,Sebastopolis/Herakleopolis/Karana?,,,,0.0,,https://pleiades.stoa.org/places/629076,39.9973910488711,36.0833694770224,,settlement,
368,,,6. ITER TRACIAE.,Sebastopolis-Mazaca Caesarea,route,,,,Verisa,Verisa,Verisa,m. p.,XXIIII,m. p. XXIIII,24.0,,https://pleiades.stoa.org/places/857369,40.102781,36.484083,,settlement,
369,,,6. ITER TRACIAE.,Sebastopolis-Mazaca Caesarea,route,,,,Siara,Phiara,Phiara,m. p.,XII,m. p. XII,12.0,,https://pleiades.stoa.org/places/629054,39.864116,36.594603,,settlement,
370,,,6. ITER TRACIAE.,Sebastopolis-Mazaca Caesarea,route,,,,Sebastia,Sebasteia,Sebasteia,m. p.,XXXVI,m. p. XXXVI,36.0,,https://pleiades.stoa.org/places/638743,37.8891725,29.8094275,,settlement,
372,,,6. ITER TRACIAE.,Sebastopolis-Mazaca Caesarea,route,,,,Maiandara,Malandara,Malandara,m. p.,XXXVIIII,m. p. XXXVIIII,39.0,,https://pleiades.stoa.org/places/629031,39.3502785,36.4101085,,station,
373,,,6. ITER TRACIAE.,Sebastopolis-Mazaca Caesarea,route,,,,Armaxa,Armaza,Armaxa,m. p.,XXVIII,m. p. XXVIII,28.0,,https://pleiades.stoa.org/places/628935,39.18618,36.0663835,,settlement,
374,,,6. ITER TRACIAE.,Sebastopolis-Mazaca Caesarea,route,,,,Eulepa,Eulepa,Eulepa,m. p.,XXIIII,m. p. XXIIII,24.0,,https://pleiades.stoa.org/places/628974,39.02792,35.870839,,settlement,
375,,,6. ITER TRACIAE.,Sebastopolis-Mazaca Caesarea,route,,,,Caesarea,Mazaca Caesarea,Mazaka/Eusebeia/Caesarea,m. p.,XXVI,m. p. XXVI,26.0,,https://pleiades.stoa.org/places/629035,38.72640055,35.4743607,,settlement,
378,,,6. ITER TRACIAE.,Kokussos-Arabissos,route,,,,,Kokussos,Kokousos,,,,0.0,,https://pleiades.stoa.org/places/629013,38.031581,36.4983445,,settlement,
379,,,6. ITER TRACIAE.,Kokussos-Arabissos,route,,,,Ptandari,Tanadaris,Tanadaris,m. p.,XXVIII,m. p. XXVIII,28.0,,https://pleiades.stoa.org/places/629091,38.422166,36.913591,,settlement,
380,,,6. ITER TRACIAE.,Kokussos-Arabissos,route,,,,Arabisso,Arabissos/Tripotamos,Arabissos/Tripotamos,m. p.,XXIIII,m. p. XXIIII,24.0,,https://pleiades.stoa.org/places/628925,38.246013,36.911673,,settlement,
383,,,6. ITER TRACIAE.,Kokussos-Melitene,route,,,,,Kokussos,Kokousos,,,,0.0,,https://pleiades.stoa.org/places/629013,38.031581,36.4983445,,settlement,
384,,,6. ITER TRACIAE.,Kokussos-Melitene,route,,,,Ptandari,Tanadaris,Tanadaris,m. p.,XXVIII,m. p. XXVIII,28.0,,https://pleiades.stoa.org/places/629091,38.422166,36.913591,,settlement,
385,,,6. ITER TRACIAE.,Kokussos-Melitene,route,,,,Arabisso,Arabissos/Tripotamos,Arabissos/Tripotamos,m. p.,XII,m. p. XII,12.0,,https://pleiades.stoa.org/places/628925,38.246013,36.911673,,settlement,
386,,,6. ITER TRACIAE.,Kokussos-Melitene,route,,,,Asdara,Asdara,Osdara,m. p.,XXVIII,m. p. XXVIII,28.0,,https://pleiades.stoa.org/places/629049,38.240638,37.328382,,settlement,
388,,,6. ITER TRACIAE.,Kokussos-Melitene,route,,,,Arcas,Arca,Arca,m. p.,XXII,m. p. XXII,22.0,,https://pleiades.stoa.org/places/628929,38.33454,37.9711315,,settlement,
389,,,6. ITER TRACIAE.,Kokussos-Melitene,route,,,,Melitena,Melitene,Melitene,m. p.,XXVIII,m. p. XXVIII,28.0,,https://pleiades.stoa.org/places/629040,38.382217,38.361152,,settlement,
392,,,6. ITER TRACIAE.,Melitene-Samosata,route,,,,,Melitene,Melitene,,,,0.0,,https://pleiades.stoa.org/places/629040,38.382217,38.361152,,settlement,
393,,,6. ITER TRACIAE.,Melitene-Samosata,route,,,,Mesena,Miasena,Miasena,m. p.,XII,m. p. XII,12.0,,https://pleiades.stoa.org/places/629042,38.146215,38.687646,,settlement,
394,,,6. ITER TRACIAE.,Melitene-Samosata,route,,,,Lacotena,Lacotena,Lacotena,m. p.,XXVIII,m. p. XXVIII,28.0,,https://pleiades.stoa.org/places/658516,37.989649,38.613281,,settlement,
395,,,6. ITER TRACIAE.,Melitene-Samosata,route,,,,Perre,Perre,Perre,m. p.,XXVI,m. p. XXVI,26.0,,https://pleiades.stoa.org/places/658568,37.778243,38.2865415,,settlement,
396,,,6. ITER TRACIAE.,Melitene-Samosata,route,,,,Samosata,Samosata,Samosata,m. p.,XXIIII,m. p. XXIIII,24.0,,https://pleiades.stoa.org/places/658587,37.525756,38.530357,,settlement,
399,,,6. ITER TRACIAE.,Nicopolis-Satala,route,,,,,Nicopolis,Nicopolis,,,,0.0,,https://pleiades.stoa.org/places/857248,40.1485567,38.14353355,,settlement,
400,,,6. ITER TRACIAE.,Nicopolis-Satala,route,,,,Olotoedariza,Olotoedariza,Olotoedariza,m. p.,XXIIII,m. p. XXIIII,24.0,,https://pleiades.stoa.org/places/857255,40.07737,38.594684,,settlement,
401,,,6. ITER TRACIAE.,Nicopolis-Satala,route,,,,Carsais,Carsagis,Chorsabia/Carsa(g)is,m. p.,XXIIII,m. p. XXIIII,24.0,,https://pleiades.stoa.org/places/628954,39.898965,38.9485065,,fort,
402,,,6. ITER TRACIAE.,Nicopolis-Satala,route,,,,Arauracos,Arauraca,Arauraka,m. p.,XXIIII,m. p. XXIIII,24.0,,https://pleiades.stoa.org/places/857037,40.129279,39.141987,,settlement,
404,,,6. ITER TRACIAE.,Nicopolis-Satala,route,,,,Satala,Satala,Satala,m. p.,XXVI,m. p. XXVI,26.0,,https://pleiades.stoa.org/places/874684,40.02789515,39.59791835,,fort-2,
407,,,6. ITER TRACIAE.,Trapezus-Satala,route,,,,,Trapezus,Trapezus,,,,0.0,,https://pleiades.stoa.org/places/857359,41.0042695,39.7233115,,settlement,
408,,,6. ITER TRACIAE.,Trapezus-Satala,route,,ad,,Ad Vicensimum,Ad Vicesimum,Ad Vincesimum/Magnana,m. p.,XX,m. p. XX,20.0,,https://pleiades.stoa.org/places/857012,40.810026,39.617574,,settlement,
409,,,6. ITER TRACIAE.,Trapezus-Satala,route,,,,Zigana,Zigana,Zigana,m. p.,XXII,m. p. XXII,22.0,,https://pleiades.stoa.org/places/857386,40.598105,39.36875,,station,
410,,,6. ITER TRACIAE.,Trapezus-Satala,route,,,,Thia,Thia,Thia,m. p.,XXIIII,m. p. XXIIII,24.0,,https://pleiades.stoa.org/places/857354,40.527844,39.417783,,station,
411,,,6. ITER TRACIAE.,Trapezus-Satala,route,"Sedisca, fi. Ponti",,,Sedisca,Sedissa/Sedisca,Sedisca/Solonenica?,m. p.,XVII,m. p. XVII,17.0,,https://pleiades.stoa.org/places/857312,40.428813,39.584629,,station,
412,,,6. ITER TRACIAE.,Trapezus-Satala,route,,,,Domana,Domana,Domana,m. p.,XXIIII,m. p. XXIIII,24.0,,https://pleiades.stoa.org/places/857111,40.212239,39.651311,,station,
413,,,6. ITER TRACIAE.,Trapezus-Satala,route,,,,Satala,Satala,Satala,m. p.,XVIII,m. p. XVIII,18.0,,https://pleiades.stoa.org/places/874684,40.02789515,39.59791835,,fort-2,
416,,,6. ITER TRACIAE.,Viminacium-Nicomedia,route,,per ripam,,,Viminacium,Viminacium,,,,0.0,,https://pleiades.stoa.org/places/207549,44.7266235,21.1913635,,settlement,
417,,,6. ITER TRACIAE.,Viminacium-Nicomedia,route,,,,Cuppe,Cuppae,Cuppae,m. p.,XXIIII,m. p. XXIIII,24.0,,https://pleiades.stoa.org/places/207060,44.651063,21.638303,,fort,
418,,,6. ITER TRACIAE.,Viminacium-Nicomedia,route,,,,Novas,Novae,Novae,m. p.,XXIIII,m. p. XXIIII,24.0,,https://pleiades.stoa.org/places/207310,44.620434,21.888533,,fort,
419,,,6. ITER TRACIAE.,Viminacium-Nicomedia,route,,,,Talia,Taliata,Taliata,m. p.,XII,m. p. XII,12.0,,https://pleiades.stoa.org/places/207485,44.443587,22.144349,,fort,
420,,,6. ITER TRACIAE.,Viminacium-Nicomedia,route,,,,Egeta,Egetae,Egeta,m. p.,XXI,m. p. XXI,21.0,,https://pleiades.stoa.org/places/207107,44.469116,22.445309,,fort,
421,,,6. ITER TRACIAE.,Viminacium-Nicomedia,route,,,,Aquis,Aquae,Ad Aquas?,m. p.,XVI,m. p. XVI,16.0,,https://pleiades.stoa.org/places/206875,44.222408,22.501863,,fort,
422,,,6. ITER TRACIAE.,Viminacium-Nicomedia,route,,,,Dortico,Dorticum,Dorticum,m. p.,X,m. p. X,10.0,,https://pleiades.stoa.org/places/207093,44.19265,22.736228,,fort,
423,,,6. ITER TRACIAE.,Viminacium-Nicomedia,route,,,,Bononia,Bononia,Bononia,m. p.,XVII,m. p. XVII,17.0,,https://pleiades.stoa.org/places/206975,43.993221,22.8759,,settlement,
424,,,6. ITER TRACIAE.,Viminacium-Nicomedia,route,,,,Ratiaria leg. XIIII GG.,Ratiaria,Ratiaria,m. p.,XVIII,m. p. XVIII,18.0,,https://pleiades.stoa.org/places/207376,43.813575,22.9122725,legio,settlement,
425,,,6. ITER TRACIAE.,Viminacium-Nicomedia,route,,,,Almo,Almus,Almus,m. p.,XVIII,m. p. XVIII,18.0,,https://pleiades.stoa.org/places/206909,43.825619,23.237545,,fort,
426,,,6. ITER TRACIAE.,Viminacium-Nicomedia,route,,,,Cebro,Cebrus,Cebrus,m. p.,XVIII,m. p. XVIII,18.0,,https://pleiades.stoa.org/places/207020,43.800646,23.531732,,station,
427,,,6. ITER TRACIAE.,Viminacium-Nicomedia,route,,,,Augustis,Augustae,Augustae,m. p.,XVIII,m. p. XVIII,18.0,,https://pleiades.stoa.org/places/216719,43.7333221099912,23.8404048835315,,fort,
428,,,6. ITER TRACIAE.,Viminacium-Nicomedia,route,,,,Variana,Variana,Variana,m. p.,XII,m. p. XII,12.0,,https://pleiades.stoa.org/places/217039,43.690853,24.000033,,fort,
429,,,6. ITER TRACIAE.,Viminacium-Nicomedia,route,,,,Valeriana,Valeriana,Valeriana,m. p.,XII,m. p. XII,12.0,,https://pleiades.stoa.org/places/217038,43.660483,24.296408,,fort,
430,,,6. ITER TRACIAE.,Viminacium-Nicomedia,route,,,,Oesco leg. V Mac.,Oescus,Oescus,m. p.,XII,m. p. XII,12.0,,https://pleiades.stoa.org/places/216907,43.7104202379895,24.4661329357148,legio,settlement,
431,,,6. ITER TRACIAE.,Viminacium-Nicomedia,route,,,,Vto,Utum,Utus,m. p.,XIIII,m. p. XIIII,14.0,,https://pleiades.stoa.org/places/217033,43.641651,24.728167,,fort,
432,,,6. ITER TRACIAE.,Viminacium-Nicomedia,route,,,,Securisca,Securisca,Securisca,m. p.,XII,m. p. XII,12.0,,https://pleiades.stoa.org/places/216978,43.702592,24.834372,,fort,
433,,,6. ITER TRACIAE.,Viminacium-Nicomedia,route,,,,Dimo,Dimum,Dimum,m. p.,XII,m. p. XII,12.0,,https://pleiades.stoa.org/places/216790,43.65006,25.128607,,fort,
434,,,6. ITER TRACIAE.,Viminacium-Nicomedia,route,,,,Novas leg. I Ital.,Novae,Novae,m. p.,XVI,m. p. XVI,16.0,,https://pleiades.stoa.org/places/216899,43.613034384269,25.3939876214814,legio,fort-2,
435,,,6. ITER TRACIAE.,Viminacium-Nicomedia,route,,,,Scaidava,Sacidava,Sacidava,m. p.,XVIII,m. p. XVIII,18.0,,https://pleiades.stoa.org/places/216965,44.2046339,27.7905753,,settlement-modern,
436,,,6. ITER TRACIAE.,Viminacium-Nicomedia,route,,,,Trimammio,Trimamium,Trimammium,m. p.,VII,m. p. VII,7.0,,https://pleiades.stoa.org/places/217023,43.708048,25.831077,,fort,
437,,,6. ITER TRACIAE.,Viminacium-Nicomedia,route,,,,Sexantapristis,Sexantaprista,Sexaginta Prista,m. p.,XII,m. p. XII,12.0,,https://pleiades.stoa.org/places/216982,43.846503,25.945364,,fort,
438,,,6. ITER TRACIAE.,Viminacium-Nicomedia,route,,,,Tigra,Tegra,Tegris,m. p.,VIIII,m. p. VIIII,9.0,,https://pleiades.stoa.org/places/217003,43.920738,26.082325,,fort,
439,,,6. ITER TRACIAE.,Viminacium-Nicomedia,route,,,,Appiaria,Appiaria,Appiaria,m. p.,XIII,m. p. XIII,13.0,,https://pleiades.stoa.org/places/216707,43.987675,26.245621,,fort,
440,,,6. ITER TRACIAE.,Viminacium-Nicomedia,route,,,,Transmariscam,Transmarisca,Transmarisca,m. p.,XVI,m. p. XVI,16.0,,https://pleiades.stoa.org/places/217021,44.047789,26.613858,,fort,
441,,,6. ITER TRACIAE.,Viminacium-Nicomedia,route,,,,Candidiana,Candidianae,Candidiana,m. p.,XIII,m. p. XIII,13.0,,https://pleiades.stoa.org/places/216896,44.063431,26.848302,,fort,
442,,,6. ITER TRACIAE.,Viminacium-Nicomedia,route,,,,Teclicio,Tegulitium,Tegulitium,m. p.,XII,m. p. XII,12.0,,https://pleiades.stoa.org/places/217004,44.1087945,27.048118,,fort,
443,,,6. ITER TRACIAE.,Viminacium-Nicomedia,route,,,,Dorostoro leg. XI Cl.,Durostrorum,Durostorum,m. p.,XII,m. p. XII,12.0,,https://pleiades.stoa.org/places/216800,44.119108,27.260103,legio,settlement,
444,,,6. ITER TRACIAE.,Viminacium-Nicomedia,route,,,,Sucidava,Sucidava/Sacidava,Sacidava,m. p.,XVIII,m. p. XVIII,18.0,,https://pleiades.stoa.org/places/216965,44.2046339,27.7905753,,settlement-modern,
445,,,6. ITER TRACIAE.,Viminacium-Nicomedia,route,,,,Axiupoli,Axiopolis,Axiopolis,m. p.,XII,m. p. XII,12.0,,https://pleiades.stoa.org/places/216722,44.3276303,28.0197501333333,,fort,
446,,,6. ITER TRACIAE.,Viminacium-Nicomedia,route,,,,Capidava,Capidava,Capidava,m. p.,XVIII,m. p. XVIII,18.0,,https://pleiades.stoa.org/places/216748,44.493739,28.090321,,fort,
447,,,6. ITER TRACIAE.,Viminacium-Nicomedia,route,,,,Carso,Carsium,Carsium,m. p.,XVIII,m. p. XVIII,18.0,,https://pleiades.stoa.org/places/216753,44.6817663863289,27.9519798390621,,fort-2,
448,,,6. ITER TRACIAE.,Viminacium-Nicomedia,route,,,,Cio,Cius,Cius,m. p.,X,m. p. X,10.0,,https://pleiades.stoa.org/places/216770,44.7230597111397,28.0618802039391,,fort-2,
449,,,6. ITER TRACIAE.,Viminacium-Nicomedia,route,,,,Biroe,Beroe,Beroe,m. p.,XIIII,m. p. XIIII,14.0,,https://pleiades.stoa.org/places/216730,44.9149605,28.1520335,,fort,
450,,,6. ITER TRACIAE.,Viminacium-Nicomedia,route,,,,Trosmis leg. I Iovia,Troesmis,Troesmis,m. p.,XVIII,m. p. XVIII,18.0,,https://pleiades.stoa.org/places/217025,45.1430957757272,28.1950094856136,legio,fort-2,
451,,,6. ITER TRACIAE.,Viminacium-Nicomedia,route,Scytica,,,Arrubio,Arrubium,Arubium,m. p.,VIIII,m. p. VIIII,9.0,,https://pleiades.stoa.org/places/216712,45.2462004,28.13208745,,fort,
452,,,6. ITER TRACIAE.,Viminacium-Nicomedia,route,,,,Diniguttia,Dinogetia,Dinogetia,m. p.,VIIII,m. p. VIIII,9.0,,https://pleiades.stoa.org/places/216791,45.3790123888772,28.138796096089,,fort,
453,,,6. ITER TRACIAE.,Viminacium-Nicomedia,route,,,,Novioduno leg. II Herculea,Noviodunum,Noviodunum,m. p.,XX,m. p. XX,20.0,,https://pleiades.stoa.org/places/216900,45.2707677079031,28.4919588309255,legio,settlement,
454,,,6. ITER TRACIAE.,Viminacium-Nicomedia,route,,,,Aegiso,Aegyssus,Aegyssus,m. p.,XXIIII,m. p. XXIIII,24.0,,https://pleiades.stoa.org/places/216694,45.17978,28.806361,,fort,
455,,,6. ITER TRACIAE.,Viminacium-Nicomedia,route,,,,Salsovia,Salsovia,Salsovia,m. p.,XVII,m. p. XVII,17.0,,https://pleiades.stoa.org/places/226748,45.0766915,29.0803185,,fort,
456,,,6. ITER TRACIAE.,Viminacium-Nicomedia,route,,,,Salmorude,Salmorude,Halmyris?,m. p.,VIIII,m. p. VIIII,9.0,,https://pleiades.stoa.org/places/226617,45.0246931,29.19733655,,"settlement, fort",
459,,,6. ITER TRACIAE.,Viminacium-Nicomedia,route,,,,Historio,Histropolis/Istros,Histria,m. p.,XXV,m. p. XXV,25.0,,https://pleiades.stoa.org/places/216839,44.5476,28.7748,,settlement,Uncertain identification
460,,,6. ITER TRACIAE.,Viminacium-Nicomedia,route,,,,Tomos,Tomis,Tomis,m. p.,XXXVI,m. p. XXXVI,36.0,,https://pleiades.stoa.org/places/217016,44.1728565,28.6497375,,settlement,
461,,,6. ITER TRACIAE.,Viminacium-Nicomedia,route,,,,Callacis,Callatis,Callatis,m. p.,XXX,m. p. XXX,30.0,,https://pleiades.stoa.org/places/216744,43.817152,28.58275,,settlement,
463,,,6. ITER TRACIAE.,Viminacium-Nicomedia,route,,,,Dionisopoli,Dionysopolis,Dionysopolis/Krounoi,m. p.,XXIIII,m. p. XXIIII,24.0,,https://pleiades.stoa.org/places/216793,43.417781,28.1629075,,settlement,
464,,,6. ITER TRACIAE.,Viminacium-Nicomedia,route,,,,Odisso,Odessos,Odessus,m. p.,XXIIII,m. p. XXIIII,24.0,,https://pleiades.stoa.org/places/216904,43.2061605,27.9134725,,settlement,
465,,,6. ITER TRACIAE.,Viminacium-Nicomedia,route,,,,Marcianopoli,Marcianopolis,Marcianopolis,m. p.,XVIII,m. p. XVIII,18.0,,https://pleiades.stoa.org/places/216878,43.22504,27.585033,,settlement,
466,,,6. ITER TRACIAE.,Viminacium-Nicomedia,route,,,,Scatris,Scatris/Soatris,Scatrae,m. p.,XXVI,m. p. XXVI,26.0,,https://pleiades.stoa.org/places/216974,42.883431,27.682057,,station,
467,,,6. ITER TRACIAE.,Viminacium-Nicomedia,route,,,,Ancialis,Anchialus,Anchialus,m. p.,XXIIII,m. p. XXIIII,24.0,,https://pleiades.stoa.org/places/216702,42.555937,27.641374,,settlement,
468,,,6. ITER TRACIAE.,Viminacium-Nicomedia,route,,,,Debelco,Dibalcum/Deuitum,Deultum,m. p.,XXIIII,m. p. XXIIII,24.0,,https://pleiades.stoa.org/places/216788,42.388671910341,27.2808172534762,,settlement,
470,,,6. ITER TRACIAE.,Viminacium-Nicomedia,route,,,,Tarpodizo,Pudizo,‘Tarpodizo’,m. p.,XVIII,m. p. XVIII,18.0,,https://pleiades.stoa.org/places/511428,41.846659,27.354053,,settlement,
471,,,6. ITER TRACIAE.,Viminacium-Nicomedia,route,,,,Ostodizo,Ostudizus,Ostudizo,m. p.,XXXII,m. p. XXXII,32.0,,,41.5499183719183,26.8216603828185,,unknown,"Coordinates from Örberg, coming from Löhberg’s Index. Absent in Pleiades as far as I can see."
472,,,6. ITER TRACIAE.,Viminacium-Nicomedia,route,,,,Burtudizo,Burtudizum,Burtudizon,m. p.,XVIII,m. p. XVIII,18.0,,https://pleiades.stoa.org/places/511195,41.427933,27.092423,,settlement,
473,,,6. ITER TRACIAE.,Viminacium-Nicomedia,route,,,,Bergule,Bergulae,Berg(o)ule/Arkadioupolis,m. p.,XVIII,m. p. XVIII,18.0,,https://pleiades.stoa.org/places/511185,41.4017405,27.352699,,settlement,
474,,,6. ITER TRACIAE.,Viminacium-Nicomedia,route,,,,Drizipara,Drusipara,Dr(o)usipara,m. p.,XIIII,m. p. XIIII,14.0,,https://pleiades.stoa.org/places/511241,41.300089,27.543955,,settlement,
475,,,6. ITER TRACIAE.,Viminacium-Nicomedia,route,,,,Tzirallo,Tzurullum,Izirallo/Tzirallo/Thirallo,m. p.,XVI,m. p. XVI,16.0,,,41.1666897906,27.7953932947,,unknown,"Coordinates from Örberg, coming from Löhberg’s Index. Absent in Pleiades as far as I can see."
476,,,6. ITER TRACIAE.,Viminacium-Nicomedia,route,,,,Heraclia,Heraclia? Perinthum?,Perinthus/Heraclea,m. p.,XVIII,m. p. XVIII,18.0,,https://pleiades.stoa.org/places/511357,40.971013,27.952973,,settlement,
477,,,6. ITER TRACIAE.,Viminacium-Nicomedia,route,,,,Cenofrurio,Cenopurium,Cenofrurio,m. p.,XVIII,m. p. XVIII,18.0,,,41.2322499,28.1955952,,unknown,"Coordinates from Örberg, coming from Löhberg’s Index. Absent in Pleiades as far as I can see."
478,,,6. ITER TRACIAE.,Viminacium-Nicomedia,route,,,,Melantiada,Melantias,Melantias,m. p.,XXVII,m. p. XXVII,27.0,,https://pleiades.stoa.org/places/511315,41.028946,28.764683,,station (road or coastal),
479,,,6. ITER TRACIAE.,Viminacium-Nicomedia,route,,,,Bizantio,Byzantium,Byzantium,m. p.,XVIII,m. p. XVIII,18.0,,https://pleiades.stoa.org/places/520985,41.005902,28.9738815,,settlement,
481,,,6. ITER TRACIAE.,Viminacium-Nicomedia,route,,,,Lybissa,Libyssa,Libyssa,m. p.,XXIIII,m. p. XXIIII,24.0,,https://pleiades.stoa.org/places/511305,40.769562,29.539812,,settlement,
482,,,6. ITER TRACIAE.,Viminacium-Nicomedia,route,,,,Nicomedia,Nicomedia,Nicomedia,m. p.,XXII,m. p. XXII,22.0,,https://pleiades.stoa.org/places/511337,40.7651905,29.919887,,settlement,
485,,,6. ITER TRACIAE.,Beroea-Hadrianopolis,route,,,,,Beroea,Beroe/Augusta Traiana,,,,0.0,,https://pleiades.stoa.org/places/216731,42.4254025,25.624862,,settlement,
486,,,6. ITER TRACIAE.,Beroea-Hadrianopolis,route,,,,Castra Iarba,Castra Iarba,Castra Iarba,m. p.,XXX,m. p. XXX,30.0,,https://pleiades.stoa.org/places/501384,41.93220805,26.09216335,castra,station (road or coastal),
487,,,6. ITER TRACIAE.,Beroea-Hadrianopolis,route,,,,Burdipta,Burdipta/Burdenis,Burdipta/Burdenis,m. p.,XXV,m. p. XXV,25.0,,https://pleiades.stoa.org/places/222026,41.7665609140704,26.2024514134684,,unlocated,"Coordinates from Örberg, coming from Löhberg’s Index. Absent in Pleiades as far as I can see."
488,,,6. ITER TRACIAE.,Beroea-Hadrianopolis,route,,,,Hadrianopolim,Hadrianopolis,Hadrianoupolis,m. p.,XXXII,m. p. XXXII,32.0,,https://pleiades.stoa.org/places/501428,41.676459,26.562891,,settlement,
