sequence-number,place_id,CTS URN,region,route_label,route_type,text_transcription,direction,direction_type,place_transcription,place_normalized,pleiades_label,distance_unit,distance_ancient,distance-full,distance_modern,revised_distance,comment,place_uri,latitude,longitude,placetype,placetype_pleiades
1,,2.1-3.1,1. PROVINCIAE AFRICAE,Tingis-Carthago,main-route,A TINGI MAVRETANIA id est ubi Bacuates et Macenites barbari morantur per maritima loca Cartaginem usque,per maritima loca,,Tingi,Tingis,Tingi,,,,0.0,0.0,"This is the largest sub-itinerary declared above, without a distance",https://pleiades.stoa.org/places/275736,35.787546,-5.8102335,,"settlement, port"
2,,2.1-3.1,1. PROVINCIAE AFRICAE,Tingis-Carthago,main-route,A TINGI MAVRETANIA id est ubi Bacuates et Macenites barbari morantur per maritima loca Cartaginem usque,,,Cartaginem,Carthago,Carthago,,,,,,,https://pleiades.stoa.org/places/314921,36.853056,10.323056,,
3,,3.2-4.1,1. PROVINCIAE AFRICAE,Mercurii-Tingis,sum-route,Ab exploratione quod Mercurios dicitur Tingi usque m. p. CLXXIIII,"a, ab",,Exploratione/Mercurios,Mercurii,Ad Mercuri?,,,,,,,https://pleiades.stoa.org/places/275579,35.508424,-5.839493,,
4,,3.2-4.1,1. PROVINCIAE AFRICAE,Mercurii-Tingis,sum-route,Ab exploratione quod Mercurios dicitur Tingi usque m. p. CLXXIIII,usque,,Tingi,Tingis,Tingi,m. p.,CLXXIIII, m. p. CLXXIIII,,,,https://pleiades.stoa.org/places/275736,35.787546,-5.8102335,,
5,,3.2-4.1,1. PROVINCIAE AFRICAE,Mercurii-Tingis,sum-route,A Mercurios m. p. CLXXIIII,"a, ab",preposition,A Mercurios,Mercurii,Ad Mercuri?,,,,,,The distance is the same given in the header of the route.,https://pleiades.stoa.org/places/275579,35.508424,-5.839493,,station (road or coastal)
6,,3.2-4.1,1. PROVINCIAE AFRICAE,Mercurii-Tingis,sum-route,A Mercurios m. p. CLXXIIII,,,,Tingis,Tingi,m. p.,CLXXIIII, m. p. CLXXIIII,,,,https://pleiades.stoa.org/places/275736,35.787546,-5.8102335,,
7,,4.2,1. PROVINCIAE AFRICAE,Tingis-Rusadder,sum-route,,,,,Tingis,Tingi,,,,,,,https://pleiades.stoa.org/places/275736,35.787546,-5.8102335,,
8,,4.2,1. PROVINCIAE AFRICAE,Tingis-Rusadder,sum-route,Rusadder m. p. CCCXVIII,,,Rusadder,Rusaddir,Rusaddir,m. p.,CCCXVIII, m. p. CCCXVIII,,,,https://pleiades.stoa.org/places/285512,35.2922015,-2.938778,,
9,,5.1,1. PROVINCIAE AFRICAE,Rusadder-Caesarea,sum-route,,,,,Rusaddir,Rusaddir,,,,,,,https://pleiades.stoa.org/places/285512,35.2922015,-2.938778,,
10,,5.1,1. PROVINCIAE AFRICAE,Rusadder-Caesarea,sum-route,Cesarea Mauretanie m. p. CCCCXXIII,,,Caesarea Mauretanie,Iol Caesarea,Iol Caesarea,m. p.,CCCCXXIII, m. p. CCCCXXIII,,,,https://pleiades.stoa.org/places/295279,36.607058,2.1918495,,
11,,5.2,1. PROVINCIAE AFRICAE,Caesarea-Saldae,sum-route,,,,,Iol Caesarea,Iol Caesarea,,,,,,,https://pleiades.stoa.org/places/295279,36.607058,2.1918495,,
12,,5.2,1. PROVINCIAE AFRICAE,Caesarea-Saldae,sum-route,Saldis m. p. CCXVIII,,,Saldis,Saldae,Saldae,m. p.,CCXVIII, m. p. CCXVIII,,,,https://pleiades.stoa.org/places/305142,36.740851,5.057965000000000,,
13,,5.3,1. PROVINCIAE AFRICAE,Saldae-Rusicade,sum-route,,,,,Saldae,Saldae,,,,,,,https://pleiades.stoa.org/places/305142,36.740851,5.057965000000000,,
14,,5.3,1. PROVINCIAE AFRICAE,Saldae-Rusicade,sum-route,Rusiccade m. p. CCXVIII,,,Rusiccade,Rusicade,Rusicade/Thapsus,m. p.,CCXVIII, m. p. CCXVIII,,,,https://pleiades.stoa.org/places/305137,36.8814425,6.9055805,,
15,,6.1,1. PROVINCIAE AFRICAE,Rusicade-Hippo Regius,sum-route,,,,,Rusicade,Rusicade/Thapsus,,,,,,,https://pleiades.stoa.org/places/305137,36.8814425,6.9055805,,
16,,6.1,1. PROVINCIAE AFRICAE,Rusicade-Hippo Regius,sum-route,Hippone Regio m. p. CXV,,,Hippone Regio,Hippo Regius,Hippo Regius,m. p.,CXV, m. p. CXV,,,,https://pleiades.stoa.org/places/305090,36.882478,7.751272,,
17,,6.2,1. PROVINCIAE AFRICAE,Hippo Regius-Carthago-1,sum-route,,,,,Hippo Regius,Hippo Regius,,,,,,,https://pleiades.stoa.org/places/305090,36.882478,7.751272,,
18,,6.2,1. PROVINCIAE AFRICAE,Hippo Regius-Carthago-1,sum-route,Cartagine m. p. CXCIII mansionibus his:,,,Cartagine,Carthago,Carthago,m. p.,CXCIII, m. p. CXCIII,,,,https://pleiades.stoa.org/places/314921,36.853056,10.323056,,
19,,6.4,1. PROVINCIAE AFRICAE,Mercurii-Tingis,route,,,,,Mercurii,Ad Mercuri?,,,,,,"The placement of Mercurii as starting point and intermediate stop on the route does not make any sense. An alternative location could be at -6.98380, 33.86776 (km 23.268), which is also where the roman road ends. Distances in this route are almost perfectly accurate, so this location would make sense.",https://pleiades.stoa.org/places/275579,35.508424,-5.839493,mansio,station (road or coastal)
20,,6.4,1. PROVINCIAE AFRICAE,Mercurii-Tingis,route,,,,Sala colonia,Sala,Sala,m. p.,XVI,m. p. XVI,16.0,23.68,,https://pleiades.stoa.org/places/275696,34.006821,-6.821498,colonia,settlement
21,,7.1,1. PROVINCIAE AFRICAE,Mercurii-Tingis,route,,,,Thamusida,Thamusida,Thamusida,m. p.,XXXII,m. p. XXXII,32.0,47.36,,https://pleiades.stoa.org/places/275734,34.3349603,-6.490649966666670,mansio,fort-2
22,,7.2,1. PROVINCIAE AFRICAE,Mercurii-Tingis,route,,,,Banasa,Banasa,Banasa,m. p.,XXXII,m. p. XXXII,32.0,47.36,,https://pleiades.stoa.org/places/275599,34.6018947311911,-6.115293843505940,mansio,settlement
23,,7.3,1. PROVINCIAE AFRICAE,Mercurii-Tingis,route,,,,Frigidis,Frigidae,Frigidae,m. p.,XXIIII,m. p. XXIIII,24.0,35.52,,https://pleiades.stoa.org/places/275629,34.96001,-6.150002,mansio,fort-2
24,,7.4,1. PROVINCIAE AFRICAE,Mercurii-Tingis,route,,,,Lix colonia,Lix,Lixus,m. p.,XVI,m. p. XVI,16.0,23.68,,https://pleiades.stoa.org/places/275666,35.2002398464,-6.10995151281,colonia,"settlement, archaeological site"
25,,8.1,1. PROVINCIAE AFRICAE,Mercurii-Tingis,route,,,,Tabernis,Tabernae,Tabernae,m. p.,XVI,m. p. XVI,16.0,23.68,,https://pleiades.stoa.org/places/275729,35.333689,-5.981627,mansio,settlement
26,,8.2,1. PROVINCIAE AFRICAE,Mercurii-Tingis,route,,,,Zili,Zilis,Zilil/Zilis,m. p.,XIIII,m. p. XIIII,14.0,20.72,,https://pleiades.stoa.org/places/275744,35.52228785,-5.91557325,mansio,settlement
27,,8.3,1. PROVINCIAE AFRICAE,Mercurii-Tingis,route,,ad,preposition,Ad Mercurios,Mercurii,Ad Mercuri?,m. p.,VI,m. p. VI,6.0,8.88,This location is correct,https://pleiades.stoa.org/places/275579,35.508424,-5.839493,mansio,station (road or coastal)
28,,8.4,1. PROVINCIAE AFRICAE,Mercurii-Tingis,route,,,,Tingi colonia,Tingis,Tingi,m. p.,XVIII,m. p. XVIII,18.0,26.64,,https://pleiades.stoa.org/places/275736,35.787546,-5.8102335,colonia,"settlement, port"
29,,9.1,1. PROVINCIAE AFRICAE,Tingis-Rusadder,route,,,,Tingi,Tingis,Tingi,,,,0.0,0.0,,https://pleiades.stoa.org/places/275736,35.787546,-5.8102335,mansio/colonia,"settlement, port"
31,,9.3,1. PROVINCIAE AFRICAE,Tingis-Rusadder,route,A Tingi litoribus navigatur usque ad Portus Divinos:,"ad, navigatur","preposition, navigation",Ad Septem Fratres,Septem Fratres,Septem Fratres Montes,m. p.,LX,m. p. LX,60.0,88.8,"I believe the text transcription is not an endpoint but a direction based on mode of transport. This is sort of an “internal route” to indicate that from Tingis to Portus Divinus the main mode of transportation is by boat. It is, therefore, an insertion in the route with navigational information, rather than an actual stop at this point in the route. The distance to Septem Fratres is, however, almost double the effective one. ",https://pleiades.stoa.org/places/275704,35.8989516,-5.4129554,,mountain
32,,9.4,1. PROVINCIAE AFRICAE,Tingis-Rusadder,route,,"ad, navigatur","preposition, navigation",Ad Abilem,Abilem?,Abila M. ,m. p.,XIIII,m. p. XIIII,14.0,20.72,Direction and direction type are supplied based on the instructions for this segment of the route (see 9.2-3),https://pleiades.stoa.org/places/275577,35.9,-5.283333,,mountain
33,,9.5,1. PROVINCIAE AFRICAE,Tingis-Rusadder,route,,"ad, navigatur","preposition, navigation",Ad Aquilam Minorem,Aquila Minor,Aquila Minor (promontory),m. p.,XIIII,m. p. XIIII,14.0,20.72,Direction and direction type are supplied based on the instructions for this segment of the route (see 9.2-3),https://pleiades.stoa.org/places/275592,35.77,-5.34,,"cape, promontory"
34,,10.1,1. PROVINCIAE AFRICAE,Tingis-Rusadder,route,,"ad, navigatur","preposition, navigation",Ad Aquilam Maiorem,Aquila Maior,Aquila Maior (promontory),m. p.,XIIII,m. p. XIIII,14.0,20.72,Direction and direction type are supplied based on the instructions for this segment of the route (see 9.2-3),https://pleiades.stoa.org/places/275591,35.68,-5.27,,cape
35,,10.2,1. PROVINCIAE AFRICAE,Tingis-Rusadder,route,,"ad, navigatur","preposition, navigation",Ad promunturium Barbiti,Barbiti promunturium?,Barbari Pr.,m. p.,XII,m. p. XII,12.0,17.76,Direction and direction type are supplied based on the instructions for this segment of the route (see 9.2-3),https://pleiades.stoa.org/places/275602,35.55019,-5.22618,promunturium,cape
36,,10.3,1. PROVINCIAE AFRICAE,Tingis-Rusadder,route,,navigatur,navigation,Tenia Longa,Tenia Longa,Taenia Longa?,m. p.,XXIIII,m. p. XXIIII,24.0,35.52,"Location of Tenia Longa is imprecise in Pleiades, as the location is clearly at the mouth of the river Oued Laou. Direction and direction type are supplied based on the instructions for this segment of the route (see 9.2-3)",https://pleiades.stoa.org/places/275730,35.3478170894,-5.17998275249,,"cape, promontory"
37,,10.4,1. PROVINCIAE AFRICAE,Tingis-Rusadder,route,,navigatur,navigation,Cubucla,Cobucla,Cobucla,m. p.,XXIIII,m. p. XXIIII,24.0,35.52,Direction and direction type are supplied based on the instructions for this segment of the route (see 9.2-3),https://pleiades.stoa.org/places/278605,,,,unlocated
38,,10.5,1. PROVINCIAE AFRICAE,Tingis-Rusadder,route,,navigatur,navigation,Parietina,Parietina,Parietina,m. p.,XXIIII,m. p. XXIIII,24.0,35.52,Direction and direction type are supplied based on the instructions for this segment of the route (see 9.2-3),https://pleiades.stoa.org/places/289945,,,,unlocated
39,,10.6,1. PROVINCIAE AFRICAE,Tingis-Rusadder,route,,navigatur,navigation,Promunturium,Promunturium,,m. p.,XXV,m. p. XXV,25.0,37.0,Location calculated based on the distance and geography; Direction and direction type are supplied based on the instructions for this segment of the route (see 9.2-3),No URI,,,promunturium,unknown
40,,11.1,1. PROVINCIAE AFRICAE,Tingis-Rusadder,route,,"ad, navigatur","preposition, navigation",Ad Sex Insulas,Sex Insulas,,m. p.,XII,m. p. XII,12.0,17.76,Direction and direction type are supplied based on the instructions for this segment of the route (see 9.2-3),No URI,,,insula,unknown
41,,11.2,1. PROVINCIAE AFRICAE,Tingis-Rusadder,route,,navigatur,navigation,Promunturio Cannarum,Promunturium Cannarum,Cannarum Pr./Cannar Pr.,m. p.,XXX,m. p. XXX,30.0,44.4,Location calculated based on the distance and geography; Direction and direction type are supplied based on the instructions for this segment of the route (see 9.2-3),https://pleiades.stoa.org/places/289928,,,promunturium,unlocated
42,,,1. PROVINCIAE AFRICAE,Tingis-Rusadder,route,,navigatur,navigation,Promunturio Rusaddi,Promunturium Rusaddi,Rusaddi(r) Pr.,m. p.,L,m. p. L,50.0,74.0,Direction and direction type are supplied based on the instructions for this segment of the route (see 9.2-3),https://pleiades.stoa.org/places/285511,35.438333,-2.974444,promunturium,"cape, promontory"
43,,,1. PROVINCIAE AFRICAE,Tingis-Rusadder,route,,navigatur,navigation,Rusadder colonia,Rusadder,Rusaddir,m. p.,XV,m. p. XV,15.0,22.2,Direction and direction type are supplied based on the instructions for this segment of the route (see 9.2-3),https://pleiades.stoa.org/places/285512,35.2922015,-2.938778,colonia,"settlement, port"
44,,,1. PROVINCIAE AFRICAE,Rusadder-Caesarea,route,,navigatur,navigation,,Rusadder,Rusaddir,,,,0.0,0.0,Direction and direction type are supplied based on the instructions for this segment of the route (see 9.2-3),https://pleiades.stoa.org/places/285512,35.2922015,-2.938778,colonia,"settlement, port"
45,,,1. PROVINCIAE AFRICAE,Rusadder-Caesarea,route,,"ad, navigatur","preposition, navigation",Ad Tres Insulas,Tres Insulas,Tres (islands),m. p.,LXV,m. p. LXV,65.0,96.2,Direction and direction type are supplied based on the instructions for this segment of the route (see 9.2-3),https://pleiades.stoa.org/places/285540,35.1806575667,-2.42942003333,insula,"archipelago, island group, island"
46,,,1. PROVINCIAE AFRICAE,Rusadder-Caesarea,route,Flumen Malva dirimit Mauretanias duas incipit Caesariensis:,navigatur,navigation,Flumen Malva,Flumen Malva,Malva?,m. p.,XII,m. p. XII,12.0,17.76,"Coordinates of the itinerary intersection are NOT from pleiades but were calculated with the help of the AWMC rivers layer, although the distance does not fully coincide; Direction and direction type are supplied based on the instructions for this segment of the route (see 9.2-3)",https://pleiades.stoa.org/places/285491,35.12429,-2.35079,flumen,"river, drainage"
47,,,1. PROVINCIAE AFRICAE,Rusadder-Caesarea,route,,navigatur,navigation,Lemnis,Lemnis,Lemnis?,m. p.,XXII,m. p. XXII,22.0,32.56,Direction and direction type are supplied based on the instructions for this segment of the route (see 9.2-3),https://pleiades.stoa.org/places/285476,35.073106,-2.102887,,settlement
48,,12.4,1. PROVINCIAE AFRICAE,Rusadder-Caesarea,route,,navigatur,navigation,Popleto flumen,Popletum flumen,Popleto,m. p.,XXX,m. p. XXX,30.0,44.4,Measurement is out of whack. It looks like the intersection of the modern Oued Tazult; Direction and direction type are supplied based on the instructions for this segment of the route (see 9.2-3),https://pleiades.stoa.org/places/289946,,,flumen,"unlocated, river, drainage"
49,,,1. PROVINCIAE AFRICAE,Rusadder-Caesarea,route,,"ad, navigatur","preposition, navigation",Ad Fratres,Fratres,Ad Fratres?,m. p.,VI,m. p. VI,6.0,8.88,Direction and direction type are supplied based on the instructions for this segment of the route (see 9.2-3),https://pleiades.stoa.org/places/285393,35.101893,-1.858203,,station
50,,12.6,1. PROVINCIAE AFRICAE,Rusadder-Caesarea,route,,navigatur,navigation,Artisiga,Artisiga,Artisiga/Artisica/Gypsaria,m. p.,XXV,m. p. XXV,25.0,37.0,Direction and direction type are supplied based on the instructions for this segment of the route (see 9.2-3),https://pleiades.stoa.org/places/289925,,,,unlocated
51,,12.7,1. PROVINCIAE AFRICAE,Rusadder-Caesarea,route,,navigatur,navigation,Portu Caecili,Portus Caecili,Portus Caecili,m. p.,XII,m. p. XII,12.0,17.76,Direction and direction type are supplied based on the instructions for this segment of the route (see 9.2-3),https://pleiades.stoa.org/places/289947,,,portus,unlocated
52,,,1. PROVINCIAE AFRICAE,Rusadder-Caesarea,route,,navigatur,navigation,Siga municipium,Siga,Siga,m. p.,XV,m. p. XV,15.0,22.2,Direction and direction type are supplied based on the instructions for this segment of the route (see 9.2-3),https://pleiades.stoa.org/places/285521,35.2529245,-1.4517325000000000,municipium,settlement
53,,,1. PROVINCIAE AFRICAE,Rusadder-Caesarea,route,,navigatur,navigation,Portu Sigensi,Portus Sigensis,Portus Sigensis,m. p.,III,m. p. III,3.0,4.44,Direction and direction type are supplied based on the instructions for this segment of the route (see 9.2-3),https://pleiades.stoa.org/places/285504,35.29689,-1.46751,portus,settlement
54,,,1. PROVINCIAE AFRICAE,Rusadder-Caesarea,route,,navigatur,navigation,Camarata,Camarata,Camarata?,m. p.,XII,m. p. XII,12.0,17.76,Direction and direction type are supplied based on the instructions for this segment of the route (see 9.2-3),https://pleiades.stoa.org/places/285422,35.346511,-1.298801,,settlement
55,,,1. PROVINCIAE AFRICAE,Rusadder-Caesarea,route,,"ad, navigatur","preposition, navigation",Ad Salsum flumen,Salsum flumen,Salsum (river),m. p.,XII,m. p. XII,12.0,17.76,Direction and direction type are supplied based on the instructions for this segment of the route (see 9.2-3),https://pleiades.stoa.org/places/285515,35.4418489296,-1.22104192912,flumen,river
56,,13.4,1. PROVINCIAE AFRICAE,Rusadder-Caesarea,route,,"ad, navigatur","preposition, navigation",Ad Crispas,Crispae?,Ad Crispas,m. p.,XXV,m. p. XXV,25.0,37.0,Direction and direction type are supplied based on the instructions for this segment of the route (see 9.2-3),https://pleiades.stoa.org/places/289922,,,,unlocated
57,,13.5,1. PROVINCIAE AFRICAE,Rusadder-Caesarea,route,,navigatur,navigation,Silva colonia,Silva,Silva/Gilva Col.,m. p.,VI,m. p. VI,6.0,8.88,Direction and direction type are supplied based on the instructions for this segment of the route (see 9.2-3),https://pleiades.stoa.org/places/289951,,,colonia,unlocated
58,,,1. PROVINCIAE AFRICAE,Rusadder-Caesarea,route,,navigatur,navigation,Castra Puerorum,Castra Puerorum,Castra Puer(or)um,m. p.,VI,m. p. VI,6.0,8.88,Direction and direction type are supplied based on the instructions for this segment of the route (see 9.2-3),https://pleiades.stoa.org/places/285425,35.70429,-0.896073,castra,settlement
59,,,1. PROVINCIAE AFRICAE,Rusadder-Caesarea,route,,navigatur,navigation,Portus Divinos,Portus Divinus,Portus Divinus,m. p.,XVIII,m. p. XVIII,18.0,26.64,Direction and direction type are supplied based on the instructions for this segment of the route (see 9.2-3),https://pleiades.stoa.org/places/285502,35.705063,-0.637317,portus,settlement
60,,,1. PROVINCIAE AFRICAE,Rusadder-Caesarea,route,,,,Portus Magnos,Portus Magnus,Portus Magnus,m. p.,XXXVI,m. p. XXXVI,36.0,53.28,,https://pleiades.stoa.org/places/285503,35.807917,-0.266018,portus,settlement
61,,,1. PROVINCIAE AFRICAE,Rusadder-Caesarea,route,,,,Quiza municipium,Quiza,Quiza Cenitana,m. p.,XL,m. p. XL,40.0,59.2,,https://pleiades.stoa.org/places/295327,36.02993,0.24167900000000000,municipium,settlement
62,,,1. PROVINCIAE AFRICAE,Rusadder-Caesarea,route,,,,Arsenaria,Arsenaria,Arsennaria,m. p.,XL,m. p. XL,40.0,59.2,,https://pleiades.stoa.org/places/295219,36.334326,0.873111,,settlement
63,,,1. PROVINCIAE AFRICAE,Rusadder-Caesarea,route,,,,Cartenna colonia,Cartenna,Cartenna,m. p.,XVIII,m. p. XVIII,18.0,26.64,,https://pleiades.stoa.org/places/295240,36.510044,1.310964,colonia,settlement
64,,,1. PROVINCIAE AFRICAE,Rusadder-Caesarea,route,,,,Iar castellum,Iar castellum,Iar Castellum?,m. p.,XIIII,m. p. XIIII,14.0,20.72,,https://pleiades.stoa.org/places/295273,36.53072,1.568591,castellum,settlement
65,,,1. PROVINCIAE AFRICAE,Rusadder-Caesarea,route,,,,Cartili,Cartilis,Cartili?,m. p.,XII,m. p. XII,12.0,17.76,,https://pleiades.stoa.org/places/295242,36.549862,1.700044,,settlement
66,,,1. PROVINCIAE AFRICAE,Rusadder-Caesarea,route,,,,Gunugus,Gunugu,Gunugu,m. p.,XII,m. p. XII,12.0,17.76,,https://pleiades.stoa.org/places/295268,36.570982,1.90305,,settlement
67,,,1. PROVINCIAE AFRICAE,Rusadder-Caesarea,route,,,,Caesarea colonia,Caesarea,Iol Caesarea,m. p.,XII,m. p. XII,12.0,17.76,,https://pleiades.stoa.org/places/295279,36.607058,2.1918495,colonia,settlement
68,,,1. PROVINCIAE AFRICAE,Caesarea-Saldae,route,,,,,Caesarea,Iol Caesarea,,,,0.0,0.0,sub-itinerary supplied,https://pleiades.stoa.org/places/295279,36.607058,2.1918495,colonia,settlement
69,,,1. PROVINCIAE AFRICAE,Caesarea-Saldae,route,,,,Tipasa colonia,Tipasa,Tipasa,m. p.,XVI,m. p. XVI,16.0,23.68,,https://pleiades.stoa.org/places/295363,36.5942426756,2.44191772826,colonia,settlement
70,,,1. PROVINCIAE AFRICAE,Caesarea-Saldae,route,,,,Casae Calventi,Casae Calventi,Casae Calventi?,m. p.,XV,m. p. XV,15.0,22.2,,https://pleiades.stoa.org/places/295243,36.641597,2.68789,,settlement
71,,,1. PROVINCIAE AFRICAE,Caesarea-Saldae,route,,,,Icosium colonia,Icosium,Icosium,m. p.,XXXII,m. p. XXXII,32.0,47.36,,https://pleiades.stoa.org/places/295276,36.7689125,3.0532175,colonia,settlement
72,,,1. PROVINCIAE AFRICAE,Caesarea-Saldae,route,,,,Rusguniae colonia,Rusguniae,Rusguniae,m. p.,XV,m. p. XV,15.0,22.2,,https://pleiades.stoa.org/places/295331,36.7990945,3.2378935,colonia,settlement
73,,,1. PROVINCIAE AFRICAE,Caesarea-Saldae,route,,,,Rusubbicari,Rusibricari?,Rusubbicari Matidiae,m. p.,XXIIII,m. p. XXIIII,24.0,35.52,,https://pleiades.stoa.org/places/295333,36.801017,3.5646,,settlement
74,,,1. PROVINCIAE AFRICAE,Caesarea-Saldae,route,,,,Cisi municipium,Cissi,Cissi,m. p.,XII,m. p. XII,12.0,17.76,,https://pleiades.stoa.org/places/295253,36.877461,3.7334035,municipium,settlement
75,,,1. PROVINCIAE AFRICAE,Caesarea-Saldae,route,,,,Rusuccuru colonia,Rusuccuru,Rusuccuru,m. p.,XII,m. p. XII,12.0,17.76,,https://pleiades.stoa.org/places/295334,36.9128545,3.9096445000000000,colonia,settlement
76,,,1. PROVINCIAE AFRICAE,Caesarea-Saldae,route,,,,Iomnio municipio,Iomnium,Iomnium,m. p.,XVIII,m. p. XVIII,18.0,26.64,,https://pleiades.stoa.org/places/295280,36.8948925621601,4.123272201422560,municipium,settlement
77,,,1. PROVINCIAE AFRICAE,Caesarea-Saldae,route,,,,Rusazis municipium,Rusazus,Rusazus?,m. p.,XXXVIII,m. p. XXXVIII,38.0,56.24,,https://pleiades.stoa.org/places/305138,36.894041,4.420813,municipium,settlement
78,,,1. PROVINCIAE AFRICAE,Caesarea-Saldae,route,,,,Saldis colonia,Saldae,Saldae,m. p.,XXXV,m. p. XXXV,35.0,51.8,,https://pleiades.stoa.org/places/305142,36.740851,5.057965000000000,colonia,settlement
79,,,1. PROVINCIAE AFRICAE,Saldae-Rusicade,route,,,,,Saldae,Saldae,,,,0.0,0.0,sub-itinerary supplied,https://pleiades.stoa.org/places/305142,36.740851,5.057965000000000,colonia,settlement
80,,,1. PROVINCIAE AFRICAE,Saldae-Rusicade,route,,,,Musulubio,Muslubium,Muslubium,m. p.,XXVII,m. p. XXVII,27.0,39.96,,https://pleiades.stoa.org/places/305111,36.636739,5.246097,,settlement
81,,,1. PROVINCIAE AFRICAE,Saldae-Rusicade,route,,,,Coba municipium,Coba,Choba,m. p.,XXVIII,m. p. XXVIII,28.0,41.44,,https://pleiades.stoa.org/places/305062,36.6665775,5.4607425,municipium,settlement
82,,,1. PROVINCIAE AFRICAE,Saldae-Rusicade,route,,,,Igilgili colonia,Igilgili,Igilgili,m. p.,XXXVIIII,m. p. XXXVIIII,39.0,57.72,,https://pleiades.stoa.org/places/305095,36.8212995,5.766168,colonia,settlement
83,,,1. PROVINCIAE AFRICAE,Saldae-Rusicade,route,,,,Paccianis Matidie,Pacciani Matidiae,Paccianis Matidiae?/Tucca?,m. p.,XXIIII,m. p. XXIIII,24.0,35.52,,https://pleiades.stoa.org/places/305126,36.865147,6.1015385,,settlement
84,,,1. PROVINCIAE AFRICAE,Saldae-Rusicade,route,,,,Chulli municipium,Chullu,Chullu,m. p.,LX,m. p. LX,60.0,88.8,,https://pleiades.stoa.org/places/305063,37.0078525,6.562081,municipium,settlement
85,,,1. PROVINCIAE AFRICAE,Saldae-Rusicade,route,,,,Rusiccade,Rusicade,Rusicade/Thapsus,m. p.,L,m. p. L,50.0,74.0,,https://pleiades.stoa.org/places/305137,36.8814425,6.9055805,,settlement
86,,,1. PROVINCIAE AFRICAE,Rusicade-Hippo Regius,route,,,,Rusiccade,Rusicade,Rusicade/Thapsus,,,,0.0,0.0,sub-itinerary supplied,https://pleiades.stoa.org/places/305137,36.8814425,6.9055805,,settlement
87,,,1. PROVINCIAE AFRICAE,Rusicade-Hippo Regius,route,,,,Paratianis,Paratianis,Paratianis,m. p.,XXV,m. p. XXV,25.0,37.0,,https://pleiades.stoa.org/places/305128,36.91671,7.156637,,settlement
88,,,1. PROVINCIAE AFRICAE,Rusicade-Hippo Regius,route,,,,Culucitanis,Culucitani,Culucitanis?,m. p.,XVIII,m. p. XVIII,18.0,26.64,,https://pleiades.stoa.org/places/305069,37.030021,7.252483,,settlement
89,,,1. PROVINCIAE AFRICAE,Rusicade-Hippo Regius,route,,,,Tacatua,Tacatua,Tacatua,m. p.,XXII,m. p. XXII,22.0,32.56,,https://pleiades.stoa.org/places/305160,37.065966,7.380568,,settlement
90,,,1. PROVINCIAE AFRICAE,Rusicade-Hippo Regius,route,,,,Sullucu,Sulluctu,Sulluctu?,m. p.,XVIII,m. p. XVIII,18.0,26.64,,https://pleiades.stoa.org/places/305158,37.038565,7.33233,,settlement
91,,,1. PROVINCIAE AFRICAE,Rusicade-Hippo Regius,route,,,,Hippone Regio colonia,Hippo Regius,Hippo Regius,m. p.,XXXII,m. p. XXXII,32.0,47.36,,https://pleiades.stoa.org/places/305090,36.882478,7.751272,colonia,settlement
92,,,1. PROVINCIAE AFRICAE,Hippo Regius-Carthago-1,route,,,,,Hippo Regius,Hippo Regius,,,,0.0,0.0,sub-itinerary supplied,https://pleiades.stoa.org/places/305090,36.882478,7.751272,colonia,settlement
93,,,1. PROVINCIAE AFRICAE,Hippo Regius-Carthago-1,route,,ad,,Ad Dianam,Ad Dianam,Ad Dianam,m. p.,XXXII,m. p. XXXII,32.0,47.36,,https://pleiades.stoa.org/places/321634,,,mansio,unlocated
94,,,1. PROVINCIAE AFRICAE,Hippo Regius-Carthago-1,route,,,,Tuniza,Tuniza,Tuniza?,m. p.,XV,m. p. XV,15.0,22.2,,https://pleiades.stoa.org/places/315235,36.8912775,8.438117,mansio,settlement
95,,,1. PROVINCIAE AFRICAE,Hippo Regius-Carthago-1,route,,,,Thabraca,Tabraca,Thabraca,m. p.,XXIIII,m. p. XXIIII,24.0,35.52,,https://pleiades.stoa.org/places/315192,36.9567785,8.7497465,mansio,settlement
96,,,1. PROVINCIAE AFRICAE,Hippo Regius-Carthago-1,route,,,,Hippone Zarito,Hippo Zaritus,Hippo Diarrhytus,m. p.,LX,m. p. LX,60.0,88.8,,https://pleiades.stoa.org/places/315038,37.276147,9.873108,mansio,settlement
97,,,1. PROVINCIAE AFRICAE,Hippo Regius-Carthago-1,route,,,,Tuneiza,Tuneiza,Thinisa?/Tuneiza?/Tunisa?,m. p.,XX,m. p. XX,20.0,29.6,,https://pleiades.stoa.org/places/315212,37.2144672,10.1246134,mansio,settlement
98,,,1. PROVINCIAE AFRICAE,Hippo Regius-Carthago-1,route,,,,Membrone,Membro,Membrone?,m. p.,X,m. p. X,10.0,14.8,,https://pleiades.stoa.org/places/315076,37.100163,10.017825,mansio,settlement
99,,,1. PROVINCIAE AFRICAE,Hippo Regius-Carthago-1,route,,,,Vtica,Utica,Utica,m. p.,VI,m. p. VI,6.0,8.88,,https://pleiades.stoa.org/places/315248,37.0558774503256,10.060007765147100,mansio,settlement
100,,,1. PROVINCIAE AFRICAE,Hippo Regius-Carthago-1,route,,ad,,Ad Gallum Gallinacium,Ad Gall(inaci)um?,Ad Gall(inaci)um?,m. p.,XII,m. p. XII,12.0,17.76,,https://pleiades.stoa.org/places/314849,36.905461,10.096435,mansio,station
101,,,1. PROVINCIAE AFRICAE,Hippo Regius-Carthago-1,route,,,,Cartagine,Carthago,Carthago,m. p.,XV,m. p. XV,15.0,22.2,,https://pleiades.stoa.org/places/314921,36.853056,10.323056,,settlement
102,,23.1,1. PROVINCIAE AFRICAE,Tocolosida-Tingis,sum-route,Item ab Tocolosida Tingi m. p. CXLVIII:,,,Tocolosida,Tocolosida,Tocolosida,,,,,,,https://pleiades.stoa.org/places/275737,34.0380963355639,-5.581181799211420,,
103,,23.1,1. PROVINCIAE AFRICAE,Tocolosida-Tingis,sum-route,Item ab Tocolosida Tingi m. p. CXLVIII:,,,Tingi,Tingi,Tingi,m. p.,CXLVIII, m. p. CXLVIII,,,,https://pleiades.stoa.org/places/275736,35.787546,-5.8102335,,
104,,,1. PROVINCIAE AFRICAE,Tocolosida-Tingis,route,,,,Tocolosida,Tocolosida,Tocolosida,,,,0.0,0.0,,https://pleiades.stoa.org/places/275737,34.0380963355639,-5.581181799211420,,fort
105,,,1. PROVINCIAE AFRICAE,Tocolosida-Tingis,route,,,,Volubilis colonia,Volubilis,Volubilis,m. p.,IIII,m. p. IIII,4.0,5.92,,https://pleiades.stoa.org/places/275740,34.0728746739421,-5.554868564966930,colonia,settlement
106,,,1. PROVINCIAE AFRICAE,Tocolosida-Tingis,route,,,,Aquis Dacicis,Aquae Dacicae,Aquae Dacicae,m. p.,XVI,m. p. XVI,16.0,23.68,,https://pleiades.stoa.org/places/275590,34.14657,-5.800742,,bath
107,,23.4,1. PROVINCIAE AFRICAE,Tocolosida-Tingis,route,,,,Gilda,Gilda,Gilda/Silda,m. p.,XII,m. p. XII,12.0,17.76,,https://pleiades.stoa.org/places/278611,,,,unlocated
108,,23.5,1. PROVINCIAE AFRICAE,Tocolosida-Tingis,route,,,,Vopiscianis,Vopisciana,,m. p.,XXIII,m. p. XXIII,23.0,34.04,,No URI,,,,unknown
109,,,1. PROVINCIAE AFRICAE,Tocolosida-Tingis,route,,,,Tremulis,Tremuli,Tremuli,m. p.,XVIIII,m. p. XVIIII,19.0,28.12,,https://pleiades.stoa.org/places/275738,34.8205112518098,-5.951471422669310,,station
110,,,1. PROVINCIAE AFRICAE,Tocolosida-Tingis,route,,,,Oppido Novo,Oppidum Novum,Oppidum Novum,m. p.,XII,m. p. XII,12.0,17.76,,https://pleiades.stoa.org/places/275685,35.008501,-5.902791,,settlement
111,,,1. PROVINCIAE AFRICAE,Tocolosida-Tingis,route,,ad,,Ad Novas,Ad Novas,Ad Novas,m. p.,XXXII,m. p. XXXII,32.0,47.36,Potentially associated with modern Souiyar,https://pleiades.stoa.org/places/275580,35.69404,-5.93182,,"station (road or coastal), settlement-modern"
112,,,1. PROVINCIAE AFRICAE,Tocolosida-Tingis,route,,ad,,Ad Mercurios,Mercurii,Ad Mercuri?,m. p.,XII,m. p. XII,12.0,17.76,,https://pleiades.stoa.org/places/275579,35.508424,-5.839493,,station (road or coastal)
113,,,1. PROVINCIAE AFRICAE,Tocolosida-Tingis,route,,,,Tingi colonia,Tingis,Tingi,m. p.,XVIII,m. p. XVIII,18.0,26.64,,https://pleiades.stoa.org/places/275736,35.787546,-5.8102335,colonia,"settlement, port"
115,,24.6,1. PROVINCIAE AFRICAE,Carthago-Cirta,sum-route,A Cartagine Cirta m. p. CCCXXI,,,Cartagine,Carthago,Carthago,,,,,,,https://pleiades.stoa.org/places/314921,36.853056,10.323056,,
116,,24.6,1. PROVINCIAE AFRICAE,Carthago-Cirta,sum-route,A Cartagine Cirta m. p. CCCXXI,,,Cirta,Cirta,Cirta/Constantina,m. p.,CCCXXI,m. p. CCCXXI,,,,https://pleiades.stoa.org/places/305064,36.3681146666667,6.613302666666670,,
117,,,1. PROVINCIAE AFRICAE,Carthago-Cirta,route,A Cartagine Vnuca m. p. XXII,,,Cartagine,Carthago,Carthago,,,,0.0,0.0,,https://pleiades.stoa.org/places/314921,36.853056,10.323056,,settlement
118,,,1. PROVINCIAE AFRICAE,Carthago-Cirta,route,,,,Vnuca,Inuca,Inuca,m. p.,XXII,m. p. XXII,22.0,32.56,,https://pleiades.stoa.org/places/315044,36.728132,10.012412,,settlement
119,,,1. PROVINCIAE AFRICAE,Carthago-Cirta,route,,,,Sicilibra,Sicilibra,Sicilibba,m. p.,VII,m. p. VII,7.0,10.36,,https://pleiades.stoa.org/places/315153,36.68588,9.873597,,settlement
120,,,1. PROVINCIAE AFRICAE,Carthago-Cirta,route,,,,Vallis,Vallis,Vallis,m. p.,XV,m. p. XV,15.0,22.2,,https://pleiades.stoa.org/places/315254,36.6248409,9.7466495,,settlement
121,,,1. PROVINCIAE AFRICAE,Carthago-Cirta,route,,,,Coreba,Choreva,Coreva,m. p.,XX,m. p. XX,20.0,29.6,,https://pleiades.stoa.org/places/314940,36.508717,9.4691485,,settlement
122,,,1. PROVINCIAE AFRICAE,Carthago-Cirta,route,,,,Musti,Musti,Musti,m. p.,XXVIII,m. p. XXVIII,28.0,41.44,,https://pleiades.stoa.org/places/315085,36.336066,9.143109,,settlement
123,,,1. PROVINCIAE AFRICAE,Carthago-Cirta,route,,,,Laribus colonia,Lares,Lares,m. p.,XXX,m. p. XXX,30.0,44.4,,https://pleiades.stoa.org/places/315061,36.081288,8.841397,colonia,settlement
124,,,1. PROVINCIAE AFRICAE,Carthago-Cirta,route,,,,Altieuros,Altiburus,Althiburos,m. p.,XVI,m. p. XVI,16.0,23.68,,https://pleiades.stoa.org/places/324664,35.8736831031998,8.786164031268350,,settlement
125,,,1. PROVINCIAE AFRICAE,Carthago-Cirta,route,,,,Admedera colonia,Ammaedara,Ammaedara,m. p.,XXXII,m. p. XXXII,32.0,47.36,,https://pleiades.stoa.org/places/324665,35.56509,8.4524805,colonia,settlement
126,,,1. PROVINCIAE AFRICAE,Carthago-Cirta,route,,,,Thebeste colonia,Theveste,Theveste,m. p.,XXV,m. p. XXV,25.0,37.0,,https://pleiades.stoa.org/places/324831,35.404174,8.1223145,colonia,settlement
127,,,1. PROVINCIAE AFRICAE,Carthago-Cirta,route,,,,Altaba,Altava,Altava,m. p.,XVIII,m. p. XVIII,18.0,26.64,See Altava 1 in Pauly Wissowa: https://de.wikisource.org/wiki/RE:Altava_1,https://www.wikidata.org/wiki/Q19985794,,,,unknown
128,,27.3,1. PROVINCIAE AFRICAE,Carthago-Cirta,route,,,,Iusti,Iusti,,m. p.,XVIII,m. p. XVIII,18.0,26.64,,No URI,,,,unknown
129,,,1. PROVINCIAE AFRICAE,Carthago-Cirta,route,,,,Marcimeni,Marcimeni,Marcimeni?,m. p.,XXIIII,m. p. XXIIII,24.0,35.52,,https://pleiades.stoa.org/places/334586,35.796796,7.3928,municipium,settlement
130,,,1. PROVINCIAE AFRICAE,Carthago-Cirta,route,,,,Macomadibus,Macomades,Macomades?,m. p.,XXIIII,m. p. XXIIII,24.0,35.52,,https://pleiades.stoa.org/places/334583,35.8254,7.165181,,settlement
131,,,1. PROVINCIAE AFRICAE,Carthago-Cirta,route,,,,Sigus,Sigus,Sigus,m. p.,XXVIII,m. p. XXVIII,28.0,41.44,,https://pleiades.stoa.org/places/305150,36.122312,6.78528,,settlement
132,,,1. PROVINCIAE AFRICAE,Carthago-Cirta,route,,,,Cirta colonia,Cirta,Cirta/Constantina,m. p.,XXV,m. p. XXV,25.0,37.0,,https://pleiades.stoa.org/places/305064,36.3681146666667,6.613302666666670,colonia,settlement
133,,24.7,1. PROVINCIAE AFRICAE,Cirta-Sitifis,sum-route,,,,,Cirta,Cirta/Constantina,,,,,,,https://pleiades.stoa.org/places/305064,36.3681146666667,6.613302666666670,,
134,,24.7,1. PROVINCIAE AFRICAE,Cirta-Sitifis,sum-route,Sitifi m. p. C,,,Sitifi,Sitifis,Sitifis,m. p.,C,m. p. C,,,,https://pleiades.stoa.org/places/305153,36.1921446504379,5.404180824072240,,
135,,,1. PROVINCIAE AFRICAE,Cirta-Sitifis,route,,,,,Cirta,Cirta/Constantina,,,,,,,https://pleiades.stoa.org/places/305064,36.3681146666667,6.613302666666670,colonia,settlement
136,,,1. PROVINCIAE AFRICAE,Cirta-Sitifis,route,,,,Mileum,Mileum,Milev,m. p.,XXV,m. p. XXV,25.0,37.0,,https://pleiades.stoa.org/places/305109,36.4512765,6.267698,,settlement
137,,,1. PROVINCIAE AFRICAE,Cirta-Sitifis,route,,,,Idicra,Idicra,Civitas Gentis Suburburum/Idicra?,m. p.,XXV,m. p. XXV,25.0,37.0,I am not convinced this is correct location,https://pleiades.stoa.org/places/305065,36.233342,6.016655,,settlement
138,,,1. PROVINCIAE AFRICAE,Cirta-Sitifis,route,,,,Cuiculi,Cuiculum,Cuicul,m. p.,XXV,m. p. XXV,25.0,37.0,,https://pleiades.stoa.org/places/305068,36.3176905,5.73668362,,settlement
139,,,1. PROVINCIAE AFRICAE,Cirta-Sitifis,route,,,,Sitifi,Sitifis,Sitifis,m. p.,XXV,m. p. XXV,25.0,37.0,,https://pleiades.stoa.org/places/305153,36.1921446504379,5.404180824072240,,settlement
140,,25.1,1. PROVINCIAE AFRICAE,Sitifis-Caesarea,sum-route,,,,,Sitifis,Sitifis,,,,,,,https://pleiades.stoa.org/places/305153,36.1921446504379,5.404180824072240,,
141,,25.1,1. PROVINCIAE AFRICAE,Sitifis-Caesarea,sum-route,"Caesarea m. p. ?, sic:",,,Caesarea,Caesarea,Iol Caesarea,m. p.,?,m. p. ?,,,,https://pleiades.stoa.org/places/295279,36.607058,2.1918495,,
142,,,1. PROVINCIAE AFRICAE,Sitifis-Caesarea,route,,,,,Sitifis,Sitifis,,,,,,,https://pleiades.stoa.org/places/305153,36.1921446504379,5.404180824072240,,settlement
143,,,1. PROVINCIAE AFRICAE,Sitifis-Caesarea,route,,,,Perdices,Perdices,Perdices?,m. p.,XXV,m. p. XXV,25.0,37.0,,https://pleiades.stoa.org/places/334608,35.931999,5.390069,,settlement
144,,,1. PROVINCIAE AFRICAE,Sitifis-Caesarea,route,,,,Cellas,Cellae,Cellas/Castellum Cellense?,m. p.,XXVIII,m. p. XXVIII,28.0,41.44,,https://pleiades.stoa.org/places/334526,35.66983,5.319487,,settlement
145,,,1. PROVINCIAE AFRICAE,Sitifis-Caesarea,route,,,,Macri,Macri,Macri?,m. p.,XXV,m. p. XXV,25.0,37.0,,https://pleiades.stoa.org/places/334584,35.637737,5.094743,,settlement
146,,,1. PROVINCIAE AFRICAE,Sitifis-Caesarea,route,,,,Zabi,Zabi,Zabi (Iustiniana),m. p.,XXV,m. p. XXV,25.0,37.0,,https://pleiades.stoa.org/places/334668,35.691235,4.564989500000000,,settlement
147,,,1. PROVINCIAE AFRICAE,Sitifis-Caesarea,route,,,,Aras,Arae,Aras,m. p.,XXX,m. p. XXX,30.0,44.4,,https://pleiades.stoa.org/places/334493,35.818752,4.292015,,settlement
148,,,1. PROVINCIAE AFRICAE,Sitifis-Caesarea,route,,,,Tatilti,Tatilti,Tatilti?,m. p.,XVIII,m. p. XVIII,18.0,26.64,,https://pleiades.stoa.org/places/334628,36.019807,3.989498,,settlement
149,,,1. PROVINCIAE AFRICAE,Sitifis-Caesarea,route,,,,Auza,Auzia,Auzia,m. p.,XLIIII,m. p. XLIIII,44.0,65.12,,https://pleiades.stoa.org/places/295221,36.1444475,3.691275,,settlement
150,,,1. PROVINCIAE AFRICAE,Sitifis-Caesarea,route,,,,Rapidi,Rapidum,Rapidum,m. p.,XVI,m. p. XVI,16.0,23.68,,https://pleiades.stoa.org/places/295329,36.1368445,3.4229785,,settlement
151,,,1. PROVINCIAE AFRICAE,Sitifis-Caesarea,route,,,,Tirinadi,Tirinadi,Thanaramusa Castra,m. p.,XXV,m. p. XXV,25.0,37.0,,https://pleiades.stoa.org/places/295354,36.135629,2.914292,,settlement
152,,,1. PROVINCIAE AFRICAE,Sitifis-Caesarea,route,,,,Caput Cilani,Caput Cilani,Caput Cilani?,m. p.,XXV,m. p. XXV,25.0,37.0,,https://pleiades.stoa.org/places/295239,36.13972,2.836188,caput,settlement
153,,,1. PROVINCIAE AFRICAE,Sitifis-Caesarea,route,,,,Sufasar,Sufasar,Sufasar,m. p.,XVI,m. p. XVI,16.0,23.68,,https://pleiades.stoa.org/places/295346,36.19245,2.5132700000000000,,settlement
154,,,1. PROVINCIAE AFRICAE,Sitifis-Caesarea,route,,,,Aquis,Aquae,Aquae Calidae,m. p.,XVI,m. p. XVI,16.0,23.68,"The sub-itineraries here are unclear. Sitifis comes after Caesarea, not before",https://pleiades.stoa.org/places/295216,36.379474,2.395618,,settlement
155,,,1. PROVINCIAE AFRICAE,Sitifis-Caesarea,route,,,,Caesarea,Caesarea,Iol Caesarea,m. p.,XXV,m. p. XXV,25.0,37.0,,https://pleiades.stoa.org/places/295279,36.607058,2.1918495,,settlement
156,,31.6,1. PROVINCIAE AFRICAE,Sitifis-Saldae,sum-route,Item a Sitifi Saldas m. p. LXXVIIIIS,,,Sitifi,Sitifis,Sitifis,,,,,,,https://pleiades.stoa.org/places/305153,36.1921446504379,5.404180824072240,,
157,,31.6,1. PROVINCIAE AFRICAE,Sitifis-Saldae,sum-route,Item a Sitifi Saldas m. p. LXXVIIIIS,,,Saldas,Saldae,Saldae,m. p.,LXXVIIIIS, m. p. LXXVIIIIS,,,,https://pleiades.stoa.org/places/305142,36.740851,5.057965000000000,,
158,,,1. PROVINCIAE AFRICAE,Sitifis-Saldae,route,,,,,Sitifis,Sitifis,,,,0.0,0.0,,https://pleiades.stoa.org/places/305153,36.1921446504379,5.404180824072240,,settlement
159,,,1. PROVINCIAE AFRICAE,Sitifis-Saldae,route,,,,Orrea,Horreum,Horrea,m. p.,XVIII,m. p. XVIII,18.0,26.64,,https://pleiades.stoa.org/places/305092,36.333308,5.181813,,settlement
160,,,1. PROVINCIAE AFRICAE,Sitifis-Saldae,route,,,,Lesbi,Lesbi,Lesbi?,m. p.,XVIII,m. p. XVIII,18.0,26.64,,https://pleiades.stoa.org/places/305102,36.457201,5.129934,,settlement
161,,,1. PROVINCIAE AFRICAE,Sitifis-Saldae,route,,,,Tubusuptus,Tupusuctu,Tubusuctu,m. p.,XXV,m. p. XXV,25.0,37.0,,https://pleiades.stoa.org/places/305171,36.667565,4.8462225,,settlement
162,,,1. PROVINCIAE AFRICAE,Sitifis-Saldae,route,,,,Saldis,Saldae,Saldae,m. p.,XVIII,m. p. XVIII,18.0,26.64,,https://pleiades.stoa.org/places/305142,36.740851,5.057965000000000,,settlement
163,,32.4,1. PROVINCIAE AFRICAE,Lambaesis-Sitifis,sum-route,Item a Lambese Sitifi m. p. CIIS:,,,Lambese,Lambaesis,Lambaesis,,,,,,,https://pleiades.stoa.org/places/334570,35.4896642309727,6.254841051015730,,
164,,32.4,1. PROVINCIAE AFRICAE,Lambaesis-Sitifis,sum-route,Item a Lambese Sitifi m. p. CIIS:,,,Sitifi,Sitifis,Sitifis,m. p.,CIIS, m. p. CIIS,,,,https://pleiades.stoa.org/places/305153,36.1921446504379,5.404180824072240,,
165,,,1. PROVINCIAE AFRICAE,Lambaesis-Sitifis,route,,,,,Lambaesis,Lambaesis,,,,0.0,0.0,,https://pleiades.stoa.org/places/334570,35.4896642309727,6.254841051015730,,settlement
166,,,1. PROVINCIAE AFRICAE,Lambaesis-Sitifis,route,,,,Tadutti,Tadutti,Tadutti?,m. p.,XVIII,m. p. XVIII,18.0,26.64,,https://pleiades.stoa.org/places/334627,35.711899,6.374227,,settlement
167,,,1. PROVINCIAE AFRICAE,Lambaesis-Sitifis,route,,,,Nova Sparsa,Sparsa Nova,Nova Sparsa?,m. p.,XXXII,m. p. XXXII,32.0,47.36,,https://pleiades.stoa.org/places/334605,35.890931,6.365829,,settlement
168,,,1. PROVINCIAE AFRICAE,Lambaesis-Sitifis,route,,,,Gemellas,Gemellae,Gemellae,m. p.,XXVIIS,m. p. XXVIIS,27.0,39.96,This is Gemellae 4 in Pauly-Wissowa. No precise location is given.,https://www.wikidata.org/wiki/Q118500602,,,,unknown
169,,,1. PROVINCIAE AFRICAE,Lambaesis-Sitifis,route,,,,Sitifi,Sitifis,Sitifis,m. p.,XXV,m. p. XXV,25.0,37.0,,https://pleiades.stoa.org/places/305153,36.1921446504379,5.404180824072240,,settlement
170,,33.2-3,1. PROVINCIAE AFRICAE,Theveste-Sitifis,sum-route,Item a Theveste per Lambesem Sitifi m. p. CCXII:,,,Theveste,Theveste,Theveste,,,,,,,https://pleiades.stoa.org/places/324831,35.404174,8.1223145,,
171,,33.2-3,1. PROVINCIAE AFRICAE,Theveste-Sitifis,sum-route,Item a Theveste per Lambesem Sitifi m. p. CCXII:,,,Sitifi,Sitifis,Sitifis,m. p.,CCXII, m. p. CCXII,,,,https://pleiades.stoa.org/places/305153,36.1921446504379,5.404180824072240,,
172,,,1. PROVINCIAE AFRICAE,Theveste-Sitifis,route,,,,,Theveste,Theveste,,,,0.0,0.0,,https://pleiades.stoa.org/places/324831,35.404174,8.1223145,,settlement
173,,33.4,1. PROVINCIAE AFRICAE,Theveste-Sitifis,route,,,,Tinfadi,Tinfadi,Tinfadi,m. p.,XXII,m. p. XXII,22.0,32.56,,https://pleiades.stoa.org/places/338292,,,,unlocated
174,,,1. PROVINCIAE AFRICAE,Theveste-Sitifis,route,,,,Vegesela,Vegesela,Vegesela,m. p.,XX,m. p. XX,20.0,29.6,,https://pleiades.stoa.org/places/334661,35.37199,7.485505,,station
175,,,1. PROVINCIAE AFRICAE,Theveste-Sitifis,route,,,,Mascula,Mascula,Mascula Tiberia,m. p.,XVIIII,m. p. XVIIII,19.0,28.12,,https://pleiades.stoa.org/places/334587,35.435644,7.148368,,settlement
176,,,1. PROVINCIAE AFRICAE,Theveste-Sitifis,route,,,,Claudi,Claudi,Claudi,m. p.,XXII,m. p. XXII,22.0,32.56,,https://pleiades.stoa.org/places/334532,35.463468,6.904966,,settlement
177,,,1. PROVINCIAE AFRICAE,Theveste-Sitifis,route,,,,Tamugadi,Tamugadi,Thamugadi,m. p.,XXII,m. p. XXII,22.0,32.56,,https://pleiades.stoa.org/places/334636,35.4852165,6.4682225000000000,,urban
178,,,1. PROVINCIAE AFRICAE,Theveste-Sitifis,route,,,,Lambese,Lambaesis,Lambaesis,m. p.,XIIII,m. p. XIIII,14.0,20.72,,https://pleiades.stoa.org/places/334570,35.4896642309727,6.254841051015730,,settlement
179,,,1. PROVINCIAE AFRICAE,Theveste-Sitifis,route,,,,Diana,Diana Veteranorum,Diana Veteranorum,m. p.,XXXII,m. p. XXXII,32.0,47.36,,https://pleiades.stoa.org/places/334536,35.7798225607954,6.077464317539990,,settlement
180,,,1. PROVINCIAE AFRICAE,Theveste-Sitifis,route,,,,Nova Petra,Nova Petra,Nova Petra?,m. p.,XIIII,m. p. XIIII,14.0,20.72,,https://pleiades.stoa.org/places/334604,35.780944,6.080039,,settlement
181,,,1. PROVINCIAE AFRICAE,Theveste-Sitifis,route,,,,Gemellas,Gemellae,Gemellae,m. p.,XXII,m. p. XXII,22.0,32.56,This is Gemellae 4 in Pauly-Wissowa. No precise location is given.,https://www.wikidata.org/wiki/Q118500602,,,,unknown
182,,,1. PROVINCIAE AFRICAE,Theveste-Sitifis,route,,,,Sitifi,Sitifis,Sitifis,m. p.,XXV,m. p. XXV,25.0,37.0,,https://pleiades.stoa.org/places/305153,36.1921446504379,5.404180824072240,,settlement
183,,34.7,1. PROVINCIAE AFRICAE,Turres Caesaris-Cirta,sum-route,Item a Turres Caesaris Cirta m. p. XL:,,,Turres Caesaris,Turres Caesaris,Turris Caesaris,,,,,,,https://pleiades.stoa.org/places/338295,,,,
184,,34.7,1. PROVINCIAE AFRICAE,Turres Caesaris-Cirta,sum-route,Item a Turres Caesaris Cirta m. p. XL:,,,Cirta,Cirta,Cirta/Constantina,m. p.,XL, m. p. XL,,,,https://pleiades.stoa.org/places/305064,36.3681146666667,6.613302666666670,,
185,,,1. PROVINCIAE AFRICAE,Turres Caesaris-Cirta,route,,,,,Turres Caesaris,Turris Caesaris,,,,0.0,0.0,,https://pleiades.stoa.org/places/338295,,,turris,unlocated
186,,,1. PROVINCIAE AFRICAE,Turres Caesaris-Cirta,route,,,,Sigus,Sigus,Sigus,m. p.,XV,m. p. XV,15.0,22.2,,https://pleiades.stoa.org/places/305150,36.122312,6.78528,,settlement
187,,,1. PROVINCIAE AFRICAE,Turres Caesaris-Cirta,route,,,,Cirta,Cirta,Cirta/Constantina,m. p.,XXV,m. p. XXV,25.0,37.0,,https://pleiades.stoa.org/places/305064,36.3681146666667,6.613302666666670,,settlement
188,,35.2,1. PROVINCIAE AFRICAE,Tamugadi-Lamasba,sum-route,Item a Tamugadi Lamasba m. p. LXII:,,,Tamugadi,Tamugadi,Thamugadi,,,,,,,https://pleiades.stoa.org/places/334636,35.4852165,6.4682225000000000,,
189,,35.2,1. PROVINCIAE AFRICAE,Tamugadi-Lamasba,sum-route,Item a Tamugadi Lamasba m. p. LXII:,,,Lamasba,Lamasba,Lamasba,m. p.,LXII, m. p. LXII,,,,https://pleiades.stoa.org/places/334569,35.6283625,5.9105800000000000,,
190,,,1. PROVINCIAE AFRICAE,Tamugadi-Lamasba,route,,,,,Tamugadi,Thamugadi,,,,0.0,0.0,,https://pleiades.stoa.org/places/334636,35.4852165,6.4682225000000000,,urban
191,,,1. PROVINCIAE AFRICAE,Tamugadi-Lamasba,route,,,,Tadutti,Tadutti,Tadutti?,m. p.,XXVIII,m. p. XXVIII,28.0,41.44,,https://pleiades.stoa.org/places/334627,35.711899,6.374227,,settlement
192,,,1. PROVINCIAE AFRICAE,Tamugadi-Lamasba,route,,,,Diana Veteranorum,Diana Veteranorum,Diana Veteranorum,m. p.,XVI,m. p. XVI,16.0,23.68,,https://pleiades.stoa.org/places/334536,35.7798225607954,6.077464317539990,,settlement
193,,,1. PROVINCIAE AFRICAE,Tamugadi-Lamasba,route,,,,Lamasba,Lamasba,Lamasba,m. p.,XVIII,m. p. XVIII,18.0,26.64,,https://pleiades.stoa.org/places/334569,35.6283625,5.9105800000000000,,settlement
194,,35.6,1. PROVINCIAE AFRICAE,Lamasba-Sitifis,sum-route,Item a Lamasba Sitifi m. p. LXII sic:,,,Lamasba,Lamasba,Lamasba,,,,,,,https://pleiades.stoa.org/places/334569,35.6283625,5.9105800000000000,,
195,,35.6,1. PROVINCIAE AFRICAE,Lamasba-Sitifis,sum-route,Item a Lamasba Sitifi m. p. LXII sic:,,,Sitifi,Sitifis,Sitifis,m. p.,LXII , m. p. LXII ,,,,https://pleiades.stoa.org/places/305153,36.1921446504379,5.404180824072240,,
196,,,1. PROVINCIAE AFRICAE,Lamasba-Sitifis,route,,,,Lamasba,Lamasba,Lamasba,,,,0.0,0.0,,https://pleiades.stoa.org/places/334569,35.6283625,5.9105800000000000,,settlement
197,,,1. PROVINCIAE AFRICAE,Lamasba-Sitifis,route,,,,Zarai,Zarai,Zarai,m. p.,XXV,m. p. XXV,25.0,37.0,,https://pleiades.stoa.org/places/334669,35.802187,5.677421,,settlement
198,,,1. PROVINCIAE AFRICAE,Lamasba-Sitifis,route,,,,Perdicibus,Perdices,Perdices?,m. p.,XII,m. p. XII,12.0,17.76,,https://pleiades.stoa.org/places/334608,35.931999,5.390069,,settlement
199,,,1. PROVINCIAE AFRICAE,Lamasba-Sitifis,route,,,,Sitifi,Sitifis,Sitifis,m. p.,XXV,m. p. XXV,25.0,37.0,,https://pleiades.stoa.org/places/305153,36.1921446504379,5.404180824072240,,settlement
200,,36.3,1. PROVINCIAE AFRICAE,Calama-Rusuccuru,sum-route,Item a Calama Rusuccurru m. p. CCCXCIIII:,,,Calama,Calama,,,,,,,"Presumably Calama 2 in Pauly-Wissowa: https://de.wikisource.org/wiki/RE:Calama_2#III,1",https://www.wikidata.org/wiki/Q34488708,,,,unknown
201,,36.3,1. PROVINCIAE AFRICAE,Calama-Rusuccuru,sum-route,Item a Calama Rusuccurru m. p. CCCXCIIII:,,,Rusuccurru,Rusuccuru,Rusuccuru,m. p.,CCCXCIIII, m. p. CCCXCIIII,,,,https://pleiades.stoa.org/places/295334,36.9128545,3.9096445000000000,,
202,,,1. PROVINCIAE AFRICAE,Calama-Rusuccuru,route,,,,Calama,Calama,,,,,0.0,0.0,"Presumably Calama 2 in Pauly-Wissowa: https://de.wikisource.org/wiki/RE:Calama_2#III,1",https://www.wikidata.org/wiki/Q34488708,,,,unknown
203,,36.4,1. PROVINCIAE AFRICAE,Calama-Rusuccuru,route,,ad,,Ad Rubras,Ad Rubras,Ad Rubras,m. p.,XX,m. p. XX,20.0,29.6,Pleiades URI checked against the References,https://pleiades.stoa.org/places/289923,,,,unlocated
204,,,1. PROVINCIAE AFRICAE,Calama-Rusuccuru,route,,ad,,Ad Albulas,Albulae/Praesidium Sufative,Albulae/Praesidium Sufative,m. p.,XXX,m. p. XXX,30.0,44.4,,https://pleiades.stoa.org/places/285412,35.301602,-1.144788,,settlement
205,,,1. PROVINCIAE AFRICAE,Calama-Rusuccuru,route,,ad,,Ad Dracones,Ad Dracones,Ad Dracones?,m. p.,XIIII,m. p. XIIII,14.0,20.72,,https://pleiades.stoa.org/places/285392,35.3826,-0.957499,,station
206,,,1. PROVINCIAE AFRICAE,Calama-Rusuccuru,route,,ad,,Ad Regias,Regiae,Regiae,m. p.,XXIIII,m. p. XXIIII,24.0,35.52,,https://pleiades.stoa.org/places/285509,35.456691,-0.61879,,settlement
207,,,1. PROVINCIAE AFRICAE,Calama-Rusuccuru,route,,,,Tasaccora,Tasaccora,Tasaccora,m. p.,XXV,m. p. XXV,25.0,37.0,,https://pleiades.stoa.org/places/285529,35.53139345,-0.1914686,,settlement
208,,,1. PROVINCIAE AFRICAE,Calama-Rusuccuru,route,,,,Castra Nova,Nova Castra,Castra Nova,m. p.,XVIII,m. p. XVIII,18.0,26.64,,https://pleiades.stoa.org/places/285424,35.590223,0.069577,castra,settlement
209,,,1. PROVINCIAE AFRICAE,Calama-Rusuccuru,route,,,,Ballene praesidio,Ballene praesidium,Ballene Praesidium,m. p.,XX,m. p. XX,20.0,29.6,,https://pleiades.stoa.org/places/285418,35.721173,0.352432,praesidium,settlement
210,,,1. PROVINCIAE AFRICAE,Calama-Rusuccuru,route,,,,Mina,Mina,Mina,m. p.,XVI,m. p. XVI,16.0,23.68,,https://pleiades.stoa.org/places/285488,35.737087,0.559522,,settlement
211,,,1. PROVINCIAE AFRICAE,Calama-Rusuccuru,route,,,,Gadaum castra,Cadmium castra,Gadaum Castra,m. p.,XXV,m. p. XXV,25.0,37.0,,https://pleiades.stoa.org/places/285444,35.929412,0.824593,castra,settlement
212,,,1. PROVINCIAE AFRICAE,Calama-Rusuccuru,route,,,,Vaga,Vagal,Vagal?,m. p.,XVIII,m. p. XVIII,18.0,26.64,,https://pleiades.stoa.org/places/295369,36.073819,1.094881,,settlement
213,,,1. PROVINCIAE AFRICAE,Calama-Rusuccuru,route,,,,castellum Tingitanum,Castellum Tingitanum,Castellum Tingitanum,m. p.,XVIII,m. p. XVIII,18.0,26.64,,https://pleiades.stoa.org/places/295245,36.166446,1.332622,castellum,settlement
214,,,1. PROVINCIAE AFRICAE,Calama-Rusuccuru,route,,,,Tigaua municipio,Tigava,Tigava Municipium,m. p.,XXII,m. p. XXII,22.0,32.56,,https://pleiades.stoa.org/places/295358,36.2410273688265,1.641844465878570,municipium,settlement
215,,,1. PROVINCIAE AFRICAE,Calama-Rusuccuru,route,,,,Oppido Novo colonia,Oppidum Novum,Oppidum Novum,m. p.,XXXII,m. p. XXXII,32.0,47.36,,https://pleiades.stoa.org/places/295319,36.2618015,1.966017,colonia,settlement
216,,,1. PROVINCIAE AFRICAE,Calama-Rusuccuru,route,,,,Tigaua castra,Tigava castra,Tigava Castra,m. p.,II,m. p. II,2.0,2.96,,https://pleiades.stoa.org/places/295357,36.231943,1.651388,castra,fort
217,,,1. PROVINCIAE AFRICAE,Calama-Rusuccuru,route,,,,Maliana,Malliana,Manliana,m. p.,XVI,m. p. XVI,16.0,23.68,,https://pleiades.stoa.org/places/295304,36.26087,2.220412,,settlement
218,,,1. PROVINCIAE AFRICAE,Calama-Rusuccuru,route,,,,Sufasar,Sufasar,Sufasar,m. p.,XVIIII,m. p. XVIIII,19.0,28.12,,https://pleiades.stoa.org/places/295346,36.19245,2.5132700000000000,,settlement
219,,38.6,1. PROVINCIAE AFRICAE,Calama-Rusuccuru,route,,,,Velisci,Velisci,Velisci,m. p.,XV,m. p. XV,15.0,22.2,,https://pleiades.stoa.org/places/299021,,,,unlocated
220,,,1. PROVINCIAE AFRICAE,Calama-Rusuccuru,route,,,,Tanaramusa castra,Tanaramus castra,Thanaramusa Castra,m. p.,XVI,m. p. XVI,16.0,23.68,,https://pleiades.stoa.org/places/295354,36.135629,2.914292,castra,settlement
221,,38.8,1. PROVINCIAE AFRICAE,Calama-Rusuccuru,route,,,,Tamariceto praesidio,Tamaricetum praesidium,Tamariceto Praesidium,m. p.,XVI,m. p. XVI,16.0,23.68,,https://pleiades.stoa.org/places/299016,,,praesidium,
222,,,1. PROVINCIAE AFRICAE,Calama-Rusuccuru,route,,,,Rapido castra,Rapidum,Rapidum,m. p.,XVI,m. p. XVI,16.0,23.68,,https://pleiades.stoa.org/places/295329,36.1368445,3.4229785,castra,settlement
223,,,1. PROVINCIAE AFRICAE,Calama-Rusuccuru,route,,,,Rusuccurru colonia,Rusuccuru,Rusuccuru,m. p.,XII,m. p. XII,12.0,17.76,,https://pleiades.stoa.org/places/295334,36.9128545,3.9096445000000000,colonia,settlement
224,,39.2,1. PROVINCIAE AFRICAE,Rusuccuru-Saldae,sum-route,Item Rusuccuro Saldis m. p. XCVII:,,,Rusuccuro,Rusuccuru,Rusuccuru,,,,,,,https://pleiades.stoa.org/places/295334,36.9128545,3.9096445000000000,,
225,,39.2,1. PROVINCIAE AFRICAE,Rusuccuru-Saldae,sum-route,Item Rusuccuro Saldis m. p. XCVII:,,,Saldis,Saldae,Saldae,m. p.,XCVII, m. p. XCVII,,,,https://pleiades.stoa.org/places/305142,36.740851,5.057965000000000,,
226,,,1. PROVINCIAE AFRICAE,Rusuccuru-Saldae,route,,,,,Rusuccuru,Rusuccuru,,,,0.0,0.0,,https://pleiades.stoa.org/places/295334,36.9128545,3.9096445000000000,colonia,settlement
227,,,1. PROVINCIAE AFRICAE,Rusuccuru-Saldae,route,,,,Tigisi,Tigisis,Tigisi,m. p.,XII,m. p. XII,12.0,17.76,,https://pleiades.stoa.org/places/295359,36.793307,3.947273,,settlement
228,,,1. PROVINCIAE AFRICAE,Rusuccuru-Saldae,route,,,,Bida municipium,Bida municipium,Bida,m. p.,XXVII,m. p. XXVII,27.0,39.96,,https://pleiades.stoa.org/places/295228,36.6821605,4.285625,municipium,settlement
229,,,1. PROVINCIAE AFRICAE,Rusuccuru-Saldae,route,,,,Tubusuptus,Tupusuctu,Tubusuctu,m. p.,XL,m. p. XL,40.0,59.2,,https://pleiades.stoa.org/places/305171,36.667565,4.8462225,,settlement
230,,,1. PROVINCIAE AFRICAE,Rusuccuru-Saldae,route,,,,Saldis colonia,Saldae,Saldae,m. p.,XVIII,m. p. XVIII,18.0,26.64,,https://pleiades.stoa.org/places/305142,36.740851,5.057965000000000,colonia,settlement
231,,39.7,1. PROVINCIAE AFRICAE,Saldae-Igilgili,sum-route,Item a Saldis Igilgili m. p. CLVIIII:,,,Saldis,Saldae,Saldae,,,,,,,https://pleiades.stoa.org/places/305142,36.740851,5.057965000000000,,
232,,39.7,1. PROVINCIAE AFRICAE,Saldae-Igilgili,sum-route,Item a Saldis Igilgili m. p. CLVIIII:,,,Igilgili,Igilgili,Igilgili,m. p.,CLVIIII, m. p. CLVIIII,,,,https://pleiades.stoa.org/places/305095,36.8212995,5.766168,,
233,,,1. PROVINCIAE AFRICAE,Saldae-Igilgili,route,,,,,Saldae,Saldae,,,,0.0,0.0,,https://pleiades.stoa.org/places/305142,36.740851,5.057965000000000,colonia,settlement
234,,,1. PROVINCIAE AFRICAE,Saldae-Igilgili,route,,ad,,Ad Olivam,Ad Olivam,,m. p.,XXX,m. p. XXX,30.0,44.4,,https://pleiades.stoa.org/places/311069,,,,unlocated
235,,,1. PROVINCIAE AFRICAE,Saldae-Igilgili,route,,ad,,Ad Sava municipium,Ad Sava municipium,Ad Sava Municipium,m. p.,XXV,m. p. XXV,25.0,37.0,,https://pleiades.stoa.org/places/305024,36.325495,5.066483,municipium,settlement
236,,,1. PROVINCIAE AFRICAE,Saldae-Igilgili,route,,,,Sitifi colonia,Sitifis,Sitifis,m. p.,XXIIII,m. p. XXIIII,24.0,35.52,,https://pleiades.stoa.org/places/305153,36.1921446504379,5.404180824072240,colonia,settlement
237,,,1. PROVINCIAE AFRICAE,Saldae-Igilgili,route,,,,Satafi,Satafis,Satafis,m. p.,XVI,m. p. XVI,16.0,23.68,,https://pleiades.stoa.org/places/305147,36.362825,5.502499,,settlement
238,,40.3,1. PROVINCIAE AFRICAE,Saldae-Igilgili,route,,ad,,Ad Basilicam,Ad Basilicam,Ad Basilicam Diadumene?,m. p.,XVI,m. p. XVI,16.0,23.68,,https://pleiades.stoa.org/places/334472,35.416667,6.116665,,unlocated
239,,,1. PROVINCIAE AFRICAE,Saldae-Igilgili,route,,ad,,Ad Ficum,Ad Ficum,Ad Ficum,m. p.,XV,m. p. XV,15.0,22.2,,https://pleiades.stoa.org/places/311067,,,,unlocated
240,,,1. PROVINCIAE AFRICAE,Saldae-Igilgili,route,,,,Igilgili,Igilgili,Igilgili,m. p.,XXXIII,m. p. XXXIII,33.0,48.84,,https://pleiades.stoa.org/places/305095,36.8212995,5.766168,,settlement
241,,42.6,1. PROVINCIAE AFRICAE,Lambaesis-Cirta,sum-route,Item a Lambese Cirta m. p. LXXXIIIS:,,,Lambese,Lambaesis,Lambaesis,,,,,,,https://pleiades.stoa.org/places/334570,35.4896642309727,6.254841051015730,,
242,,42.6,1. PROVINCIAE AFRICAE,Lambaesis-Cirta,sum-route,Item a Lambese Cirta m. p. LXXXIIIS:,,,Cirta,Cirta,Cirta/Constantina,m. p.,LXXXIIIS, m. p. LXXXIIIS,,,,https://pleiades.stoa.org/places/305064,36.3681146666667,6.613302666666670,,
243,,,1. PROVINCIAE AFRICAE,Lambaesis-Cirta,route,,,,,Lambaesis,Lambaesis,,,,0.0,0.0,,https://pleiades.stoa.org/places/334570,35.4896642309727,6.254841051015730,,settlement
244,,,1. PROVINCIAE AFRICAE,Lambaesis-Cirta,route,,,,Tamugadi,Tamugadi,Thamugadi,m. p.,XIIII,m. p. XIIII,14.0,20.72,,https://pleiades.stoa.org/places/334636,35.4852165,6.4682225000000000,,urban
245,,40.8,1. PROVINCIAE AFRICAE,Lambaesis-Cirta,route,,ad,,Ad Rotam,Ad Rotam,Ad Rotam,m. p.,XXX,m. p. XXX,30.0,44.4,,https://pleiades.stoa.org/places/311074,,,,unlocated
246,,,1. PROVINCIAE AFRICAE,Lambaesis-Cirta,route,,ad,,Ad lacum Regium,Ad Lacum Regium,Regius (lake),m. p.,XX,m. p. XX,20.0,29.6,,https://pleiades.stoa.org/places/334612,35.7229208,6.5492272,lacus,lake
247,,,1. PROVINCIAE AFRICAE,Lambaesis-Cirta,route,,,,Cirta colonia,Cirta,Cirta/Constantina,m. p.,XX,m. p. XX,20.0,29.6,,https://pleiades.stoa.org/places/305064,36.3681146666667,6.613302666666670,colonia,settlement
248,,41.3,1. PROVINCIAE AFRICAE,Musti-Cirta,sum-route,Item a Musti Cirta m. p. CXCVIIIIS:,,,Musti,Musti,Musti,,,,,,,https://pleiades.stoa.org/places/315085,36.336066,9.143109,,
249,,41.3,1. PROVINCIAE AFRICAE,Musti-Cirta,sum-route,Item a Musti Cirta m. p. CXCVIIIIS:,,,Cirta,Cirta,Cirta/Constantina,m. p.,CXCVIIIIS, m. p. CXCVIIIIS,,,,https://pleiades.stoa.org/places/305064,36.3681146666667,6.613302666666670,,
250,,,1. PROVINCIAE AFRICAE,Musti-Cirta,route,,,,,Musti,Musti,,,,0.0,0.0,,https://pleiades.stoa.org/places/315085,36.336066,9.143109,,settlement
251,,,1. PROVINCIAE AFRICAE,Musti-Cirta,route,,,,Sicca,Sicca Veneria,Sicca Veneria,m. p.,XXXII,m. p. XXXII,32.0,47.36,,https://pleiades.stoa.org/places/315152,36.18057,8.712204,,settlement
252,,,1. PROVINCIAE AFRICAE,Musti-Cirta,route,,,,Naraggara,Naraggara,Naraggara,m. p.,XXX,m. p. XXX,30.0,44.4,,https://pleiades.stoa.org/places/315091,36.223438,8.356079,,settlement
253,,,1. PROVINCIAE AFRICAE,Musti-Cirta,route,,,,Tagora,Thagura,Thagura,m. p.,XX,m. p. XX,20.0,29.6,,https://pleiades.stoa.org/places/315199,36.174195,8.044696,,settlement
254,,,1. PROVINCIAE AFRICAE,Musti-Cirta,route,,,,Tipasa,Tipasa,Tipasa,m. p.,XXIIII,m. p. XXIIII,24.0,35.52,,https://pleiades.stoa.org/places/305169,36.25,7.75,,unknown
255,,,1. PROVINCIAE AFRICAE,Musti-Cirta,route,,,,Gazaufula,Gadiaufala,Gadiaufala,m. p.,XXXV,m. p. XXXV,35.0,51.8,,https://pleiades.stoa.org/places/305082,36.081671,7.258862000000000,,settlement
256,,,1. PROVINCIAE AFRICAE,Musti-Cirta,route,,,,Sigus,Sigus,Sigus,m. p.,XXXIII,m. p. XXXIII,33.0,48.84,,https://pleiades.stoa.org/places/305150,36.122312,6.78528,,settlement
257,,,1. PROVINCIAE AFRICAE,Musti-Cirta,route,,,,Cirta,Cirta,Cirta/Constantina,m. p.,XXV,m. p. XXV,25.0,37.0,,https://pleiades.stoa.org/places/305064,36.3681146666667,6.613302666666670,,settlement
258,,42.4,1. PROVINCIAE AFRICAE,Cirta-Hippo Regius,sum-route,Item a Cirta Hippone Regio m. p. XCIIII:,,,Cirta,Cirta,Cirta/Constantina,,,,,,,https://pleiades.stoa.org/places/305064,36.3681146666667,6.613302666666670,,
259,,42.4,1. PROVINCIAE AFRICAE,Cirta-Hippo Regius,sum-route,Item a Cirta Hippone Regio m. p. XCIIII:,,,Hippone Regio,Hippo Regius,Hippo Regius,m. p.,XCIIII, m. p. XCIIII,,,,https://pleiades.stoa.org/places/305090,36.882478,7.751272,,
260,,,1. PROVINCIAE AFRICAE,Cirta-Hippo Regius,route,,,,,Cirta,Cirta/Constantina,,,,0.0,0.0,,https://pleiades.stoa.org/places/305064,36.3681146666667,6.613302666666670,,settlement
261,,,1. PROVINCIAE AFRICAE,Cirta-Hippo Regius,route,,,,Aquis Tibilitanis,Aquae Tibilitanae,Aquae Thibilitanae,m. p.,LIIII,m. p. LIIII,54.0,79.92,,https://pleiades.stoa.org/places/305030,36.459865,7.270135,,settlement
262,,,1. PROVINCIAE AFRICAE,Cirta-Hippo Regius,route,,,,Ad villam Servilianam,Ad Villam Serviliana,Ad Villam Serviliana,m. p.,XV,m. p. XV,15.0,22.2,"Coordinates of this place are the same as Hippo Regius, which can’t be right.",https://pleiades.stoa.org/places/311078,,,villa,unlocated
263,,,1. PROVINCIAE AFRICAE,Cirta-Hippo Regius,route,,,,Hippone Regio,Hippo Regius,Hippo Regius,m. p.,XXV,m. p. XXV,25.0,37.0,,https://pleiades.stoa.org/places/305090,36.882478,7.751272,,settlement
264,,42.8-9,1. PROVINCIAE AFRICAE,Hippo Regius-Carthago-2,sum-route,Item ab Hippone Regio Cartagine m. p. CCXVIII:,,,Hippone Regio,Hippo Regius,Hippo Regius,,,,,,,https://pleiades.stoa.org/places/305090,36.882478,7.751272,,
265,,42.8-9,1. PROVINCIAE AFRICAE,Hippo Regius-Carthago-2,sum-route,Item ab Hippone Regio Cartagine m. p. CCXVIII:,,,Cartagine,Carthago,Carthago,m. p.,CCXVIII, m. p. CCXVIII,,,,https://pleiades.stoa.org/places/314921,36.853056,10.323056,,
266,,,1. PROVINCIAE AFRICAE,Hippo Regius-Carthago-2,route,,,,,Hippo Regius,Hippo Regius,,,,0.0,0.0,,https://pleiades.stoa.org/places/305090,36.882478,7.751272,,settlement
267,,,1. PROVINCIAE AFRICAE,Hippo Regius-Carthago-2,route,,,,Onellaba,Onellaba,Onellaba?/Odiana,m. p.,L,m. p. L,50.0,74.0,,https://pleiades.stoa.org/places/315099,36.624498,8.175841,,settlement
268,,,1. PROVINCIAE AFRICAE,Hippo Regius-Carthago-2,route,,ad,,Ad Aquas,Ad Aquas,Ad Aquas,m. p.,XXV,m. p. XXV,25.0,37.0,,https://pleiades.stoa.org/places/314844,36.525792,8.336988,,bath
269,,,1. PROVINCIAE AFRICAE,Hippo Regius-Carthago-2,route,,,,Simittu colonia,Simitthus,Simitthu,m. p.,V,m. p. V,5.0,7.4,,https://pleiades.stoa.org/places/315174,36.490103,8.5753105,colonia,settlement
270,,,1. PROVINCIAE AFRICAE,Hippo Regius-Carthago-2,route,,,,Bulla Regia,Bulla Regia,Bulla Regia,m. p.,VII,m. p. VII,7.0,10.36,,https://pleiades.stoa.org/places/314912,36.5594198445758,8.754327777203400,,settlement
271,,,1. PROVINCIAE AFRICAE,Hippo Regius-Carthago-2,route,,,,Novis Aquilianis,Novae Aquilanae,Novae Aquilianae?,m. p.,XXIIII,m. p. XXIIII,24.0,35.52,,https://pleiades.stoa.org/places/315095,36.640531,9.024258,,settlement
272,,,1. PROVINCIAE AFRICAE,Hippo Regius-Carthago-2,route,,,,Vico Augusti,Vicus Augusti,Vicus Augusti?,m. p.,XVI,m. p. XVI,16.0,23.68,This Vicus Augusti seem to be misplaced. In all other mentions the location is correct. ,https://pleiades.stoa.org/places/315259,36.636684,9.238986,vicus,settlement
273,,,1. PROVINCIAE AFRICAE,Hippo Regius-Carthago-2,route,,,,Cluacaria,Clucar,Cluacar(ia)?,m. p.,XXX,m. p. XXX,30.0,44.4,,https://pleiades.stoa.org/places/314939,36.733324,9.65,,settlement
274,,,1. PROVINCIAE AFRICAE,Hippo Regius-Carthago-2,route,,,,Tuburbo Minus,Tuburbo,Thuburbo Minus,m. p.,XV,m. p. XV,15.0,22.2,,https://pleiades.stoa.org/places/315219,36.829599,9.838642,,settlement
275,,,1. PROVINCIAE AFRICAE,Hippo Regius-Carthago-2,route,,,,Cigisa,Cigisa,Cigisa,m. p.,XXVIII,m. p. XXVIII,28.0,41.44,,https://pleiades.stoa.org/places/314931,36.79961,10.099599,,settlement
276,,,1. PROVINCIAE AFRICAE,Hippo Regius-Carthago-2,route,,,,Cartagine,Carthago,Carthago,m. p.,XVIII,m. p. XVIII,18.0,26.64,,https://pleiades.stoa.org/places/314921,36.853056,10.323056,,settlement
277,,44.4-5,1. PROVINCIAE AFRICAE,Hippo Regius-Carthago-3,sum-route,Item alio itinere ab Hippone Regio Cartagine m. p. CCXXVIII:,,,Hippone Regio,Hippo Regius,Hippo Regius,,,,,,,https://pleiades.stoa.org/places/305090,36.882478,7.751272,,
278,,44.4-5,1. PROVINCIAE AFRICAE,Hippo Regius-Carthago-3,sum-route,Item alio itinere ab Hippone Regio Cartagine m. p. CCXXVIII:,,,Cartagine,Carthago,Carthago,m. p.,CCXXVIII, m. p. CCXXVIII,,,,https://pleiades.stoa.org/places/314921,36.853056,10.323056,,
279,,,1. PROVINCIAE AFRICAE,Hippo Regius-Carthago-3,route,,,,,Hippo Regius,Hippo Regius,,,,0.0,0.0,,https://pleiades.stoa.org/places/305090,36.882478,7.751272,,settlement
280,,,1. PROVINCIAE AFRICAE,Hippo Regius-Carthago-3,route,,,,Tagaste,Thagaste,Thagaste,m. p.,LIII,m. p. LIII,53.0,78.44,,https://pleiades.stoa.org/places/315198,36.238412,8.004957,,settlement
281,,,1. PROVINCIAE AFRICAE,Hippo Regius-Carthago-3,route,,,,Naraggara,Naraggara,Naraggara,m. p.,XXV,m. p. XXV,25.0,37.0,,https://pleiades.stoa.org/places/315091,36.223438,8.356079,,settlement
282,,,1. PROVINCIAE AFRICAE,Hippo Regius-Carthago-3,route,,,,Sicca Veneria,Sicca Veneria,Sicca Veneria,m. p.,XXXII,m. p. XXXII,32.0,47.36,,https://pleiades.stoa.org/places/315152,36.18057,8.712204,,settlement
283,,,1. PROVINCIAE AFRICAE,Hippo Regius-Carthago-3,route,,,,Musti,Musti,Musti,m. p.,XXXIIII,m. p. XXXIIII,34.0,50.32,,https://pleiades.stoa.org/places/315085,36.336066,9.143109,,settlement
284,,,1. PROVINCIAE AFRICAE,Hippo Regius-Carthago-3,route,,,,Membressa,Membrissa,Membressa,m. p.,XXXV,m. p. XXXV,35.0,51.8,,https://pleiades.stoa.org/places/315075,36.648688,9.613446,,settlement
285,,,1. PROVINCIAE AFRICAE,Hippo Regius-Carthago-3,route,,,,Sicilibra,Sicilibra,Sicilibba,m. p.,XVII,m. p. XVII,17.0,25.16,,https://pleiades.stoa.org/places/315153,36.68588,9.873597,,settlement
286,,,1. PROVINCIAE AFRICAE,Hippo Regius-Carthago-3,route,,,,Vnuca,Inuca,Inuca,m. p.,XIII,m. p. XIII,13.0,19.24,,https://pleiades.stoa.org/places/315044,36.728132,10.012412,,settlement
287,,,1. PROVINCIAE AFRICAE,Hippo Regius-Carthago-3,route,,,,Pertusa,Pertusa,Ad Pertusa,m. p.,VII,m. p. VII,7.0,10.36,,https://pleiades.stoa.org/places/314853,36.781395,10.115375,,station
288,,,1. PROVINCIAE AFRICAE,Hippo Regius-Carthago-3,route,,,,Cartagine,Carthago,Carthago,m. p.,XIIII,m. p. XIIII,14.0,20.72,,https://pleiades.stoa.org/places/314921,36.853056,10.323056,,settlement
289,,46.2,1. PROVINCIAE AFRICAE,Thenae-Theveste,sum-route,Item a Thenis Teveste m. p. CLXXV:,,,Thenis,Thenae,Thaenae,,,,,,,https://pleiades.stoa.org/places/324825,34.6553465,10.670659,,
290,,46.2,1. PROVINCIAE AFRICAE,Thenae-Theveste,sum-route,Item a Thenis Teveste m. p. CLXXV:,,,Teveste,Theveste,Theveste,m. p.,CLXXV, m. p. CLXXV,,,,https://pleiades.stoa.org/places/324831,35.404174,8.1223145,,
291,,,1. PROVINCIAE AFRICAE,Thenae-Theveste,route,,,,,Thenae,Thaenae,,,,0.0,0.0,,https://pleiades.stoa.org/places/324825,34.6553465,10.670659,,settlement
292,,,1. PROVINCIAE AFRICAE,Thenae-Theveste,route,,,,Oviscae,Oviscae,Oviscae?,m. p.,XXV,m. p. XXV,25.0,37.0,,https://pleiades.stoa.org/places/324798,34.999973,10.066654,,settlement
293,,46.4,1. PROVINCIAE AFRICAE,Thenae-Theveste,route,,,,Amudarsa,Amudarsa,Amudarsa,m. p.,XXV,m. p. XXV,25.0,37.0,Reference to It. Ant. Missing in Pleiades,https://pleiades.stoa.org/places/329183,,,,unlocated
294,,46.5,1. PROVINCIAE AFRICAE,Thenae-Theveste,route,,,,Autenti,Autenti,Autenti,m. p.,XXV,m. p. XXV,25.0,37.0,Reference to It. Ant. Missing in Pleiades,https://pleiades.stoa.org/places/329189,,,,unlocated
295,,,1. PROVINCIAE AFRICAE,Thenae-Theveste,route,,,,Sufetula,Sufetula,Sufetula,m. p.,XXX,m. p. XXX,30.0,44.4,,https://pleiades.stoa.org/places/324816,35.2410333950941,9.118989063457780,,settlement
296,,,1. PROVINCIAE AFRICAE,Thenae-Theveste,route,,,,Vegesela,Vegesela,Vegesela,m. p.,XXX,m. p. XXX,30.0,44.4,,https://pleiades.stoa.org/places/324849,35.443295,8.699126,,station
297,,,1. PROVINCIAE AFRICAE,Thenae-Theveste,route,,,,Menegesem,Menegese,Menegesem,m. p.,XX,m. p. XX,20.0,29.6,,https://pleiades.stoa.org/places/324781,35.416671,8.474069,,station
298,,,1. PROVINCIAE AFRICAE,Thenae-Theveste,route,,,,Teveste,Theveste,Theveste,m. p.,XX,m. p. XX,20.0,29.6,,https://pleiades.stoa.org/places/324831,35.404174,8.1223145,,settlement
299,,47.3,1. PROVINCIAE AFRICAE,Aquae Regiae-Sufes,sum-route,Item ab Aquis Regis Sufibus m. p. XLIII:,,,Aquis Regis,Aquae Regiae,Aquae Regiae,,,,,,,https://pleiades.stoa.org/places/324667,35.58292,9.718677,,
300,,47.3,1. PROVINCIAE AFRICAE,Aquae Regiae-Sufes,sum-route,Item ab Aquis Regis Sufibus m. p. XLIII:,,,Sufibus,Sufes,Sufes,m. p.,XLIII, m. p. XLIII,,,,https://pleiades.stoa.org/places/324815,35.5433595,9.073196,,
301,,,1. PROVINCIAE AFRICAE,Aquae Regiae-Sufes,route,,,,,Aquae Regiae,Aquae Regiae,,,,0.0,0.0,,https://pleiades.stoa.org/places/324667,35.58292,9.718677,,settlement
302,,,1. PROVINCIAE AFRICAE,Aquae Regiae-Sufes,route,,,,Marazania,Marazanae,Marazanae,m. p.,XV,m. p. XV,15.0,22.2,Maracitana? Coordinates are taken from Örberg after Löhberg’s Index Nominum and originally from Wesseling’s notations. Although they are claimed to be on Pleiades these coordinates are not in Pleiades.,https://pleiades.stoa.org/places/329225,36.02994,9.222872,,unlocated
303,,,1. PROVINCIAE AFRICAE,Aquae Regiae-Sufes,route,,,,Sufibus,Sufes,Sufes,m. p.,XXVIII,m. p. XXVIII,28.0,41.44,,https://pleiades.stoa.org/places/324815,35.5433595,9.073196,,settlement
304,,47.6,1. PROVINCIAE AFRICAE,Assurae-Thenae,sum-route,Item ab Assuras Thenas m. p. CXCII:,,,Assuras,Assurae,Assuras,,,,,,,https://pleiades.stoa.org/places/324669,35.9926205,9.0223555,,
305,,47.6,1. PROVINCIAE AFRICAE,Assurae-Thenae,sum-route,Item ab Assuras Thenas m. p. CXCII:,,,Thenas,Thenai,Thaenae,m. p.,CXCII, m. p. CXCII,,,,https://pleiades.stoa.org/places/324825,34.6553465,10.670659,,
306,,,1. PROVINCIAE AFRICAE,Assurae-Thenae,route,,,,,Assurae,Assuras,,,,0.0,0.0,,https://pleiades.stoa.org/places/324669,35.9926205,9.0223555,,settlement
307,,,1. PROVINCIAE AFRICAE,Assurae-Thenae,route,,,,Tucca Terebentina,Thugga Terebenthina,Thugga Terebenthina,m. p.,XV,m. p. XV,15.0,22.2,,https://pleiades.stoa.org/places/324834,35.829469,9.014215,,settlement
308,,,1. PROVINCIAE AFRICAE,Assurae-Thenae,route,,,,Sufibus,Sufes,Sufes,m. p.,XXV,m. p. XXV,25.0,37.0,,https://pleiades.stoa.org/places/324815,35.5433595,9.073196,,settlement
309,,,1. PROVINCIAE AFRICAE,Assurae-Thenae,route,,,,Sufetula,Sufetula,Sufetula,m. p.,XXV,m. p. XXV,25.0,37.0,,https://pleiades.stoa.org/places/324816,35.2410333950941,9.118989063457780,,settlement
310,,,1. PROVINCIAE AFRICAE,Assurae-Thenae,route,,,,Nara,Nara,Nara?,m. p.,XV,m. p. XV,15.0,22.2,,https://pleiades.stoa.org/places/324792,35.089578,9.328907,,settlement
311,,48.4,1. PROVINCIAE AFRICAE,Assurae-Thenae,route,,,,Madasuma,Madasuma,Madasuma,m. p.,XXV,m. p. XXV,25.0,37.0,,https://pleiades.stoa.org/places/329223,,,,unlocated
312,,48.5,1. PROVINCIAE AFRICAE,Assurae-Thenae,route,,,,Septiminicia,Septiminicia,Septiminicia,m. p.,XXV,m. p. XXV,25.0,37.0,,https://pleiades.stoa.org/places/329239,,,,unlocated
313,,,1. PROVINCIAE AFRICAE,Assurae-Thenae,route,,,,Tabalta,"Tabalati, Tabalati?",Thabalati?,m. p.,XX,m. p. XX,20.0,29.6,This location is very approximate,https://pleiades.stoa.org/places/344494,32.930463,10.453562,,station
314,,,1. PROVINCIAE AFRICAE,Assurae-Thenae,route,,,,Macomadibus,Macomades,Macomades Minores/Iunci,m. p.,XV,m. p. XV,15.0,22.2,,https://pleiades.stoa.org/places/324772,34.525858,10.497324,municipium,settlement
315,,,1. PROVINCIAE AFRICAE,Assurae-Thenae,route,,,,Thenis,Thenae,Thaenae,m. p.,XVII,m. p. XVII,17.0,25.16,,https://pleiades.stoa.org/places/324825,34.6553465,10.670659,,settlement
316,,48.9-10,1. PROVINCIAE AFRICAE,Tuburbo-Tacape,sum-route,Item a Tuburbo per Valos Tacapas m.p. CCCVIII:,,,Tuburbo,Tuburbo,Thuburbo Minus,,,,,,,https://pleiades.stoa.org/places/315219,36.829599,9.838642,,
317,,48.9-10,1. PROVINCIAE AFRICAE,Tuburbo-Tacape,sum-route,Item a Tuburbo per Valos Tacapas m.p. CCCVIII:,,,Tacapas,Tacape,Tacape,m. p.,CCCVIII, m.p. CCCVIII,,,,https://pleiades.stoa.org/places/344496,33.88643,10.109445,,
318,,,1. PROVINCIAE AFRICAE,Tuburbo-Tacape,route,,,,,Tuburbo,Thuburbo Minus,,,,0.0,0.0,,https://pleiades.stoa.org/places/315219,36.829599,9.838642,,settlement
319,,,1. PROVINCIAE AFRICAE,Tuburbo-Tacape,route,,,,Vallis,Vallis,Vallis,m. p.,XVIII,m. p. XVIII,18.0,26.64,,https://pleiades.stoa.org/places/315254,36.6248409,9.7466495,,settlement
320,,,1. PROVINCIAE AFRICAE,Tuburbo-Tacape,route,,,,Coreva,Choreva,Coreva,m. p.,XX,m. p. XX,20.0,29.6,,https://pleiades.stoa.org/places/314940,36.508717,9.4691485,,settlement
321,,,1. PROVINCIAE AFRICAE,Tuburbo-Tacape,route,,,,Musti,Musti,Musti,m. p.,XXVI,m. p. XXVI,26.0,38.48,,https://pleiades.stoa.org/places/315085,36.336066,9.143109,,settlement
322,,,1. PROVINCIAE AFRICAE,Tuburbo-Tacape,route,,,,Assuras,Assuras,Assuras,m. p.,XXX,m. p. XXX,30.0,44.4,,https://pleiades.stoa.org/places/324669,35.9926205,9.0223555,,settlement
323,,,1. PROVINCIAE AFRICAE,Tuburbo-Tacape,route,,,,Tucca Terebentina,Thugga Terebenthina,Thugga Terebenthina,m. p.,XII,m. p. XII,12.0,17.76,,https://pleiades.stoa.org/places/324834,35.829469,9.014215,,settlement
324,,,1. PROVINCIAE AFRICAE,Tuburbo-Tacape,route,,,,Sufibus,Sufes,Sufes,m. p.,XXV,m. p. XXV,25.0,37.0,,https://pleiades.stoa.org/places/324815,35.5433595,9.073196,,settlement
325,,,1. PROVINCIAE AFRICAE,Tuburbo-Tacape,route,,,,Sufetula,Sufetula,Sufetula,m. p.,XXV,m. p. XXV,25.0,37.0,,https://pleiades.stoa.org/places/324816,35.2410333950941,9.118989063457780,,settlement
326,,,1. PROVINCIAE AFRICAE,Tuburbo-Tacape,route,,,,Nara,Nara,Nara?,m. p.,XV,m. p. XV,15.0,22.2,,https://pleiades.stoa.org/places/324792,35.089578,9.328907,,settlement
327,,49.9,1. PROVINCIAE AFRICAE,Tuburbo-Tacape,route,,,,Madassuma,Madassuma,Madasuma,m. p.,XXXII,m. p. XXXII,32.0,47.36,,https://pleiades.stoa.org/places/329223,,,,unlocated
328,,50.1,1. PROVINCIAE AFRICAE,Tuburbo-Tacape,route,,,,Septiminicia,Septiminicia,Septiminicia,m. p.,XXV,m. p. XXV,25.0,37.0,,https://pleiades.stoa.org/places/329239,,,,unlocated
329,,,1. PROVINCIAE AFRICAE,Tuburbo-Tacape,route,,,,Tabalta,"Tabalati, Tabalati?",Thabalati?,m. p.,XX,m. p. XX,20.0,29.6,,https://pleiades.stoa.org/places/344494,32.930463,10.453562,,station
330,,,1. PROVINCIAE AFRICAE,Tuburbo-Tacape,route,,,,Cellis Picentinis,Cellae Picentinae,Cellae Picentinae vicus?,m. p.,XXX,m. p. XXX,30.0,44.4,,https://pleiades.stoa.org/places/324688,34.252313,10.066097,,settlement
331,,,1. PROVINCIAE AFRICAE,Tuburbo-Tacape,route,,,,Tacapis,Tacape,Tacape,m. p.,XXX,m. p. XXX,30.0,44.4,,https://pleiades.stoa.org/places/344496,33.88643,10.109445,,settlement
332,,50.5-6,1. PROVINCIAE AFRICAE,Carthago-Sufetula-1,sum-route,Item a Cartagine in Bizancio Sufetula usque m. p. CLXXII:,,,Cartagine,Carthago,Carthago,,,,,,,https://pleiades.stoa.org/places/314921,36.853056,10.323056,,
333,,50.5-6,1. PROVINCIAE AFRICAE,Carthago-Sufetula-1,sum-route,Item a Cartagine in Bizancio Sufetula usque m. p. CLXXII:,,,Sufetula,Sufetula,Sufetula,m. p.,CLXXII, m. p. CLXXII,,,,https://pleiades.stoa.org/places/324816,35.2410333950941,9.118989063457780,,
334,,,1. PROVINCIAE AFRICAE,Carthago-Sufetula-1,route,,,,,Carthago,Carthago,,,,0.0,0.0,,https://pleiades.stoa.org/places/314921,36.853056,10.323056,,settlement
335,,,1. PROVINCIAE AFRICAE,Carthago-Sufetula-1,route,,,,Vnuca,Inuca,Inuca,m. p.,XXII,m. p. XXII,22.0,32.56,,https://pleiades.stoa.org/places/315044,36.728132,10.012412,,settlement
336,,,1. PROVINCIAE AFRICAE,Carthago-Sufetula-1,route,,,,Vallis,Vallis,Vallis,m. p.,XXII,m. p. XXII,22.0,32.56,,https://pleiades.stoa.org/places/315254,36.6248409,9.7466495,,settlement
337,,,1. PROVINCIAE AFRICAE,Carthago-Sufetula-1,route,,,,Coreva,Choreva,Coreva,m. p.,XX,m. p. XX,20.0,29.6,,https://pleiades.stoa.org/places/314940,36.508717,9.4691485,,settlement
338,,,1. PROVINCIAE AFRICAE,Carthago-Sufetula-1,route,,,,Musti,Musti,Musti,m. p.,XXVI,m. p. XXVI,26.0,38.48,,https://pleiades.stoa.org/places/315085,36.336066,9.143109,,settlement
339,,,1. PROVINCIAE AFRICAE,Carthago-Sufetula-1,route,,,,Assuras,Assuras,Assuras,m. p.,XX,m. p. XX,20.0,29.6,,https://pleiades.stoa.org/places/324669,35.9926205,9.0223555,,settlement
340,,,1. PROVINCIAE AFRICAE,Carthago-Sufetula-1,route,,,,Tucca Terebentina,Thugga Terebenthina,Thugga Terebenthina,m. p.,XII,m. p. XII,12.0,17.76,,https://pleiades.stoa.org/places/324834,35.829469,9.014215,,settlement
341,,,1. PROVINCIAE AFRICAE,Carthago-Sufetula-1,route,,,,Sufibus,Sufes,Sufes,m. p.,XXV,m. p. XXV,25.0,37.0,,https://pleiades.stoa.org/places/324815,35.5433595,9.073196,,settlement
342,,,1. PROVINCIAE AFRICAE,Carthago-Sufetula-1,route,,,,Sufetula,Sufetula,Sufetula,m. p.,XXV,m. p. XXV,25.0,37.0,,https://pleiades.stoa.org/places/324816,35.2410333950941,9.118989063457780,,settlement
343,,52.1-2,1. PROVINCIAE AFRICAE,Carthago-Sufetula-2,sum-route,Item a Cartagine per Adrumetum Sufetula usque m. p. CCX:,,,Cartagine,Carthago,Carthago,,,,,,,https://pleiades.stoa.org/places/314921,36.853056,10.323056,,
344,,52.1-2,1. PROVINCIAE AFRICAE,Carthago-Sufetula-2,sum-route,Item a Cartagine per Adrumetum Sufetula usque m. p. CCX:,,,Sufetula,Sufetula,Sufetula,m. p.,CCX, m. p. CCX,,,,https://pleiades.stoa.org/places/324816,35.2410333950941,9.118989063457780,,
345,,,1. PROVINCIAE AFRICAE,Carthago-Sufetula-2,route,,,,,Carthago,Carthago,,,,0.0,0.0,,https://pleiades.stoa.org/places/314921,36.853056,10.323056,,settlement
346,,,1. PROVINCIAE AFRICAE,Carthago-Sufetula-2,route,,,,Vina,Vina,Vina,m. p.,XXXIII,m. p. XXXIII,33.0,48.84,,https://pleiades.stoa.org/places/315264,36.510508,10.550673,,settlement
347,,,1. PROVINCIAE AFRICAE,Carthago-Sufetula-2,route,,,,Pupput,Pupput,Pupput,m. p.,X,m. p. X,10.0,14.8,,https://pleiades.stoa.org/places/315121,36.392998,10.562216,,settlement
348,,,1. PROVINCIAE AFRICAE,Carthago-Sufetula-2,route,,,,Horrea Caelia,Horrea Caelia,Horrea Caelia,m. p.,XXXIII,m. p. XXXIII,33.0,48.84,,https://pleiades.stoa.org/places/315041,36.030099,10.507908,horrea?,settlement
349,,,1. PROVINCIAE AFRICAE,Carthago-Sufetula-2,route,,,,Adrumeto,Hadrumetum,Hadrumetum/Iustinianopolis,m. p.,X,m. p. X,10.0,14.8,,https://pleiades.stoa.org/places/324716,35.825866,10.63878,,settlement
350,,,1. PROVINCIAE AFRICAE,Carthago-Sufetula-2,route,,,,Vico Augusti,Vicus Augusti,Vicus Augusti?,m. p.,XXV,m. p. XXV,25.0,37.0,,https://pleiades.stoa.org/places/324850,35.676112,10.308148,vicus,settlement
351,,,1. PROVINCIAE AFRICAE,Carthago-Sufetula-2,route,,,,Aquis Regis,Aquae Regiae,Aquae Regiae,m. p.,XXV,m. p. XXV,25.0,37.0,,https://pleiades.stoa.org/places/324667,35.58292,9.718677,,settlement
352,,,1. PROVINCIAE AFRICAE,Carthago-Sufetula-2,route,,,,Masclianis,Masclianae,Masclianae,m. p.,XVIII,m. p. XVIII,18.0,26.64,,https://pleiades.stoa.org/places/324777,35.396463,9.544378,,settlement
353,,,1. PROVINCIAE AFRICAE,Carthago-Sufetula-2,route,,,,Sufetula,Sufetula,Sufetula,m. p.,XXXVI,m. p. XXXVI,36.0,53.28,,https://pleiades.stoa.org/places/324816,35.2410333950941,9.118989063457780,,settlement
354,,53.5,1. PROVINCIAE AFRICAE,Thusdrus-Theveste,sum-route,Item a Thusdro Teveste m. p. CXCV:,,,Thusdro,Thusdrus,Thysdrus,,,,,,,https://pleiades.stoa.org/places/324835,35.2960575,10.707584,,
355,,53.5,1. PROVINCIAE AFRICAE,Thusdrus-Theveste,sum-route,Item a Thusdro Teveste m. p. CXCV:,,,Teveste,Theveste,Theveste,m. p.,CXCV, m. p. CXCV,,,,https://pleiades.stoa.org/places/324831,35.404174,8.1223145,,
356,,,1. PROVINCIAE AFRICAE,Thusdrus-Theveste,route,,,,,Thusdrus,Thysdrus,,,,0.0,0.0,,https://pleiades.stoa.org/places/324835,35.2960575,10.707584,,settlement
357,,,1. PROVINCIAE AFRICAE,Thusdrus-Theveste,route,,,,Vico Augusti,Vicus Augusti,Vicus Augusti?,m. p.,XXXI,m. p. XXXI,31.0,45.88,,https://pleiades.stoa.org/places/324850,35.676112,10.308148,vicus,settlement
358,,,1. PROVINCIAE AFRICAE,Thusdrus-Theveste,route,,,,Aquis Regis,Aquae Regiae,Aquae Regiae,m. p.,XXXV,m. p. XXXV,35.0,51.8,,https://pleiades.stoa.org/places/324667,35.58292,9.718677,,settlement
359,,,1. PROVINCIAE AFRICAE,Thusdrus-Theveste,route,,,,Masclianis,Masclianae,Masclianae,m. p.,XVIII,m. p. XVIII,18.0,26.64,,https://pleiades.stoa.org/places/324777,35.396463,9.544378,,settlement
360,,,1. PROVINCIAE AFRICAE,Thusdrus-Theveste,route,,,,Sufetula,Sufetula,Sufetula,m. p.,XXXVI,m. p. XXXVI,36.0,53.28,,https://pleiades.stoa.org/places/324816,35.2410333950941,9.118989063457780,,settlement
361,,,1. PROVINCIAE AFRICAE,Thusdrus-Theveste,route,,,,Cilio,Cillium,Cillium,m. p.,XXV,m. p. XXV,25.0,37.0,,https://pleiades.stoa.org/places/324694,35.16765875,8.7977637,,settlement
362,,,1. PROVINCIAE AFRICAE,Thusdrus-Theveste,route,,,,Menegere,Menegere,Meneg(g)ere?,m. p.,XXV,m. p. XXV,25.0,37.0,,https://pleiades.stoa.org/places/324780,35.368472,8.470741,,station
363,,,1. PROVINCIAE AFRICAE,Thusdrus-Theveste,route,,,,Teveste,Theveste,Theveste,m. p.,XXV,m. p. XXV,25.0,37.0,,https://pleiades.stoa.org/places/324831,35.404174,8.1223145,,settlement
364,,54.8,1. PROVINCIAE AFRICAE,Theveste-Tusdrus,sum-route,Item alio itinere a Theveste Thusdro m. p. CLXXXV:,,,Theveste,Theveste,Theveste,,,,,,,https://pleiades.stoa.org/places/324831,35.404174,8.1223145,,
365,,54.8,1. PROVINCIAE AFRICAE,Theveste-Tusdrus,sum-route,Item alio itinere a Theveste Thusdro m. p. CLXXXV:,,,Thusdro,Thusdrus,Thysdrus,m. p.,CLXXXV, m. p. CLXXXV,,,,https://pleiades.stoa.org/places/324835,35.2960575,10.707584,,
366,,,1. PROVINCIAE AFRICAE,Theveste-Tusdrus,route,,,,,Theveste,Theveste,m. p.,XXV,m. p. XXV,25.0,37.0,,https://pleiades.stoa.org/places/324831,35.404174,8.1223145,,settlement
367,,,1. PROVINCIAE AFRICAE,Theveste-Tusdrus,route,,,,Meneggere,Menegere,Meneg(g)ere?,m. p.,XXV,m. p. XXV,25.0,37.0,,https://pleiades.stoa.org/places/324780,35.368472,8.470741,,station
368,,,1. PROVINCIAE AFRICAE,Theveste-Tusdrus,route,,,,Cilio,Cillium,Cillium,m. p.,XXV,m. p. XXV,25.0,37.0,,https://pleiades.stoa.org/places/324694,35.16765875,8.7977637,,settlement
369,,,1. PROVINCIAE AFRICAE,Theveste-Tusdrus,route,,,,Sufetula,Sufetula,Sufetula,m. p.,XXV,m. p. XXV,25.0,37.0,,https://pleiades.stoa.org/places/324816,35.2410333950941,9.118989063457780,,settlement
370,,,1. PROVINCIAE AFRICAE,Theveste-Tusdrus,route,,,,Masclianis,Masclianae,Masclianae,m. p.,XXXVI,m. p. XXXVI,36.0,53.28,,https://pleiades.stoa.org/places/324777,35.396463,9.544378,,settlement
371,,,1. PROVINCIAE AFRICAE,Theveste-Tusdrus,route,,,,Aquis Regis,Aquae Regiae,Aquae Regiae,m. p.,XVIII,m. p. XVIII,18.0,26.64,,https://pleiades.stoa.org/places/324667,35.58292,9.718677,,settlement
372,,55.3,1. PROVINCIAE AFRICAE,Theveste-Tusdrus,route,,,,Germaniciana,Germaniciana,Germaniciana,m. p.,XXII,m. p. XXII,22.0,32.56,Alternative URi: https://pleiades.stoa.org/places/311128,https://pleiades.stoa.org/places/329213,,,,unlocated
373,,,1. PROVINCIAE AFRICAE,Theveste-Tusdrus,route,,,,Aeliae,Aelia,Aeliae?,m. p.,XVI,m. p. XVI,16.0,23.68,,https://pleiades.stoa.org/places/324657,35.4232,10.437678,,settlement
374,,,1. PROVINCIAE AFRICAE,Theveste-Tusdrus,route,,,,Tusdro,Thusdrus,Thysdrus,m. p.,XVIII,m. p. XVIII,18.0,26.64,,https://pleiades.stoa.org/places/324835,35.2960575,10.707584,,settlement
375,,55.6,1. PROVINCIAE AFRICAE,Sufes-Hadrumetum,sum-route,Item a Sufibus Adrumetu m. p. CVIII:,,,Sufibus,Sufes,Sufes,,,,,,,https://pleiades.stoa.org/places/324815,35.5433595,9.073196,,
376,,55.6,1. PROVINCIAE AFRICAE,Sufes-Hadrumetum,sum-route,Item a Sufibus Adrumetu m. p. CVIII:,,,Adrumetu,Hadrumetum,Hadrumetum/Iustinianopolis,m. p.,CVIII, m. p. CVIII,,,,https://pleiades.stoa.org/places/324716,35.825866,10.63878,,
377,,,1. PROVINCIAE AFRICAE,Sufes-Hadrumetum,route,,,,,Sufes,Sufes,,,,0.0,0.0,,https://pleiades.stoa.org/places/324815,35.5433595,9.073196,,settlement
378,,,1. PROVINCIAE AFRICAE,Sufes-Hadrumetum,route,,,,Marazanis,Marazanae,Marazanae,m. p.,XXVIII,m. p. XXVIII,28.0,41.44,Maracitana? Coordinates are taken from Örberg after Löhberg’s Index Nominum and originally from Wesseling’s notations. Although they are claimed to be on Pleiades these coordinates are not in Pleiades.,https://pleiades.stoa.org/places/329225,36.02994,9.222872,,unlocated
379,,,1. PROVINCIAE AFRICAE,Sufes-Hadrumetum,route,,,,Aquis Regis,Aquae Regiae,Aquae Regiae,m. p.,XX,m. p. XX,20.0,29.6,,https://pleiades.stoa.org/places/324667,35.58292,9.718677,,settlement
380,,,1. PROVINCIAE AFRICAE,Sufes-Hadrumetum,route,,,,Vico Augusti,Vicus Augusti,Vicus Augusti?,m. p.,XXXV,m. p. XXXV,35.0,51.8,,https://pleiades.stoa.org/places/324850,35.676112,10.308148,vicus,settlement
381,,,1. PROVINCIAE AFRICAE,Sufes-Hadrumetum,route,,,,Adrumeto,Hadrumetum,Hadrumetum/Iustinianopolis,m. p.,XXV,m. p. XXV,25.0,37.0,,https://pleiades.stoa.org/places/324716,35.825866,10.63878,,settlement
382,,55.11,1. PROVINCIAE AFRICAE,Sufetula-Clipea,sum-route,Item a Sufetula Clipea m. p. CCXVI:,,,Sufetula,Sufetula,Sufetula,,,,,,,https://pleiades.stoa.org/places/324816,35.2410333950941,9.118989063457780,,
383,,55.11,1. PROVINCIAE AFRICAE,Sufetula-Clipea,sum-route,Item a Sufetula Clipea m. p. CCXVI:,,,Clipea,Aspis/Clipea,Aspis/Clipea,m. p.,CCXVI, m. p. CCXVI,,,,https://pleiades.stoa.org/places/314892,36.838512,11.115794,,
384,,,1. PROVINCIAE AFRICAE,Sufetula-Clipea,route,,,,,Sufetula,Sufetula,,,,0.0,0.0,,https://pleiades.stoa.org/places/324816,35.2410333950941,9.118989063457780,,settlement
385,,,1. PROVINCIAE AFRICAE,Sufetula-Clipea,route,,,,Masclianis,Masclianae,Masclianae,m. p.,XXXVI,m. p. XXXVI,36.0,53.28,,https://pleiades.stoa.org/places/324777,35.396463,9.544378,,settlement
386,,,1. PROVINCIAE AFRICAE,Sufetula-Clipea,route,,,,Aquis Regis,Aquae Regiae,Aquae Regiae,m. p.,XVII,m. p. XVII,17.0,25.16,,https://pleiades.stoa.org/places/324667,35.58292,9.718677,,settlement
387,,,1. PROVINCIAE AFRICAE,Sufetula-Clipea,route,,,,Vico Augusti,Vicus Augusti,Vicus Augusti?,m. p.,XXXII,m. p. XXXII,32.0,47.36,,https://pleiades.stoa.org/places/324850,35.676112,10.308148,vicus,settlement
388,,,1. PROVINCIAE AFRICAE,Sufetula-Clipea,route,,,,Adrumetu,Hadrumetum,Hadrumetum/Iustinianopolis,m. p.,XXV,m. p. XXV,25.0,37.0,,https://pleiades.stoa.org/places/324716,35.825866,10.63878,,settlement
389,,,1. PROVINCIAE AFRICAE,Sufetula-Clipea,route,,,,Horrea,Horrea Caelia,Horrea Caelia,m. p.,XVIII,m. p. XVIII,18.0,26.64,,https://pleiades.stoa.org/places/315041,36.030099,10.507908,,settlement
390,,,1. PROVINCIAE AFRICAE,Sufetula-Clipea,route,,,,Pupput,Pupput,Pupput,m. p.,XXX,m. p. XXX,30.0,44.4,,https://pleiades.stoa.org/places/315121,36.392998,10.562216,,settlement
391,,,1. PROVINCIAE AFRICAE,Sufetula-Clipea,route,,,,Curubi,Curubis,Curubis,m. p.,XXVI,m. p. XXVI,26.0,38.48,,https://pleiades.stoa.org/places/314943,36.575649,10.862461,,settlement
392,,56.8,1. PROVINCIAE AFRICAE,Sufetula-Clipea,route,vel Neapoli,,,Neapoli,Neapolis,Neapolis,m. p.,XII,m. p. XII,12.0,17.76,"This is an alternative route starting from Pupput, not from Curubis",https://pleiades.stoa.org/places/315093,36.4403375418,10.7183542495,,settlement
393,,,1. PROVINCIAE AFRICAE,Sufetula-Clipea,route,,,,Clipeis,Clipea,Aspis/Clipea,m. p.,XX,m. p. XX,20.0,29.6,,https://pleiades.stoa.org/places/314892,36.838512,11.115794,,settlement
394,,57.2,1. PROVINCIAE AFRICAE,Carthago-Clipea,sum-route,Item a Cartagine Clipeis m. p. LXXXV:,,,Cartagine,Carthago,Carthago,,,,,,,https://pleiades.stoa.org/places/314921,36.853056,10.323056,,
395,,57.2,1. PROVINCIAE AFRICAE,Carthago-Clipea,sum-route,Item a Cartagine Clipeis m. p. LXXXV:,,,Clipeis,Clipea,Aspis/Clipea,m. p.,LXXXV, m. p. LXXXV,,,,https://pleiades.stoa.org/places/314892,36.838512,11.115794,,
396,,,1. PROVINCIAE AFRICAE,Carthago-Clipea,route,,,,,Carthago,Carthago,,,,0.0,0.0,,https://pleiades.stoa.org/places/314921,36.853056,10.323056,,settlement
397,,,1. PROVINCIAE AFRICAE,Carthago-Clipea,route,,,,Maxula Prates,Maxula Prates,Maxula,m. p.,X,m. p. X,10.0,14.8,,https://pleiades.stoa.org/places/315072,36.768841,10.271569,,settlement
398,,,1. PROVINCIAE AFRICAE,Carthago-Clipea,route,,,,Casula,Casula,Culusa,m. p.,XX,m. p. XX,20.0,29.6,Uncertain,https://pleiades.stoa.org/places/314942,36.68135,10.584929,,settlement
399,,,1. PROVINCIAE AFRICAE,Carthago-Clipea,route,,,,Curubi,Curubis,Curubis,m. p.,XXV,m. p. XXV,25.0,37.0,,https://pleiades.stoa.org/places/314943,36.575649,10.862461,,settlement
400,,,1. PROVINCIAE AFRICAE,Carthago-Clipea,route,,,,Clipeis,Clipea,Aspis/Clipea,m. p.,XXX,m. p. XXX,30.0,44.4,,https://pleiades.stoa.org/places/314892,36.838512,11.115794,,settlement
401,,57.7,1. PROVINCIAE AFRICAE,Carthago-Thenae,sum-route,Item a Cartagine Thenis m. p. CCXVII,,,Cartagine,Carthago,Carthago,,,,,,,https://pleiades.stoa.org/places/314921,36.853056,10.323056,,
402,,57.7,1. PROVINCIAE AFRICAE,Carthago-Thenae,sum-route,Item a Cartagine Thenis m. p. CCXVII,,,Thenis,Thenae,Thaenae,m. p.,CCXVII, m. p. CCXVII,,,,https://pleiades.stoa.org/places/324825,34.6553465,10.670659,,
403,,57.8,1. PROVINCIAE AFRICAE,Thenae-Leptis Magna,sum-route,,,,,Thenae,Thaenae,,,,,,,https://pleiades.stoa.org/places/324825,34.6553465,10.670659,,
404,,57.8,1. PROVINCIAE AFRICAE,Thenae-Leptis Magna,sum-route,inde Lepti Magna m. p. CCCCXXII,,,Lepti Magna,Leptis Magna,Neapolis/Lepcis Magna,m. p.,CCCCXXII, m. p. CCCCXXII,,,,https://pleiades.stoa.org/places/344448,32.6379575,14.291378,,
405,,57.9,1. PROVINCIAE AFRICAE,Leptis Magna-Alexandria,sum-route,,,,,Leptis Magna,Neapolis/Lepcis Magna,,,,,,,https://pleiades.stoa.org/places/344448,32.6379575,14.291378,,
406,,57.9,1. PROVINCIAE AFRICAE,Leptis Magna-Alexandria,sum-route,in Alexandria m. p. DCCCCII:,,,Alexandria,Alexandria,Alexandria,m. p.,DCCCCII, m. p. DCCCCII,,,,https://pleiades.stoa.org/places/727070,31.201435,29.909773,,
407,,,1. PROVINCIAE AFRICAE,Carthago-Thenae,route,A Cartagine Maxula civitate m. p. XVIII,,,Cartagine,Carthago,Carthago,,,,0.0,0.0,sub-itinerary supplied,https://pleiades.stoa.org/places/314921,36.853056,10.323056,,settlement
408,,,1. PROVINCIAE AFRICAE,Carthago-Thenae,route,,,,Maxula civitate,Maxula Prates,Maxula,m. p.,XVIII,m. p. XVIII,18.0,26.64,,https://pleiades.stoa.org/places/315072,36.768841,10.271569,civitas,settlement
409,,,1. PROVINCIAE AFRICAE,Carthago-Thenae,route,,,,Vina civitate,Vina,Vina,m. p.,XXVIII,m. p. XXVIII,28.0,41.44,,https://pleiades.stoa.org/places/315264,36.510508,10.550673,civitas,settlement
410,,,1. PROVINCIAE AFRICAE,Carthago-Thenae,route,,,,Pupput vicus,Pupput,Pupput,m. p.,XII,m. p. XII,12.0,17.76,,https://pleiades.stoa.org/places/315121,36.392998,10.562216,vicus,settlement
411,,,1. PROVINCIAE AFRICAE,Carthago-Thenae,route,,,,Horrea Caelia vicus,Horrea Caelia,Horrea Caelia,m. p.,XXX,m. p. XXX,30.0,44.4,,https://pleiades.stoa.org/places/315041,36.030099,10.507908,vicus,settlement
412,,,1. PROVINCIAE AFRICAE,Carthago-Thenae,route,,,,Adrumetum colonia,Hadrumetum,Hadrumetum/Iustinianopolis,m. p.,XVIII,m. p. XVIII,18.0,26.64,,https://pleiades.stoa.org/places/324716,35.825866,10.63878,colonia,settlement
413,,,1. PROVINCIAE AFRICAE,Carthago-Thenae,route,,,,Lepti Minus civitas,Leptis Minus,Lepti Minus,m. p.,XVIII,m. p. XVIII,18.0,26.64,,https://pleiades.stoa.org/places/324767,35.678102,10.866332,civitas,settlement
414,,,1. PROVINCIAE AFRICAE,Carthago-Thenae,route,,,,Thusdro colonia,Thusdrus,Thysdrus,m. p.,XXXIII,m. p. XXXIII,33.0,48.84,,https://pleiades.stoa.org/places/324835,35.2960575,10.707584,colonia,settlement
415,,,1. PROVINCIAE AFRICAE,Carthago-Thenae,route,,,,Vsula civitas,Usula,Usil(l)a/Usula,m. p.,XXXII,m. p. XXXII,32.0,47.36,,https://pleiades.stoa.org/places/324841,34.956536,10.923014,civitas,settlement
416,,,1. PROVINCIAE AFRICAE,Carthago-Thenae,route,,,,Thenis colonia,Thenae,Thaenae,m. p.,XXVIII,m. p. XXVIII,28.0,41.44,,https://pleiades.stoa.org/places/324825,34.6553465,10.670659,colonia,settlement
417,,,1. PROVINCIAE AFRICAE,Thenae-Leptis Magna,route,,,,,Thenae,Thaenae,,,,0.0,0.0,sub-itinerary supplied,https://pleiades.stoa.org/places/324825,34.6553465,10.670659,colonia,settlement
418,,,1. PROVINCIAE AFRICAE,Thenae-Leptis Magna,route,,,,Macomadibus municipium,Macomades,Macomades Minores/Iunci,m. p.,XXVIII,m. p. XXVIII,28.0,41.44,,https://pleiades.stoa.org/places/324772,34.525858,10.497324,municipium,settlement
419,,,1. PROVINCIAE AFRICAE,Thenae-Leptis Magna,route,,,,Cellas vicus,Cellae Picentinae,Cellae Picentinae vicus?,m. p.,XXVI,m. p. XXVI,26.0,38.48,,https://pleiades.stoa.org/places/324688,34.252313,10.066097,vicus,settlement
420,,,1. PROVINCIAE AFRICAE,Thenae-Leptis Magna,route,,,,Tacapas colonia,Tacape,Tacape,m. p.,XXX,m. p. XXX,30.0,44.4,,https://pleiades.stoa.org/places/344496,33.88643,10.109445,colonia,settlement
421,,,1. PROVINCIAE AFRICAE,Thenae-Leptis Magna,route,,,,Agma sive Fulgurita villa,Agma,Agma,m. p.,XXV,m. p. XXV,25.0,37.0,,https://pleiades.stoa.org/places/344290,33.658705,10.344649,villa,station
422,,,1. PROVINCIAE AFRICAE,Thenae-Leptis Magna,route,,,,Giti municipium,Gightis,Gigthis,m. p.,XXV,m. p. XXV,25.0,37.0,,https://pleiades.stoa.org/places/344380,33.5324530195371,10.677495199208200,municipium,settlement
423,,,1. PROVINCIAE AFRICAE,Thenae-Leptis Magna,route,,,,Ponte Zita municipium,Pons Zita,Ponte Zitha,m. p.,XXXV,m. p. XXXV,35.0,51.8,,https://pleiades.stoa.org/places/344286,33.6265042145836,10.94864170365320,municipium,station
424,,,1. PROVINCIAE AFRICAE,Thenae-Leptis Magna,route,,,,"Villa Magna, villa Privata",Villa Magna villa Privata,Villa Magna,m. p.,XXX,m. p. XXX,30.0,44.4,,https://pleiades.stoa.org/places/344536,33.181823,11.216424,villa,villa
425,,,1. PROVINCIAE AFRICAE,Thenae-Leptis Magna,route,,,,Fisida vicus,Pisida,Pisida,m. p.,XXXI,m. p. XXXI,31.0,,,https://pleiades.stoa.org/places/344459,33.0701995,11.7740495,vicus,settlement
426,,,1. PROVINCIAE AFRICAE,Thenae-Leptis Magna,route,,,,Casas villa Aniciorum,Casae villa Aniciorum,Casas/Villa Aniciorum,m. p.,XXVI,m. p. XXVI,26.0,,,https://pleiades.stoa.org/places/344333,32.934849,12.080562,villa,station
427,,,1. PROVINCIAE AFRICAE,Thenae-Leptis Magna,route,,,,Sabrata colonia,Sabratha,Abrotonum/Sabratha,m. p.,XXVIII,m. p. XXVIII,28.0,,,https://pleiades.stoa.org/places/344282,32.8049535115475,12.485350228698900,colonia,settlement
428,,,1. PROVINCIAE AFRICAE,Thenae-Leptis Magna,route,,,,Vax villa Repentina,Vax villa Repentina,Vax/Villa Repentina,m. p.,XXVII,m. p. XXVII,27.0,,,https://pleiades.stoa.org/places/344531,32.760753,12.796766,villa?,station
429,,,1. PROVINCIAE AFRICAE,Thenae-Leptis Magna,route,,,,Ocea colonia,Oea,Oea,m. p.,XXVIII,m. p. XXVIII,28.0,,,https://pleiades.stoa.org/places/344456,32.897586,13.175266,colonia,settlement
430,,,1. PROVINCIAE AFRICAE,Thenae-Leptis Magna,route,,,,Megradi villa Aniciorum,Megradi,Megradi/Megerthis?,m. p.,XXV,m. p. XXV,25.0,,,https://pleiades.stoa.org/places/344437,32.790386,13.598506,villa,settlement
431,,,1. PROVINCIAE AFRICAE,Thenae-Leptis Magna,route,,,,Minna villa Marsi,"Minna, Minna/Villa Marsi?",Minna/Villa Marsi?,m. p.,XXVIIII,m. p. XXVIIII,29.0,,,https://pleiades.stoa.org/places/344443,32.700593,13.877512,villa,station
432,,,1. PROVINCIAE AFRICAE,Thenae-Leptis Magna,route,,,,Lepti Magna colonia,Leptis Magna,Neapolis/Lepcis Magna,m. p.,XXVIIII,m. p. XXVIIII,29.0,,Ending point supplied,https://pleiades.stoa.org/places/344448,32.6379575,14.291378,colonia,settlement
433,,,1. PROVINCIAE AFRICAE,Leptis Magna-Alexandria,route,,,,,Leptis Magna,Neapolis/Lepcis Magna,,,m. p. XXVIIII,29.0,,sub-itinerary supplied,https://pleiades.stoa.org/places/344448,32.6379575,14.291378,colonia,settlement
434,,,1. PROVINCIAE AFRICAE,Leptis Magna-Alexandria,route,,,,Seggera,Seggera,Sugolin,m. p.,XX,m. p. XX,20.0,,,https://pleiades.stoa.org/places/344489,32.466721,14.566667,,station (road or coastal)
435,,,1. PROVINCIAE AFRICAE,Leptis Magna-Alexandria,route,,,,Berge,Virga,Berge/Virga,m. p.,XXIIII,m. p. XXIIII,24.0,,,https://pleiades.stoa.org/places/344314,32.248646,14.880159,,station
436,,,1. PROVINCIAE AFRICAE,Leptis Magna-Alexandria,route,,,,Base,Base,Base,m. p.,XXV,m. p. XXV,25.0,,,https://pleiades.stoa.org/places/344308,32.020202,15.096728,,station
437,,,1. PROVINCIAE AFRICAE,Leptis Magna-Alexandria,route,,,,Thebunte,Thebunte,Thebunte,m. p.,XXX,m. p. XXX,30.0,,,https://pleiades.stoa.org/places/344509,31.683182,15.033398,,station
438,,,1. PROVINCIAE AFRICAE,Leptis Magna-Alexandria,route,,,,Auxiqua,Auxiqua,Auxiqua,m. p.,XXX,m. p. XXX,30.0,,,https://pleiades.stoa.org/places/344305,31.364584,15.239703,,station
439,,,1. PROVINCIAE AFRICAE,Leptis Magna-Alexandria,route,,,,Annesel,Annesel,Annesel,m. p.,XXX,m. p. XXX,30.0,,,https://pleiades.stoa.org/places/363922,31.364153,15.584823,,station
440,,,1. PROVINCIAE AFRICAE,Leptis Magna-Alexandria,route,,,,Auxiu,Auxiu,‘Auxiu’,m. p.,XVIII,m. p. XVIII,18.0,,,https://pleiades.stoa.org/places/363933,31.281729,15.851181,,station
441,,,1. PROVINCIAE AFRICAE,Leptis Magna-Alexandria,route,,,,Stixgi,Astiagi/Dysopon,Astiagi/Dysopon,m. p.,XXV,m. p. XXV,25.0,,,https://pleiades.stoa.org/places/363927,31.226337,16.278323,,station
442,,,1. PROVINCIAE AFRICAE,Leptis Magna-Alexandria,route,,,,Macomadibus Sirtis,Macomades Sirtis,Euphranta/Macomades,m. p.,XX,m. p. XX,20.0,,,https://pleiades.stoa.org/places/363959,31.205047,16.588337,,settlement
443,,,1. PROVINCIAE AFRICAE,Leptis Magna-Alexandria,route,,,,Iscina,Iskina/Charax,Charax/(I)Scina,m. p.,XXX,m. p. XXX,30.0,,,https://pleiades.stoa.org/places/363951,31.1305169993524,17.102736186048200,,settlement
444,,,1. PROVINCIAE AFRICAE,Leptis Magna-Alexandria,route,,,,Tramaricio,Tramaricium,Tramaricio,m. p.,XXXI,m. p. XXXI,31.0,,,https://pleiades.stoa.org/places/364024,30.999875,17.550006,,station
445,,,1. PROVINCIAE AFRICAE,Leptis Magna-Alexandria,route,,,,Aubereo,Aubereo,‘Aubereo’/Ad Capsum Ultimum,m. p.,XXV,m. p. XXV,25.0,,,https://pleiades.stoa.org/places/363929,30.852128,17.883257,,station
446,,,1. PROVINCIAE AFRICAE,Leptis Magna-Alexandria,route,,,,Digdica,Digdiga,Digdida Selorum,m. p.,XXIIII,m. p. XXIIII,24.0,,,https://pleiades.stoa.org/places/363954,30.69797,18.16671,,settlement
447,,,1. PROVINCIAE AFRICAE,Leptis Magna-Alexandria,route,,,,Tugulus,Tugulus,Tugulus,m. p.,XXIIII,m. p. XXIIII,24.0,,,https://pleiades.stoa.org/places/364026,30.549905,18.466667,,fort
448,,,1. PROVINCIAE AFRICAE,Leptis Magna-Alexandria,route,,,,Banadedari,Banadedari,Banadedari,m. p.,XXV,m. p. XXV,25.0,,,https://pleiades.stoa.org/places/363935,30.361848,18.784609,,station
449,,,1. PROVINCIAE AFRICAE,Leptis Magna-Alexandria,route,,,,Anabucis,Anabucis,Anabucis,m. p.,XXV,m. p. XXV,25.0,,,https://pleiades.stoa.org/places/363921,30.261267,19.188848,,station
450,,,1. PROVINCIAE AFRICAE,Leptis Magna-Alexandria,route,,,,Tiniodiri,Tiniodori,Tiniodiri,m. p.,XXV,m. p. XXV,25.0,,,https://pleiades.stoa.org/places/364023,30.34094,19.493912,,station
451,,,1. PROVINCIAE AFRICAE,Leptis Magna-Alexandria,route,,,,Boreo,Boreion/Boreum,Boreum,m. p.,XII,m. p. XII,12.0,,,https://pleiades.stoa.org/places/363948,30.475859,19.700194,,settlement
452,,,1. PROVINCIAE AFRICAE,Leptis Magna-Alexandria,route,,,,Tincausari,Tincausari,Tincausari,m. p.,XXIII,m. p. XXIII,23.0,,,https://pleiades.stoa.org/places/364022,30.620406,19.882246,,station
453,,,1. PROVINCIAE AFRICAE,Leptis Magna-Alexandria,route,,,,Attici,Attici,Attici/Phenica,m. p.,XXV,m. p. XXV,25.0,,,https://pleiades.stoa.org/places/373741,31.133295,20.183329,,station
454,,,1. PROVINCIAE AFRICAE,Leptis Magna-Alexandria,route,,,,Chorotus,Chorothus,Chorotus/Noetu?,m. p.,XXV,m. p. XXV,25.0,,,https://pleiades.stoa.org/places/373774,31.394966,20.174408,,station
455,,,1. PROVINCIAE AFRICAE,Leptis Magna-Alexandria,route,,,,Chaminos,Chaminos,Chaminos,m. p.,XXII,m. p. XXII,22.0,,,https://pleiades.stoa.org/places/373768,31.660425,20.018546,,station
456,,,1. PROVINCIAE AFRICAE,Leptis Magna-Alexandria,route,,,,Beronice,Berenike,Berenice,m. p.,XXX,m. p. XXX,30.0,,,https://pleiades.stoa.org/places/373757,32.12452,20.06425,,settlement
457,,,1. PROVINCIAE AFRICAE,Leptis Magna-Alexandria,route,,,,Adriane,Hadrianopolis,Hadrianopolis/Kaukalou Kome?,m. p.,XXVIII,m. p. XXVIII,28.0,,,https://pleiades.stoa.org/places/373824,32.35204,20.3072025,,settlement
458,,,1. PROVINCIAE AFRICAE,Leptis Magna-Alexandria,route,,,,Theucira,Arsinoe/Taucheira,Arsinoe/Taucheira,m. p.,XVIII,m. p. XVIII,18.0,,,https://pleiades.stoa.org/places/373736,32.5363993333333,20.567297666666700,,settlement
459,,,1. PROVINCIAE AFRICAE,Leptis Magna-Alexandria,route,,,,Ptholemais,Ptolemais,Ptolemais/Barkes Limen,m. p.,XXVI,m. p. XXVI,26.0,,,https://pleiades.stoa.org/places/373879,32.7071341858076,20.953849594556200,,settlement
460,,,1. PROVINCIAE AFRICAE,Leptis Magna-Alexandria,route,,,,Semeros,Semeros,Semeros,m. p.,XXXII,m. p. XXXII,32.0,,,https://pleiades.stoa.org/places/373886,32.533293,21.449973,,station
461,,,1. PROVINCIAE AFRICAE,Leptis Magna-Alexandria,route,,,,Lasamices,Lasamici,Lasamices?,m. p.,XXVI,m. p. XXVI,26.0,,,https://pleiades.stoa.org/places/373838,32.590008,21.712327,,settlement
462,,,1. PROVINCIAE AFRICAE,Leptis Magna-Alexandria,route,,,,Cyrene,Cyrene,Cyrene,m. p.,XXV,m. p. XXV,25.0,,,https://pleiades.stoa.org/places/373778,32.8200266273389,21.856538513413300,,settlement
463,,,1. PROVINCIAE AFRICAE,Leptis Magna-Alexandria,route,,,,Limniade,Limniade,Limnias?,m. p.,XXI,m. p. XXI,21.0,,,https://pleiades.stoa.org/places/373844,32.779834,22.155779,,settlement
464,,,1. PROVINCIAE AFRICAE,Leptis Magna-Alexandria,route,,,,Darnis,Darnis,Darnis,m. p.,XXIIII,m. p. XXIIII,24.0,,,https://pleiades.stoa.org/places/373780,32.7660775,22.6404775,,settlement
465,,,1. PROVINCIAE AFRICAE,Leptis Magna-Alexandria,route,,,,Hippon,Hippon,Hippon,m. p.,XXVIII,m. p. XXVIII,28.0,,,https://pleiades.stoa.org/places/373828,32.599189,22.936949,,station
466,,,1. PROVINCIAE AFRICAE,Leptis Magna-Alexandria,route,,,,Michera sive Elene,Mecira? Miceris?,Miceris,m. p.,XXX,m. p. XXX,30.0,,,https://pleiades.stoa.org/places/716601,32.128016,23.668112,,station
467,,69.2,1. PROVINCIAE AFRICAE,Leptis Magna-Alexandria,route,,,,Badrin,Badrin,Badrin,m. p.,XXV,m. p. XXV,25.0,,Reference to It. Ant. Missing in Pleiades,https://pleiades.stoa.org/places/718015,,,,unlocated
468,,69.3,1. PROVINCIAE AFRICAE,Leptis Magna-Alexandria,route,,,,Ausufal,Ausufal,Ausufal,m. p.,XX,m. p. XX,20.0,,Reference to It. Ant. Missing in Pleiades,https://pleiades.stoa.org/places/718012,,,,unlocated
469,,,1. PROVINCIAE AFRICAE,Leptis Magna-Alexandria,route,,,,Catabathmon,Katabathmos,Catabathmus Maior/Plynos Limen/Tetrapyrgia,m. p.,XXV,m. p. XXV,25.0,,,https://pleiades.stoa.org/places/716540,31.552706,25.152644,,settlement
470,,,1. PROVINCIAE AFRICAE,Leptis Magna-Alexandria,route,,,,Alexandria,Alexandria,Alexandria,m. p.,VIIII,m. p. VIIII,9.0,,,https://pleiades.stoa.org/places/727070,31.201435,29.909773,,settlement
471,,70.2,1. PROVINCIAE AFRICAE,Ptolemais-Alexandria?,alternative-route,Item alio itinere ab Ptholomaida in Alexandria:,,,Ptholomaida,Ptolemais,Ptolemais/Barkes Limen,,,,,,,https://pleiades.stoa.org/places/373879,32.7071341858076,20.953849594556200,,
472,,70.2,1. PROVINCIAE AFRICAE,Ptolemais-Alexandria?,alternative-route,Item alio itinere ab Ptholomaida in Alexandria:,,,Alexandria,Alexandria,Alexandria,,?,?,,,,https://pleiades.stoa.org/places/727070,31.201435,29.909773,,
473,,,1. PROVINCIAE AFRICAE,Ptolemais-Alexandria?,alternative-route,,,,,Ptolemais,Ptolemais/Barkes Limen,,,,0.0,,,https://pleiades.stoa.org/places/373879,32.7071341858076,20.953849594556200,,settlement
474,,,1. PROVINCIAE AFRICAE,Ptolemais-Alexandria?,alternative-route,,,,Semeros,Semeros,Semeros,m. p.,XXXII,m. p. XXXII,32.0,,,https://pleiades.stoa.org/places/373886,32.533293,21.449973,,station
