sequence-number,place_id,CTS URN,region,route_label,route_type,text_transcription,direction,direction_type,place_transcription,place_normalized,pleiades_label,distance_unit,distance_ancient,distance-ancient,distance_modern,revised_distance,place_uri,latitude,longitude,placetype,placetype_pleiades,comment
1,,339.7-8,21. DE ITALIA IN GALLIAS:,Mediolanum-Arelate,sum-route-start,A Mediolano Arelate per Alpes Gottias m. p. CCCCXI:,,,Mediolano,Mediolanum,Mediolan(i)um,,,,,,https://pleiades.stoa.org/places/383706,45.463746,9.18806,,,
2,,339.7-8,21. DE ITALIA IN GALLIAS:,Mediolanum-Arelate,sum-route-end,A Mediolano Arelate per Alpes Gottias m. p. CCCCXI:,,,Arelate,Arelate,Theline/Col. Arelate/Constantina,m. p.,CCCCXI, m. p. CCCCXI,,,https://pleiades.stoa.org/places/148217,43.677616,4.630799,,,
3,,,21. DE ITALIA IN GALLIAS:,Mediolanum-Arelate,,,,,,Mediolanum,Mediolan(i)um,,,,0.0,,https://pleiades.stoa.org/places/383706,45.463746,9.18806,,settlement,
4,,,21. DE ITALIA IN GALLIAS:,Mediolanum-Arelate,,,,,Ticinum,Ticinum,Ticinum,m. p.,XXII,m. p. XXII,22.0,,https://pleiades.stoa.org/places/383798,45.185899,9.156562,,settlement,
5,,,21. DE ITALIA IN GALLIAS:,Mediolanum-Arelate,,,,,Laumellum,Laumellum,Laumellum,m. p.,XXII,m. p. XXII,22.0,,https://pleiades.stoa.org/places/383690,45.122041,8.79735,,fort,
6,,,21. DE ITALIA IN GALLIAS:,Mediolanum-Arelate,,,,,Cottiae,Cuttiae,Cuttiae,m. p.,XII,m. p. XII,12.0,,https://pleiades.stoa.org/places/383630,45.193215,8.61234,,station,
7,,,21. DE ITALIA IN GALLIAS:,Mediolanum-Arelate,,,,,Carbantia,Carbantia,Carbantia/Ad Medias,m. p.,XII,m. p. XII,12.0,,https://pleiades.stoa.org/places/383610,45.18293,8.479819,,station,
8,,,21. DE ITALIA IN GALLIAS:,Mediolanum-Arelate,,,,,Rigomago,Rigomagus,Rigomagus,m. p.,XII,m. p. XII,12.0,,https://pleiades.stoa.org/places/383759,45.193171,8.297388,,station,
9,,,21. DE ITALIA IN GALLIAS:,Mediolanum-Arelate,,,,,Quadratis,Quadrata,Quadrata,m. p.,XIII,m. p. XIII,13.0,,https://pleiades.stoa.org/places/383753,45.191112,7.969391,,station,
10,,,21. DE ITALIA IN GALLIAS:,Mediolanum-Arelate,,,,,Taurinis,Augusta Taurinorum,Taurini,m. p.,XXIII,m. p. XXIII,23.0,,https://pleiades.stoa.org/places/383794,45.1443754163682,7.674749143380000,,label,See also Augusta Taurinorum
11,,,21. DE ITALIA IN GALLIAS:,Mediolanum-Arelate,,,fines,,Fines,Fines,Ad Fines,m. p.,XVIII,m. p. XVIII,18.0,,https://pleiades.stoa.org/places/383545,45.0957849,7.4208953,,station,
12,,,21. DE ITALIA IN GALLIAS:,Mediolanum-Arelate,,,,,Segusione,Segusio,Segusio,m. p.,XXXIII,m. p. XXXIII,33.0,,https://pleiades.stoa.org/places/167919,45.138348,7.048364,,settlement,
13,,,21. DE ITALIA IN GALLIAS:,Mediolanum-Arelate,,,ad,,Ad Martis,Ad Martis,Ad Martis,m. p.,XVI,m. p. XVI,16.0,,https://pleiades.stoa.org/places/167617,45.03323,6.833543,,station,
14,,,21. DE ITALIA IN GALLIAS:,Mediolanum-Arelate,,,,,Brigantione,Brigantio,Brigantio,m. p.,XVIII,m. p. XVIII,18.0,,https://pleiades.stoa.org/places/167691,44.896886,6.633951,,settlement,
15,,,21. DE ITALIA IN GALLIAS:,Mediolanum-Arelate,,,,,Rame,Rama,Rama,m. p.,XVIIII,m. p. XVIIII,19.0,,https://pleiades.stoa.org/places/678356,32.934001,35.366497,,settlement,
16,,,21. DE ITALIA IN GALLIAS:,Mediolanum-Arelate,,,,,Eburoduno,Eburodunum,Eburodunum,m. p.,XVIII,m. p. XVIII,18.0,,https://pleiades.stoa.org/places/177514,46.7828485,6.641452000000000,,settlement,
17,,,21. DE ITALIA IN GALLIAS:,Mediolanum-Arelate,,,,,Caturrigas,Caturigomagus,Caturigomagus,m. p.,XVII,m. p. XVII,17.0,,https://pleiades.stoa.org/places/167701,44.545037,6.278222,,station,
18,,,21. DE ITALIA IN GALLIAS:,Mediolanum-Arelate,,,,,Vapincum,Vapincum,Vappincum,m. p.,XII,m. p. XII,12.0,,https://pleiades.stoa.org/places/167954,44.559876,6.075897,,settlement,
19,,,21. DE ITALIA IN GALLIAS:,Mediolanum-Arelate,,,,,Alabonte,Alabons,Alabonte,m. p.,XVIII,m. p. XVIII,18.0,,https://pleiades.stoa.org/places/167628,44.385921,5.943974,,station,
20,,,21. DE ITALIA IN GALLIAS:,Mediolanum-Arelate,,,,,Segusterone,Segustero,Segustero,m. p.,XVI,m. p. XVI,16.0,,https://pleiades.stoa.org/places/157925,44.197042,5.94352,,settlement,
21,,,21. DE ITALIA IN GALLIAS:,Mediolanum-Arelate,,,,,Alaunio,Alaunium,Alaunium,m. p.,XXIIII,m. p. XXIIII,24.0,,https://pleiades.stoa.org/places/157800,43.946069,5.870795,,station,
22,,,21. DE ITALIA IN GALLIAS:,Mediolanum-Arelate,,,,,Catuiaca,Catuiaca,Catuiacia,m. p.,XVI,m. p. XVI,16.0,,https://pleiades.stoa.org/places/148041,43.850093,5.565915,,station,
23,,,21. DE ITALIA IN GALLIAS:,Mediolanum-Arelate,,,,,Apta Iulia,Apta Iulia,Apta Iulia,m. p.,XII,m. p. XII,12.0,,https://pleiades.stoa.org/places/147993,43.876571,5.393684,,settlement,
24,,,21. DE ITALIA IN GALLIAS:,Mediolanum-Arelate,,,fines,,Fines,Fines,Ad Fines,m. p.,X,m. p. X,10.0,,https://pleiades.stoa.org/places/147983,43.8681697240352,5.244911756106270,,station,
25,,,21. DE ITALIA IN GALLIAS:,Mediolanum-Arelate,,,,,Cabellione,Cabellio,Cabellio,m. p.,XII,m. p. XII,12.0,,https://pleiades.stoa.org/places/148027,43.829885,5.034166,,settlement,
26,,,21. DE ITALIA IN GALLIAS:,Mediolanum-Arelate,,,,,Glano,Glanum,Glanum,m. p.,XVI,m. p. XVI,16.0,,https://pleiades.stoa.org/places/148093,43.773471,4.832867,,settlement,
27,,,21. DE ITALIA IN GALLIAS:,Mediolanum-Arelate,,,,,Ernagino,Ernaginum,Ernaginum,m. p.,XII,m. p. XII,12.0,,https://pleiades.stoa.org/places/148074,43.7670973,4.6957086,,station,
28,,,21. DE ITALIA IN GALLIAS:,Mediolanum-Arelate,,,,,Arelate,Arelate,Theline/Col. Arelate/Constantina,m. p.,VII,m. p. VII,7.0,,https://pleiades.stoa.org/places/148217,43.677616,4.630799,,settlement,
29,,344.3-4,21. DE ITALIA IN GALLIAS:,Mediolanum-Vienna-1,sum-route-start,Item a Mediolano per Alpes Graias Vienna m. p. CCCVIII sic:,,,Mediolano,Mediolanum,Mediolan(i)um,,,,,,https://pleiades.stoa.org/places/383706,45.463746,9.18806,,,
30,,344.3-4,21. DE ITALIA IN GALLIAS:,Mediolanum-Vienna-1,sum-route-end,Item a Mediolano per Alpes Graias Vienna m. p. CCCVIII sic:,,,Vienna,Vienna,Col. Vienna,m. p.,CCCVIII , m. p. CCCVIII ,,,https://pleiades.stoa.org/places/167719,45.5245105,4.8759820000000000,,,
31,,,21. DE ITALIA IN GALLIAS:,Mediolanum-Vienna-1,,,,,,Mediolanum,Mediolan(i)um,,,,0.0,,https://pleiades.stoa.org/places/383706,45.463746,9.18806,,settlement,
32,,,21. DE ITALIA IN GALLIAS:,Mediolanum-Vienna-1,,,,,Novaria,Novaria,Novaria,m. p.,XXXIII,m. p. XXXIII,33.0,,https://pleiades.stoa.org/places/383717,45.445082,8.618661,,settlement,
33,,,21. DE ITALIA IN GALLIAS:,Mediolanum-Vienna-1,,,,,Vercellas,Vercellae,Vercellae,m. p.,XVI,m. p. XVI,16.0,,https://pleiades.stoa.org/places/383815,45.321094,8.426374,,settlement,
34,,,21. DE ITALIA IN GALLIAS:,Mediolanum-Vienna-1,,,,,Eporedia,Eporedia,Eporedia,m. p.,XXXIII,m. p. XXXIII,33.0,,https://pleiades.stoa.org/places/383642,45.466604,7.875942,,settlement,
35,,,21. DE ITALIA IN GALLIAS:,Mediolanum-Vienna-1,,,,,Vitricium,Vitricium,Vitricium,m. p.,XXI,m. p. XXI,21.0,,https://pleiades.stoa.org/places/383824,45.668586,7.690596,,station,
36,,,21. DE ITALIA IN GALLIAS:,Mediolanum-Vienna-1,,,,,Augusta Praetoria,Augusta Praetoria,Augusta Praetoria,m. p.,XXV,m. p. XXV,25.0,,https://pleiades.stoa.org/places/383579,45.737444,7.3161705,,settlement,
37,,,21. DE ITALIA IN GALLIAS:,Mediolanum-Vienna-1,,,,,Arebrigium,Arebrigium,Arebrigium,m. p.,XXV,m. p. XXV,25.0,,https://pleiades.stoa.org/places/167654,45.764042,6.984632,,settlement,
38,,,21. DE ITALIA IN GALLIAS:,Mediolanum-Vienna-1,,,,,Bergintrum,Bergintrum,Bergintrum,m. p.,XXIIII,m. p. XXIIII,24.0,,https://pleiades.stoa.org/places/167675,45.615918,6.766804,,settlement,
39,,,21. DE ITALIA IN GALLIAS:,Mediolanum-Vienna-1,,,,,Darantasia,Darantasia,Darantasia,m. p.,XVIIII,m. p. XVIIII,19.0,,https://pleiades.stoa.org/places/167736,45.484001,6.532142,,settlement,
40,,,21. DE ITALIA IN GALLIAS:,Mediolanum-Vienna-1,,,ad,,Obilunnum,Obilunnum,Obilonna,m. p.,XIII,m. p. XIII,13.0,,https://pleiades.stoa.org/places/167858,45.625812,6.448689,,station,
41,,,21. DE ITALIA IN GALLIAS:,Mediolanum-Vienna-1,,,,,Ad Publicanos,Ad Publicanos,Ad Publicanos,m. p.,III,m. p. III,3.0,,https://pleiades.stoa.org/places/167618,45.6754622,6.3925417,,station,
42,,,21. DE ITALIA IN GALLIAS:,Mediolanum-Vienna-1,,,,,Mantala,Mantala,Mantala,m. p.,XVI,m. p. XVI,16.0,,https://pleiades.stoa.org/places/167822,45.565708,6.155459,,station,
43,,,21. DE ITALIA IN GALLIAS:,Mediolanum-Vienna-1,,,,,Lemincum,Lemincum,Lemincum,m. p.,XVI,m. p. XVI,16.0,,https://pleiades.stoa.org/places/167806,45.5666305,5.9208005,,settlement,
44,,,21. DE ITALIA IN GALLIAS:,Mediolanum-Vienna-1,,,,,Labiscone,Labisco,Labisco,m. p.,XIIII,m. p. XIIII,14.0,,https://pleiades.stoa.org/places/167798,45.436151,5.754422,,settlement,
45,,,21. DE ITALIA IN GALLIAS:,Mediolanum-Vienna-1,,,,,Augustum,Augustum,Augusta,m. p.,XIIII,m. p. XIIII,14.0,,https://pleiades.stoa.org/places/167659,45.5871637,5.6074753,,settlement,
46,,,21. DE ITALIA IN GALLIAS:,Mediolanum-Vienna-1,,,,,Bergusia,Bergusium,Bergusium,m. p.,XVI,m. p. XVI,16.0,,https://pleiades.stoa.org/places/167677,45.585793,5.276805,,settlement,
47,,,21. DE ITALIA IN GALLIAS:,Mediolanum-Vienna-1,,,,,Vienna,Vienna,Col. Vienna,m. p.,XX,m. p. XX,20.0,,https://pleiades.stoa.org/places/167719,45.5245105,4.8759820000000000,,settlement,
48,,346.10-11,21. DE ITALIA IN GALLIAS:,Mediolanum-Argentorate,sum-route-start,Item a Mediolano per Alpes Graias Argentorato m. p. DLXXVII sic:,,,Mediolano,Mediolanum,Mediolan(i)um,,,,,,https://pleiades.stoa.org/places/383706,45.463746,9.18806,,,
49,,346.10-11,21. DE ITALIA IN GALLIAS:,Mediolanum-Argentorate,sum-route-end,Item a Mediolano per Alpes Graias Argentorato m. p. DLXXVII sic:,,,Argentorato,Argentorate,Argentorate,m. p.,DLXXVII , m. p. DLXXVII ,,,https://pleiades.stoa.org/places/108754,48.582416,7.747407,,,
50,,,21. DE ITALIA IN GALLIAS:,Mediolanum-Argentorate,,,,,,Mediolanum,Mediolan(i)um,,,,0.0,,https://pleiades.stoa.org/places/383706,45.463746,9.18806,,settlement,
51,,,21. DE ITALIA IN GALLIAS:,Mediolanum-Argentorate,,,,,Ticinum,Ticinum,Ticinum,m. p.,XXII,m. p. XXII,22.0,,https://pleiades.stoa.org/places/383798,45.185899,9.156562,,settlement,
52,,,21. DE ITALIA IN GALLIAS:,Mediolanum-Argentorate,,,,,Laumellum,Laumellum,Laumellum,m. p.,XXII,m. p. XXII,22.0,,https://pleiades.stoa.org/places/383690,45.122041,8.79735,,fort,
53,,,21. DE ITALIA IN GALLIAS:,Mediolanum-Argentorate,,,,,Vercellas,Vercellae,Vercellae,m. p.,XXVI,m. p. XXVI,26.0,,https://pleiades.stoa.org/places/383815,45.321094,8.426374,,settlement,
54,,,21. DE ITALIA IN GALLIAS:,Mediolanum-Argentorate,,,,,Eporedia,Eporedia,Eporedia,m. p.,XXXIII,m. p. XXXIII,33.0,,https://pleiades.stoa.org/places/383642,45.466604,7.875942,,settlement,
55,,,21. DE ITALIA IN GALLIAS:,Mediolanum-Argentorate,,,,,Vitricium,Vitricium,Vitricium,m. p.,XXI,m. p. XXI,21.0,,https://pleiades.stoa.org/places/383824,45.668586,7.690596,,station,
56,,,21. DE ITALIA IN GALLIAS:,Mediolanum-Argentorate,,,,,Augusta Pretoria,Augusta Pretoria,Augusta Praetoria,m. p.,XXV,m. p. XXV,25.0,,https://pleiades.stoa.org/places/383579,45.737444,7.3161705,,settlement,
57,,,21. DE ITALIA IN GALLIAS:,Mediolanum-Argentorate,,,,,Arebrigium,Arebrigium,Arebrigium,m. p.,XXV,m. p. XXV,25.0,,https://pleiades.stoa.org/places/167654,45.764042,6.984632,,settlement,
58,,,21. DE ITALIA IN GALLIAS:,Mediolanum-Argentorate,,,,,Bergintrum,Bergintrum,Bergintrum,m. p.,XXIIII,m. p. XXIIII,24.0,,https://pleiades.stoa.org/places/167675,45.615918,6.766804,,settlement,
59,,,21. DE ITALIA IN GALLIAS:,Mediolanum-Argentorate,,,,,Darantasia,Darantasia,Darantasia,m. p.,XVIIII,m. p. XVIIII,19.0,,https://pleiades.stoa.org/places/167736,45.484001,6.532142,,settlement,
60,,,21. DE ITALIA IN GALLIAS:,Mediolanum-Argentorate,,,,,Casuaria,Casuaria,Casuaria,m. p.,XVIIII,m. p. XVIIII,19.0,,https://pleiades.stoa.org/places/167698,45.749916,6.293315,,settlement,
61,,,21. DE ITALIA IN GALLIAS:,Mediolanum-Argentorate,,,,,Bautas,Boutae,Boutae,m. p.,XXX,m. p. XXX,30.0,,https://pleiades.stoa.org/places/167685,45.9044548666667,6.126884966666670,,settlement,
62,,,21. DE ITALIA IN GALLIAS:,Mediolanum-Argentorate,,,,,Genava,Genava,Genava,m. p.,XXV,m. p. XXV,25.0,,https://pleiades.stoa.org/places/177528,46.2019615,6.1437985,,settlement,
63,,,21. DE ITALIA IN GALLIAS:,Mediolanum-Argentorate,,,,,Equestribus,Colonia Equestris,Col. Iulia Equestris/Noviodunum,m. p.,XVI,m. p. XVI,16.0,,https://pleiades.stoa.org/places/177496,46.380843,6.238405,,settlement,
64,,,21. DE ITALIA IN GALLIAS:,Mediolanum-Argentorate,,,,,Lacu Lausonio,Lousonna,Lousonna,m. p.,XX,m. p. XX,20.0,,https://pleiades.stoa.org/places/177565,46.522586,6.6353401,lacus,settlement,
65,,,21. DE ITALIA IN GALLIAS:,Mediolanum-Argentorate,,,,,Vrba,Urba,Urba,m. p.,XVIII,m. p. XVIII,18.0,,https://pleiades.stoa.org/places/177648,46.724676,6.530955,,station,
66,,,21. DE ITALIA IN GALLIAS:,Mediolanum-Argentorate,,,,,Ariorica,Ariorica,Ariorica,m. p.,XV,m. p. XV,15.0,,https://pleiades.stoa.org/places/177453,46.902071,6.359114,,settlement,
67,,,21. DE ITALIA IN GALLIAS:,Mediolanum-Argentorate,,,,,Visontione,Vesontio,Vesontio,m. p.,XVI,m. p. XVI,16.0,,https://pleiades.stoa.org/places/177657,47.2372405,6.0279240000000000,,settlement,
68,,,21. DE ITALIA IN GALLIAS:,Mediolanum-Argentorate,,,,,Vetatuduro,Vetatudorum,Vetatuduro,m. p.,XXII,m. p. XXII,22.0,,https://pleiades.stoa.org/places/177516,47.4507785,6.802052,,unlocated,
69,,,21. DE ITALIA IN GALLIAS:,Mediolanum-Argentorate,,,,,Epamantuduro,Epamanduodurum,Epamanduodurum,m. p.,XII,m. p. XII,12.0,,https://pleiades.stoa.org/places/177516,47.4507785,6.802052,,settlement,
70,,,21. DE ITALIA IN GALLIAS:,Mediolanum-Argentorate,,,,,Gramato,Gramatum,Gramato,m. p.,XVIIII,m. p. XVIIII,19.0,,https://pleiades.stoa.org/places/181213,,,,unlocated,
71,,,21. DE ITALIA IN GALLIAS:,Mediolanum-Argentorate,,,,,Larga,Larga,Larga,m. p.,XXV,m. p. XXV,25.0,,https://pleiades.stoa.org/places/177552,47.561446,7.187133,,settlement,
72,,,21. DE ITALIA IN GALLIAS:,Mediolanum-Argentorate,,,,,Virincis,Urunci,Uruncis?,m. p.,XVIII,m. p. XVIII,18.0,,https://pleiades.stoa.org/places/177649,47.7813285,7.3470445,,settlement,
73,,,21. DE ITALIA IN GALLIAS:,Mediolanum-Argentorate,,,,,Monte Brisiaco,Mons Brisiacus,(Mons) Brisiacus,m. p.,XXIIII,m. p. XXIIII,24.0,,https://pleiades.stoa.org/places/109174,48.0286545,7.581259,mons,fort,
74,,,21. DE ITALIA IN GALLIAS:,Mediolanum-Argentorate,,,,,Helveto,Helvetum,Helvetum/Ellelum,m. p.,XX,m. p. XX,20.0,,https://pleiades.stoa.org/places/109041,48.372887,7.616824,,settlement,
75,,,21. DE ITALIA IN GALLIAS:,Mediolanum-Argentorate,,,,,Argentorato,Argentorate,Argentorate,m. p.,XXX,m. p. XXX,30.0,,https://pleiades.stoa.org/places/108754,48.582416,7.747407,,fort,
76,,350.4-5,21. DE ITALIA IN GALLIAS:,Mediolanum-Mogontiacum,sum-route-start,Item a Mediolano per Alpes Penninas Mogontiacum m. p. CCCCXVIIII sic:,,,Mediolano,Mediolanum,Mediolan(i)um,,,,,,https://pleiades.stoa.org/places/383706,45.463746,9.18806,,,
77,,350.4-5,21. DE ITALIA IN GALLIAS:,Mediolanum-Mogontiacum,sum-route-end,Item a Mediolano per Alpes Penninas Mogontiacum m. p. CCCCXVIIII sic:,,,Mogontiacum,Mogontiacum,Mogontiacum,m. p.,CCCCXVIIII , m. p. CCCCXVIIII ,,,https://pleiades.stoa.org/places/109169,49.998912,8.273869,,,
78,,,21. DE ITALIA IN GALLIAS:,Mediolanum-Mogontiacum,,,,,,Mediolanum,Mediolan(i)um,,,,0.0,,https://pleiades.stoa.org/places/383706,45.463746,9.18806,,settlement,
79,,,21. DE ITALIA IN GALLIAS:,Mediolanum-Mogontiacum,,,,,Novaria,Novaria,Novaria,m. p.,XXXIII,m. p. XXXIII,33.0,,https://pleiades.stoa.org/places/383717,45.445082,8.618661,,settlement,
80,,,21. DE ITALIA IN GALLIAS:,Mediolanum-Mogontiacum,,,,,Vercellas,Vercellae,Vercellae,m. p.,XVI,m. p. XVI,16.0,,https://pleiades.stoa.org/places/383815,45.321094,8.426374,,settlement,
81,,,21. DE ITALIA IN GALLIAS:,Mediolanum-Mogontiacum,,,,,Eporedia,Eporedia,Eporedia,m. p.,XXXIII,m. p. XXXIII,33.0,,https://pleiades.stoa.org/places/383642,45.466604,7.875942,,settlement,
82,,,21. DE ITALIA IN GALLIAS:,Mediolanum-Mogontiacum,,,,,Vitricio,Vitricium,Vitricium,m. p.,XXI,m. p. XXI,21.0,,https://pleiades.stoa.org/places/383824,45.668586,7.690596,,station,
83,,,21. DE ITALIA IN GALLIAS:,Mediolanum-Mogontiacum,,,,,Augusta Pretoria,Augusta Pretoria,Augusta Praetoria,m. p.,XXV,m. p. XXV,25.0,,https://pleiades.stoa.org/places/383579,45.737444,7.3161705,,settlement,
84,,,21. DE ITALIA IN GALLIAS:,Mediolanum-Mogontiacum,,,,,Summo Penino,Summus Poeninus,Summus P(o)eninus,m. p.,XXV,m. p. XXV,25.0,,https://pleiades.stoa.org/places/167932,45.75,7.25,,station,
85,,,21. DE ITALIA IN GALLIAS:,Mediolanum-Mogontiacum,,,,,Octoduro,Octodurus,Octodurus/Forum Claudii Vallensium,m. p.,XXV,m. p. XXV,25.0,,https://pleiades.stoa.org/places/167859,46.100848,7.073918,,settlement,
86,,,21. DE ITALIA IN GALLIAS:,Mediolanum-Mogontiacum,,,,,Tarnaias,Transits,Tarnaias?,m. p.,XII,m. p. XII,12.0,,https://pleiades.stoa.org/places/177637,46.242249,6.989159,,settlement,
87,,,21. DE ITALIA IN GALLIAS:,Mediolanum-Mogontiacum,,,,,Penne Locos,Penne Loci/Pennolucos,Penne Locos,m. p.,XIII,m. p. XIII,13.0,,https://pleiades.stoa.org/places/177602,46.397952,6.925836,,station,
88,,,21. DE ITALIA IN GALLIAS:,Mediolanum-Mogontiacum,,,,,Vibisco,Viviscus,Vivisco,m. p.,VIIII,m. p. VIIII,9.0,,https://pleiades.stoa.org/places/177663,46.458838,6.847173,,station,
89,,,21. DE ITALIA IN GALLIAS:,Mediolanum-Mogontiacum,,,,,Vromago,Uromagus,Viromagus/Uromago,m. p.,VIIII,m. p. VIIII,9.0,,https://pleiades.stoa.org/places/181227,,,,unlocated,
90,,,21. DE ITALIA IN GALLIAS:,Mediolanum-Mogontiacum,,,,,Minnodunum,Minnodunum,Minnodunum,m. p.,VI,m. p. VI,6.0,,https://pleiades.stoa.org/places/177580,46.671963,6.796935,,station,
91,,,21. DE ITALIA IN GALLIAS:,Mediolanum-Mogontiacum,,,,,Aventiculum Helvetiorum,Aventicum,Aventicum,m. p.,XIII,m. p. XIII,13.0,,https://pleiades.stoa.org/places/177495,46.88008,7.040710333333330,,settlement,
92,,,21. DE ITALIA IN GALLIAS:,Mediolanum-Mogontiacum,,,,,Petinesca,Petinesca,Petinesca,m. p.,XIIII,m. p. XIIII,14.0,,https://pleiades.stoa.org/places/177603,47.1093935,7.2999945,,settlement,
93,,,21. DE ITALIA IN GALLIAS:,Mediolanum-Mogontiacum,,,,,Salodurum,Salodurum,Salodurum,m. p.,X,m. p. X,10.0,,https://pleiades.stoa.org/places/177624,47.206955,7.533305,,settlement,
94,,,21. DE ITALIA IN GALLIAS:,Mediolanum-Mogontiacum,,,,,Augusta Rauracum,Augusta Raurica,Col. Augusta Raurica,m. p.,XXII,m. p. XXII,22.0,,https://pleiades.stoa.org/places/177494,47.533241,7.722118000000000,,settlement,
95,,,21. DE ITALIA IN GALLIAS:,Mediolanum-Mogontiacum,,,,,Cambete,Cambete,Cambete,m. p.,XII,m. p. XII,12.0,,https://pleiades.stoa.org/places/177486,47.690543,7.503772,,station,
96,,,21. DE ITALIA IN GALLIAS:,Mediolanum-Mogontiacum,,,,,Stabulis,Stabula,Stabulis,m. p.,VI,m. p. VI,6.0,,https://pleiades.stoa.org/places/181220,,,,unlocated,
97,,,21. DE ITALIA IN GALLIAS:,Mediolanum-Mogontiacum,,,,,Argantovaria,Argentovaria,Argentovaria?,m. p.,XVIII,m. p. XVIII,18.0,,https://pleiades.stoa.org/places/108755,48.0512685,7.545778,,settlement,
98,,,21. DE ITALIA IN GALLIAS:,Mediolanum-Mogontiacum,,,,,Helvetum,Helvetum,Helvetum/Ellelum,m. p.,XVI,m. p. XVI,16.0,,https://pleiades.stoa.org/places/109041,48.372887,7.616824,,settlement,
99,,,21. DE ITALIA IN GALLIAS:,Mediolanum-Mogontiacum,,,,,Argentorato,Argentorate,Argentorate,m. p.,XII,m. p. XII,12.0,,https://pleiades.stoa.org/places/108754,48.582416,7.747407,,fort,
100,,,21. DE ITALIA IN GALLIAS:,Mediolanum-Mogontiacum,,,,,Saletione,Saletio,Saletio,m. p.,VII,m. p. VII,7.0,,https://pleiades.stoa.org/places/109317,48.895055,8.106201,,settlement,
101,,,21. DE ITALIA IN GALLIAS:,Mediolanum-Mogontiacum,,,,,Tabernis,Tabernae,Tabernae,m. p.,XIII,m. p. XIII,13.0,,https://pleiades.stoa.org/places/109362,49.119313,8.278086,,settlement,
102,,,21. DE ITALIA IN GALLIAS:,Mediolanum-Mogontiacum,,,,,Noviomago,Noviomagus,Noviomagus/Nemetae,m. p.,XI,m. p. XI,11.0,,https://pleiades.stoa.org/places/109224,49.3172545,8.436718000000000,,settlement,
103,,,21. DE ITALIA IN GALLIAS:,Mediolanum-Mogontiacum,,,,,Bormitomago,Borbetomagus,Borbetomagus,m. p.,XIIII,m. p. XIIII,14.0,,https://pleiades.stoa.org/places/108820,49.630359,8.3588465,,settlement,
104,,,21. DE ITALIA IN GALLIAS:,Mediolanum-Mogontiacum,,,,,Bouconica,Buconica,Buconica,m. p.,XIII,m. p. XIII,13.0,,https://pleiades.stoa.org/places/108835,49.871456,8.344365,,station,
105,,,21. DE ITALIA IN GALLIAS:,Mediolanum-Mogontiacum,,,,,Mogontiacum,Mogontiacum,Mogontiacum,m. p.,XI,m. p. XI,11.0,,https://pleiades.stoa.org/places/109169,49.998912,8.273869,,settlement,
106,,356.1-2,21. DE ITALIA IN GALLIAS:,Mediolanum-Vienna-2,sum-route-start,A Mediolano per Alpes Cottias Vienna m. p. CCCCVIIII,,,Mediolano,Mediolanum,Mediolan(i)um,,,,,,https://pleiades.stoa.org/places/383706,45.463746,9.18806,,,
107,,356.1-2,21. DE ITALIA IN GALLIAS:,Mediolanum-Vienna-2,sum-route-end,A Mediolano per Alpes Cottias Vienna m. p. CCCCVIIII,,,Vienna,Vienna,Col. Vienna,m. p.,CCCCVIIII, m. p. CCCCVIIII,,,https://pleiades.stoa.org/places/167719,45.5245105,4.8759820000000000,,,
108,,356.3-4,21. DE ITALIA IN GALLIAS:,Vienna-Durocortorum,sum-route-start,"inde Durocortoro m. p. CCCXXXII quae fiunt leug. CCXXI,",,,,Vienna,Col. Vienna,,,,,,https://pleiades.stoa.org/places/167719,45.5245105,4.8759820000000000,,,
109,,356.3-4,21. DE ITALIA IN GALLIAS:,Vienna-Durocortorum,sum-route-end,"inde Durocortoro m. p. CCCXXXII quae fiunt leug. CCXXI,",,,Durocortoro,Durocortorum,Durocortorum,m. p.|leug.,CCCXXXII|CCXXI,m. p. CCCXXXII == leug. CCXXI,,,https://pleiades.stoa.org/places/108945,49.2539525,4.0332025,,,
110,,356.5-6.7,21. DE ITALIA IN GALLIAS:,Durocortorum-Gesoriacum,sum-route-start,Gesoriaco m. p. CLXXIIII quae fiunt leug. CXVI:,,,,Durocortorum,Durocortorum,,,,,,https://pleiades.stoa.org/places/108945,49.2539525,4.0332025,,,
111,,356.5-6.7,21. DE ITALIA IN GALLIAS:,Durocortorum-Gesoriacum,sum-route-end,Gesoriaco m. p. CLXXIIII quae fiunt leug. CXVI:,,,Gesoriaco,Gesoriacum,Gesoriacum/Bononia,m. p.|leug.,CLXXIIII|CXVI, m. p. CLXXIIII == leug. CXVI,,,https://pleiades.stoa.org/places/109008,50.7256746666667,1.6148316666666700,,,
112,,,21. DE ITALIA IN GALLIAS:,Mediolanum-Vienna-2,,,,,,Mediolanum,Mediolan(i)um,,,,0.0,,https://pleiades.stoa.org/places/383706,45.463746,9.18806,,settlement,
113,,,21. DE ITALIA IN GALLIAS:,Mediolanum-Vienna-2,,,,,Ticinum,Ticinum,Ticinum,m. p.,XXII,m. p. XXII,22.0,,https://pleiades.stoa.org/places/383798,45.185899,9.156562,,settlement,
114,,,21. DE ITALIA IN GALLIAS:,Mediolanum-Vienna-2,,,,,Laumello,Laumellum,Laumellum,m. p.,XXII,m. p. XXII,22.0,,https://pleiades.stoa.org/places/383690,45.122041,8.79735,,fort,
115,,,21. DE ITALIA IN GALLIAS:,Mediolanum-Vienna-2,,,,,Rigomago,Rigomagus,Rigomagus,m. p.,XXXVI,m. p. XXXVI,36.0,,https://pleiades.stoa.org/places/383759,45.193171,8.297388,,station,
116,,,21. DE ITALIA IN GALLIAS:,Mediolanum-Vienna-2,,,,,Quadratis,Quadrata,Quadrata,m. p.,XVI,m. p. XVI,16.0,,https://pleiades.stoa.org/places/383753,45.191112,7.969391,,station,
117,,,21. DE ITALIA IN GALLIAS:,Mediolanum-Vienna-2,,,,,Taurinis,Augusta Taurinorum,Taurini,m. p.,XXI,m. p. XXI,21.0,,https://pleiades.stoa.org/places/383794,45.1443754163682,7.674749143380000,,label,But see also Augusta Taurinorum
118,,,21. DE ITALIA IN GALLIAS:,Mediolanum-Vienna-2,,,ad fines,,Ad Fines,Fines,Ad Fines,m. p.,XVI,m. p. XVI,16.0,,https://pleiades.stoa.org/places/383545,45.0957849,7.4208953,,station,
119,,,21. DE ITALIA IN GALLIAS:,Mediolanum-Vienna-2,,,,,Segusione,Segusio,Segusio,m. p.,XXIIII,m. p. XXIIII,24.0,,https://pleiades.stoa.org/places/167919,45.138348,7.048364,,settlement,
120,,,21. DE ITALIA IN GALLIAS:,Mediolanum-Vienna-2,,,ad,,Ad Martis,Ad Martis,Ad Martis,m. p.,XVI,m. p. XVI,16.0,,https://pleiades.stoa.org/places/167617,45.03323,6.833543,,station,
121,,,21. DE ITALIA IN GALLIAS:,Mediolanum-Vienna-2,,,,,Brigantione,Brigantio,Brigantio,m. p.,XVIIII,m. p. XVIIII,19.0,,https://pleiades.stoa.org/places/167691,44.896886,6.633951,,settlement,
122,,,21. DE ITALIA IN GALLIAS:,Mediolanum-Vienna-2,,,,,Ramae,Rama,Rama,m. p.,XVIII,m. p. XVIII,18.0,,https://pleiades.stoa.org/places/678356,32.934001,35.366497,,settlement,
123,,,21. DE ITALIA IN GALLIAS:,Mediolanum-Vienna-2,,,,,Ebreduno,Eburodunum,Eburodunum,m. p.,XVII,m. p. XVII,17.0,,https://pleiades.stoa.org/places/177514,46.7828485,6.641452000000000,,settlement,
124,,,21. DE ITALIA IN GALLIAS:,Mediolanum-Vienna-2,,,,,Caturricas,Caturigomagus,Caturigomagus,m. p.,XVI,m. p. XVI,16.0,,https://pleiades.stoa.org/places/167701,44.545037,6.278222,,station,
125,,,21. DE ITALIA IN GALLIAS:,Mediolanum-Vienna-2,,,,,Vapinquo,Vapincum,Vappincum,m. p.,XII,m. p. XII,12.0,,https://pleiades.stoa.org/places/167954,44.559876,6.075897,,settlement,
126,,,21. DE ITALIA IN GALLIAS:,Mediolanum-Vienna-2,,,,,Monte Seleuco,Mons Seleucus,Mons Seleucus,m. p.,XXIII,m. p. XXIII,23.0,,https://pleiades.stoa.org/places/167836,44.4559889,5.7499256,mons,sanctuary,
127,,,21. DE ITALIA IN GALLIAS:,Mediolanum-Vienna-2,,,,,Luco,Lucus,Lucus Augusti,m. p.,XXVI,m. p. XXVI,26.0,,https://pleiades.stoa.org/places/167815,44.615727,5.451422,,settlement,
128,,,21. DE ITALIA IN GALLIAS:,Mediolanum-Vienna-2,,,,,Dea Bocontiorum,Dea,Col. Dea Vocontiorum,m. p.,XII,m. p. XII,12.0,,https://pleiades.stoa.org/places/167716,44.752363,5.370412,,settlement,
129,,,21. DE ITALIA IN GALLIAS:,Mediolanum-Vienna-2,,,,,Augusta,Augusta,Augusta,m. p.,XXIII,m. p. XXIII,23.0,,https://pleiades.stoa.org/places/167658,44.715501,5.05726,,settlement,
130,,,21. DE ITALIA IN GALLIAS:,Mediolanum-Vienna-2,,,,,Valentia,Valentia,Col. Valentia,m. p.,XXII,m. p. XXII,22.0,,https://pleiades.stoa.org/places/167718,44.930719,4.8896965,,settlement,
131,,,21. DE ITALIA IN GALLIAS:,Mediolanum-Vienna-2,,,,,Vrsinis,Ursini/Ursoli,Ursolis,m. p.,XXII,m. p. XXII,22.0,,https://pleiades.stoa.org/places/167948,45.178632,4.815927,,station,
132,,,21. DE ITALIA IN GALLIAS:,Mediolanum-Vienna-2,,,,,Vienna,Vienna,Col. Vienna,m. p.,XXVI,m. p. XXVI,26.0,,https://pleiades.stoa.org/places/167719,45.5245105,4.8759820000000000,,settlement,
133,,,21. DE ITALIA IN GALLIAS:,Vienna-Durocortorum,,,,,,Vienna,Col. Vienna,,,,,,https://pleiades.stoa.org/places/167719,45.5245105,4.8759820000000000,,settlement,
134,,,21. DE ITALIA IN GALLIAS:,Vienna-Durocortorum,,,,,Lugdunum,Lugdunum,Col. Lugdunum,m. p.,XXIII,m. p. XXIII,23.0,,https://pleiades.stoa.org/places/167717,45.758866,4.8194815,,settlement,
135,,,21. DE ITALIA IN GALLIAS:,Vienna-Durocortorum,,aut per conpendium,per compendium,,,Lugdunum,Col. Lugdunum,m. p.,XVI,m. p. XVI,16.0,,https://pleiades.stoa.org/places/167717,45.758866,4.8194815,,settlement,supplied
136,,,21. DE ITALIA IN GALLIAS:,Vienna-Durocortorum,,,,,Asa Paulini,Asa Paulini,Asa Paulini,m. p.|leug.,XV|X,m. p. XV leug. X,15.0,,https://pleiades.stoa.org/places/167657,45.936105,4.718192,,settlement,
137,,,21. DE ITALIA IN GALLIAS:,Vienna-Durocortorum,,,,,Lunna,Ludna,Ludna,m. p.|leug.,XV|X,m. p. XV leug. X,15.0,,https://pleiades.stoa.org/places/167816,46.046113,4.729707,,settlement,
138,,,21. DE ITALIA IN GALLIAS:,Vienna-Durocortorum,,,,,Matiscone,Matisco,Matisco,m. p.|leug.,XV|X,m. p. XV leug. X,15.0,,https://pleiades.stoa.org/places/177577,46.306773,4.8301975,,settlement,
139,,,21. DE ITALIA IN GALLIAS:,Vienna-Durocortorum,,,,,Tinurtium,Tinurtium,Tinurtium,m. p.|leug.,XVIIII|XIII,m. p. XVIIII leug. XIII,19.0,,https://pleiades.stoa.org/places/177641,46.565714,4.908721,,settlement,
140,,,21. DE ITALIA IN GALLIAS:,Vienna-Durocortorum,,,,,Gabilunnum,Cabillonum,Cabilonnum,m. p.|leug.,XXI|XIIII,m. p. XXI leug. XIIII,21.0,,https://pleiades.stoa.org/places/177485,46.783372,4.856014500000000,,settlement,
141,,,21. DE ITALIA IN GALLIAS:,Vienna-Durocortorum,,,,,Augustodunum,Augustodunum,Augustodunum,m. p.|leug.,XXXIII|XXII,m. p. XXXIII leug. XXII,33.0,,https://pleiades.stoa.org/places/177460,46.94724,4.2991775,,settlement,
142,,,21. DE ITALIA IN GALLIAS:,Vienna-Durocortorum,,,,,Sidoloucum,Sidoloucus,Sidoloucum,m. p.|leug.,XXVII|XVIII,m. p. XXVII leug. XVIII,27.0,,https://pleiades.stoa.org/places/177635,47.279606,4.229354,,station,
143,,,21. DE ITALIA IN GALLIAS:,Vienna-Durocortorum,,,,,Aballone,Aballo,Aballo,m. p.|leug.,XXIIII|XVI,m. p. XXIIII leug. XVI,24.0,,https://pleiades.stoa.org/places/177427,47.492513,3.907961,,settlement,
144,,,21. DE ITALIA IN GALLIAS:,Vienna-Durocortorum,,,,,Autesiodor,Autessiodurum,Autessiodurum,m. p.|leug.,XXXIII|XXII,m. p. XXXIII leug. XXII,33.0,,https://pleiades.stoa.org/places/138206,47.7978475,3.5735390000000000,,settlement,
145,,,21. DE ITALIA IN GALLIAS:,Vienna-Durocortorum,,,,,Eburobrica,Eurobriga,Eburobriga,m. p.|leug.,XVIII|XII,m. p. XVIII leug. XII,18.0,,https://pleiades.stoa.org/places/177512,48.0049991245,3.684937734145,,settlement,
146,,,21. DE ITALIA IN GALLIAS:,Vienna-Durocortorum,,,,,Tricasis,Civets Tricassium/Augustobona,Augustobona,m. p.|leug.,XXXIII|XXII,m. p. XXXIII leug. XXII,33.0,,https://pleiades.stoa.org/places/108775,48.297473,4.074806,,settlement,
147,,,21. DE ITALIA IN GALLIAS:,Vienna-Durocortorum,,,,,Artiaca,Arciaca,Artiaca,m. p.|leug.,XVIII|XII,m. p. XVIII leug. XII,18.0,,https://pleiades.stoa.org/places/108759,48.536498,4.141862,,station,
148,,,21. DE ITALIA IN GALLIAS:,Vienna-Durocortorum,,,,,Durocatelaunos,Catalauni,Catalauni,m. p.|leug.,XXXIII|XXII,m. p. XXXIII leug. XXII,33.0,,https://pleiades.stoa.org/places/108868,48.8706040040454,4.478237256713880,,label,
149,,,21. DE ITALIA IN GALLIAS:,Vienna-Durocortorum,,,,,Durocortoro,Durocortorum,Durocortorum,m. p.|leug.,XXVII|XVIII,m. p. XXVII leug. XVIII,27.0,,https://pleiades.stoa.org/places/108945,49.2539525,4.0332025,,settlement,
150,,,21. DE ITALIA IN GALLIAS:,Durocortorum-Gesoriacum,,,,,,Durocortorum,Durocortorum,,,,,,https://pleiades.stoa.org/places/108945,49.2539525,4.0332025,,settlement,
151,,,21. DE ITALIA IN GALLIAS:,Durocortorum-Gesoriacum,,,,,Suessonas,Augusta Suessonum,Augusta Suessionum,m. p.|leug.,XXXVII|XXV,m. p. XXXVII leug. XXV,37.0,,https://pleiades.stoa.org/places/108772,49.380839,3.3258515000000000,,settlement,
152,,,21. DE ITALIA IN GALLIAS:,Durocortorum-Gesoriacum,,,,,Noviomago,Noviomagus,Noviomagus,m. p.|leug.,XXVII|XVIII,m. p. XXVII leug. XVIII,27.0,,https://pleiades.stoa.org/places/109218,49.5805595,3.001804,,settlement,
153,,,21. DE ITALIA IN GALLIAS:,Durocortorum-Gesoriacum,,,,,Ambianis,Ambianis,Samarobriva Ambianorum,m. p.|leug.,XXXIIII|XXIII,m. p. XXXIIII leug. XXIII,34.0,,https://pleiades.stoa.org/places/109321,49.8936075,2.297948,,settlement,
154,,,21. DE ITALIA IN GALLIAS:,Durocortorum-Gesoriacum,,,,,Pontibus,Pontes,Pontes,m. p.|leug.,XXXVI|XXIIII,m. p. XXXVI leug. XXIIII,36.0,,https://pleiades.stoa.org/places/109255,50.3100243,1.8933262,pons,settlement,
155,,,21. DE ITALIA IN GALLIAS:,Durocortorum-Gesoriacum,,,,,Gesoriaco,Gesoriacum,Gesoriacum/Bononia,m. p.|leug.,XXXVIIII|XXVI,m. p. XXXVIIII leug. XXVI,39.0,,https://pleiades.stoa.org/places/109008,50.7256746666667,1.6148316666666700,,settlement,
156,,,21. DE ITALIA IN GALLIAS:,Cavilunnum-Colonia Augusta Treverorum,,Item a Cavilunno Triveros.,,,Cavilunno,Cavilunnum,Cabilonnum,,,,0.0,,https://pleiades.stoa.org/places/177485,46.783372,4.856014500000000,,settlement,
157,,,21. DE ITALIA IN GALLIAS:,Cavilunnum-Colonia Augusta Treverorum,,,,,Triveros,Colonia Augusta Treverorum,Col. Augusta Treverorum,,,,0.0,,https://pleiades.stoa.org/places/108894,49.7523211724554,6.64163827338633,,settlement,
158,,363.4-5,21. DE ITALIA IN GALLIAS:,Durocortorum-Divodurum-1,sum-route-start,Item a Durocortoro Divodorum usque m. p. LXXIIII:,,,Durocortoro,Durocortorum,Durocortorum,,,,,,https://pleiades.stoa.org/places/108945,49.2539525,4.0332025,,,
159,,363.4-5,21. DE ITALIA IN GALLIAS:,Durocortorum-Divodurum-1,sum-route-end,Item a Durocortoro Divodorum usque m. p. LXXIIII:,,,Divodurum,Divodurum Mediomatricorum,Divodurum/Mettis,m. p.,LXXIIII, m. p. LXXIIII,,,https://pleiades.stoa.org/places/108927,49.1181355,6.1741555000000000,,,
160,,,21. DE ITALIA IN GALLIAS:,Durocortorum-Divodurum-1,,,,,,Durocortorum,Durocortorum,,,,0.0,,https://pleiades.stoa.org/places/108945,49.2539525,4.0332025,,settlement,
161,,,21. DE ITALIA IN GALLIAS:,Durocortorum-Divodurum-1,,,,,Basilia,Basilia,Basilia?,m. p.,X,m. p. X,10.0,,https://pleiades.stoa.org/places/108792,49.170668,4.463465,,station,
162,,,21. DE ITALIA IN GALLIAS:,Durocortorum-Divodurum-1,,,,,Axuena,Axuenna,Axuenna?,m. p.,XII,m. p. XII,12.0,,https://pleiades.stoa.org/places/108780,49.441308,4.039669,,station,I suspect this is in fact the Axona river
163,,,21. DE ITALIA IN GALLIAS:,Durocortorum-Divodurum-1,,,,,Virodunum,Virodunum,Viriodunum,m. p.,XVII,m. p. XVII,17.0,,https://pleiades.stoa.org/places/109435,49.1592415,5.383154,,settlement,
164,,,21. DE ITALIA IN GALLIAS:,Durocortorum-Divodurum-1,,,fines,,Fines,Fines,Ad Fines,m. p.,VIIII,m. p. VIIII,9.0,,https://pleiades.stoa.org/places/108726,49.3054919238917,3.6813130732459900,,settlement,
165,,,21. DE ITALIA IN GALLIAS:,Durocortorum-Divodurum-1,,,,,Ibliodurum,Ibliodurum,Ibliodurum?,m. p.,VI,m. p. VI,6.0,,https://pleiades.stoa.org/places/109060,49.09189,5.946934,,station,
166,,,21. DE ITALIA IN GALLIAS:,Durocortorum-Divodurum-1,,,,,Divodurum,Divodurum Mediomatricorum,Divodurum/Mettis,m. p.,VIII,m. p. VIII,8.0,,https://pleiades.stoa.org/places/108927,49.1181355,6.1741555000000000,,settlement,
167,,364.7-8,21. DE ITALIA IN GALLIAS:,Durocortorum-Divodurum-2,sum-route-start,Alio itinere a Durocortoro Divodorum usque m. p. LXXXVII sic:,,,Durocortoro,Durocortorum,Durocortorum,,,,,,https://pleiades.stoa.org/places/108945,49.2539525,4.0332025,,,
168,,364.7-8,21. DE ITALIA IN GALLIAS:,Durocortorum-Divodurum-2,sum-route-end,Alio itinere a Durocortoro Divodorum usque m. p. LXXXVII sic:,,,Divodurum,Divodurum Mediomatricorum,Divodurum/Mettis,m. p.,LXXXVII , m. p. LXXXVII ,,,https://pleiades.stoa.org/places/108927,49.1181355,6.1741555000000000,,,
169,,,21. DE ITALIA IN GALLIAS:,Durocortorum-Divodurum-2,,[Alio itinere a Durocortoro Divodorum usque m. p. LXXXVII sic:],,,,Durocortorum,Durocortorum,,,,0.0,,https://pleiades.stoa.org/places/108945,49.2539525,4.0332025,,settlement,
170,,,21. DE ITALIA IN GALLIAS:,Durocortorum-Divodurum-2,,,,,Fano Minervae,Fanum Minervae,Fanum Minervae,m. p.,XIIII,m. p. XIIII,14.0,,https://pleiades.stoa.org/places/114779,,,fanum,unlocated,
171,,,21. DE ITALIA IN GALLIAS:,Durocortorum-Divodurum-2,,,,,Ariola,Ariola,Ariola,m. p.,XVI,m. p. XVI,16.0,,https://pleiades.stoa.org/places/114766,,,,unlocated,
172,,,21. DE ITALIA IN GALLIAS:,Durocortorum-Divodurum-2,,,,,Caturicis,Caturrigis,Caturicis,m. p.,VIIII,m. p. VIIII,9.0,,https://pleiades.stoa.org/places/108872,48.773706,5.160545,,settlement,
173,,,21. DE ITALIA IN GALLIAS:,Durocortorum-Divodurum-2,,,,,Nasium,Nasium,Nasium,m. p.,VIIII,m. p. VIIII,9.0,,https://pleiades.stoa.org/places/109190,48.6324949397376,5.386603707798080,,settlement,
174,,,21. DE ITALIA IN GALLIAS:,Durocortorum-Divodurum-2,,,,,Tullum,Tullum,Tullum,m. p.,XVI,m. p. XVI,16.0,,https://pleiades.stoa.org/places/109396,48.679364,5.8947805000000000,,settlement,
175,,,21. DE ITALIA IN GALLIAS:,Durocortorum-Divodurum-2,,,,,Scarponna,Scarponna,Scarponna,m. p.,X,m. p. X,10.0,,https://pleiades.stoa.org/places/109329,48.847202,6.075221,,settlement,
176,,,21. DE ITALIA IN GALLIAS:,Durocortorum-Divodurum-2,,,,,Divodorum,Divodorum,Divodurum/Mettis,m. p.,XII,m. p. XII,12.0,,https://pleiades.stoa.org/places/108927,49.1181355,6.1741555000000000,,settlement,
177,,365.7-8,21. DE ITALIA IN GALLIAS:,Durocortorum-Treveri,sum-route-start,Item a Durocortoro Treveros usque,,,Durocortoro,Durocortorum,Durocortorum,,,,,,https://pleiades.stoa.org/places/108945,49.2539525,4.0332025,,,
178,,365.7-8,21. DE ITALIA IN GALLIAS:,Durocortorum-Treveri,sum-route-end,Item a Durocortoro Treveros usque,,,Treveros,Treveri,Treveri,,?,?,,,https://pleiades.stoa.org/places/109390,49.7535677891071,6.379439164203930,,,
179,,,21. DE ITALIA IN GALLIAS:,Durocortorum-Treveri,,,,,,Durocortorum,Durocortorum,,,,0.0,,https://pleiades.stoa.org/places/108945,49.2539525,4.0332025,,settlement,
180,,,21. DE ITALIA IN GALLIAS:,Durocortorum-Treveri,,,,,Vongo vicus ,Vongo/Vungum,Vungovicus,leug.,XXII,leug. XXII,22.0,,https://pleiades.stoa.org/places/109445,49.470043,4.665457,vicus,station,
181,,,21. DE ITALIA IN GALLIAS:,Durocortorum-Treveri,,,,,Epoisso vicus,Epoissum/Epossium,Epoissum,leug.,XXII,leug. XXII,22.0,,https://pleiades.stoa.org/places/108963,49.630979,5.167433,vicus,temple,
182,,,21. DE ITALIA IN GALLIAS:,Durocortorum-Treveri,,,,,Orolauno vicus,Orolaunum,Orolaunum,leug.,XX,leug. XX,20.0,,https://pleiades.stoa.org/places/109232,49.683775,5.81633,vicus,settlement,
183,,,21. DE ITALIA IN GALLIAS:,Durocortorum-Treveri,,,,,Andethannale vicus,Andethanna,Andethanna,leug.,XV,leug. XV,15.0,,https://pleiades.stoa.org/places/108743,49.651401,6.255967,vicus,settlement,
184,,,21. DE ITALIA IN GALLIAS:,Durocortorum-Treveri,,,,,Treveros civitas,Treveri,Treveri,leug.,XV,leug. XV,15.0,,https://pleiades.stoa.org/places/109390,49.7535677891071,6.379439164203930,civitas,people,
185,,366.5-6,21. DE ITALIA IN GALLIAS:,Augustodunum-Lutetia Parisiorum,sum-route-start,Ab Augustoduno Luticia Parisiorum m. p. CLXXXVII:,,,Augustoduno,Augustodunum,Augustodunum,,,,,,https://pleiades.stoa.org/places/177460,46.94724,4.2991775,,,
186,,366.5-6,21. DE ITALIA IN GALLIAS:,Augustodunum-Lutetia Parisiorum,sum-route-end,Ab Augustoduno Luticia Parisiorum m. p. CLXXXVII:,,,Luticia Parisiorum,Lutetia Parisiorum,Lutetia,m. p.,CLXXXVII, m. p. CLXXXVII,,,https://pleiades.stoa.org/places/109126,48.8544055,2.346168,,,
187,,,21. DE ITALIA IN GALLIAS:,Augustodunum-Lutetia Parisiorum,,,,,,Augustodunum,Augustodunum,,,,0.0,,https://pleiades.stoa.org/places/177460,46.94724,4.2991775,,settlement,
188,,,21. DE ITALIA IN GALLIAS:,Augustodunum-Lutetia Parisiorum,,,,,Alisincum,Alisincum,Alisincum,m. p.,XXII,m. p. XXII,22.0,,https://pleiades.stoa.org/places/181202,,,,unlocated,
189,,,21. DE ITALIA IN GALLIAS:,Augustodunum-Lutetia Parisiorum,,,,,Decetia,Decetia,Decetia,m. p.,XXIIII,m. p. XXIIII,24.0,,https://pleiades.stoa.org/places/138326,46.8282482222,3.461424944445,,settlement,
190,,,21. DE ITALIA IN GALLIAS:,Augustodunum-Lutetia Parisiorum,,,,,Nevirnum,Nevirnum,Noviodunum?/Nevirnum?,m. p.,XVI,m. p. XVI,16.0,,https://pleiades.stoa.org/places/138495,46.9871685,3.159551,,settlement,
191,,,21. DE ITALIA IN GALLIAS:,Augustodunum-Lutetia Parisiorum,,,,,Condate,Condate,Condate,m. p.,XXIIII,m. p. XXIIII,24.0,,https://pleiades.stoa.org/places/138306,47.440796,2.937154,,station,
192,,,21. DE ITALIA IN GALLIAS:,Augustodunum-Lutetia Parisiorum,,,,,Bribodorum,Brivodurum,Brivodurum,m. p.,XVI,m. p. XVI,16.0,,https://pleiades.stoa.org/places/138245,47.638518,2.738968,,station,
193,,,21. DE ITALIA IN GALLIAS:,Augustodunum-Lutetia Parisiorum,,,,,Belca,Belca,Belca,m. p.,XV,m. p. XV,15.0,,https://pleiades.stoa.org/places/138218,47.7527855,2.5156215,,station,
194,,,21. DE ITALIA IN GALLIAS:,Augustodunum-Lutetia Parisiorum,,,,,Canabum,Cenabum,Cenabum,m. p.,XXII,m. p. XXII,22.0,,https://pleiades.stoa.org/places/138281,47.9007265,1.9068675000000000,,settlement,
195,,,21. DE ITALIA IN GALLIAS:,Augustodunum-Lutetia Parisiorum,,,,,Salioclita,Salioclita,Salioclita?,m. p.,XXIIII,m. p. XXIIII,24.0,,https://pleiades.stoa.org/places/109318,48.361032,2.126375,,station,
196,,,21. DE ITALIA IN GALLIAS:,Augustodunum-Lutetia Parisiorum,,,,,Luticia,Lutetia Parisiorum,Lutetia,m. p.,XXIIII,m. p. XXIIII,24.0,,https://pleiades.stoa.org/places/109126,48.8544055,2.346168,,settlement,
197,,368.3.4,21. DE ITALIA IN GALLIAS:,Lugdunum-Argentorate,sum-route-start,A Lugduno caput Germaniarum Argentorato:,,,Lugduno,Lugdunum,Lugdunum,,,,,,https://pleiades.stoa.org/places/99003,52.2048978,4.3965975,,,
198,,368.3.4,21. DE ITALIA IN GALLIAS:,Lugdunum-Argentorate,sum-route-end,A Lugduno caput Germaniarum Argentorato:,,,Argentorato,Argentorate,Argentorate,,?,?,,,https://pleiades.stoa.org/places/108754,48.582416,7.747407,,,
199,,,21. DE ITALIA IN GALLIAS:,Lugdunum-Argentorate,,,,,,Lugdunum,Lugdunum,,,,0.0,,https://pleiades.stoa.org/places/99003,52.2048978,4.3965975,,settlement-modern,
200,,,21. DE ITALIA IN GALLIAS:,Lugdunum-Argentorate,,,,,Albanianis,Albanianae,Albaniana,m. p.,X,m. p. X,10.0,,https://pleiades.stoa.org/places/98908,52.128434,4.658012,,fort,
201,,,21. DE ITALIA IN GALLIAS:,Lugdunum-Argentorate,,,,,Traiecto,Traiectum,Traiectum,m. p.,XVII,m. p. XVII,17.0,,https://pleiades.stoa.org/places/99046,52.090934,5.1220985,,fortified-settlement,
202,,,21. DE ITALIA IN GALLIAS:,Lugdunum-Argentorate,,,,,Mannaricio,Manaritium,Mannaricium,m. p.,XV,m. p. XV,15.0,,https://pleiades.stoa.org/places/99006,51.9662405,5.424049500000000,,fort,
203,,,21. DE ITALIA IN GALLIAS:,Lugdunum-Argentorate,,,,,Carvone,Carvo,Carvo?,m. p.,XXII,m. p. XXII,22.0,,https://pleiades.stoa.org/places/98933,51.9313105,5.56848,,fort,
204,,,21. DE ITALIA IN GALLIAS:,Lugdunum-Argentorate,,,,,Harenatio,Harenatium,Harenatium,m. p.,XXII,m. p. XXII,22.0,,https://pleiades.stoa.org/places/98976,51.812301,6.125456,,fort,
205,,,21. DE ITALIA IN GALLIAS:,Lugdunum-Argentorate,,,,,Burginatio,Burginatium,Burginatium,m. p.,VI,m. p. VI,6.0,,https://pleiades.stoa.org/places/108837,51.7268395,6.3059345,,fort,
206,,,21. DE ITALIA IN GALLIAS:,Lugdunum-Argentorate,,,,,Colonia Traiana,Colonia Ulpia Traiana,Col. Ulpia Traiana/Tricensimae,m. p.,V,m. p. V,5.0,,https://pleiades.stoa.org/places/108896,51.6679345,6.4481775,colonia,settlement,
207,,,21. DE ITALIA IN GALLIAS:,Lugdunum-Argentorate,,,,,Veteribus,Vetera,Castra Vetera,m. p.,∞,m. p. ∞,0.0,,https://pleiades.stoa.org/places/108867,51.646389,6.469989,castra,fort,
208,,,21. DE ITALIA IN GALLIAS:,Lugdunum-Argentorate,,,,,Calone,Calo,Calo?,m. p.,XVIII,m. p. XVIII,18.0,,https://pleiades.stoa.org/places/108849,51.569108,6.582542,,fort,
209,,,21. DE ITALIA IN GALLIAS:,Lugdunum-Argentorate,,,,,Novesiae,Novaesium,Novaesium,m. p.,XVIII,m. p. XVIII,18.0,,https://pleiades.stoa.org/places/109215,51.183889,6.721944,,fort,
210,,,21. DE ITALIA IN GALLIAS:,Lugdunum-Argentorate,,,,,Colonia Agrippina,Colonia Agrippina,Ara Ubiorum/Col. Claudia Ara Agrippinensium,m. p.,XVI,m. p. XVI,16.0,,https://pleiades.stoa.org/places/108751,50.940662,6.959906500000000,colonia,settlement,
211,,,21. DE ITALIA IN GALLIAS:,Lugdunum-Argentorate,,,,,Bonna,Bonna,Bonna,m. p.,XI,m. p. XI,11.0,,https://pleiades.stoa.org/places/108818,50.732632,7.096251,,fort,
212,,,21. DE ITALIA IN GALLIAS:,Lugdunum-Argentorate,,,,,Antunnaco,Antunnacum,Antunnacum,m. p.,XVII,m. p. XVII,17.0,,https://pleiades.stoa.org/places/108746,50.439196,7.406147,,settlement,
213,,,21. DE ITALIA IN GALLIAS:,Lugdunum-Argentorate,,,,,Confluentibus,Confluentes,Confluentes,m. p.,VIII,m. p. VIII,8.0,,https://pleiades.stoa.org/places/108903,50.356728,7.599486,,settlement,
214,,,21. DE ITALIA IN GALLIAS:,Lugdunum-Argentorate,,,,,Vinco,Bingium,Bingium,m. p.,XXVI,m. p. XXVI,26.0,,https://pleiades.stoa.org/places/108809,49.96790555,7.89377555,,settlement,
215,,,21. DE ITALIA IN GALLIAS:,Lugdunum-Argentorate,,,,,Noviomago,Noviomagus,Noviomagus Treverorum,m. p.,XXXIIII,m. p. XXXIIII,34.0,,https://pleiades.stoa.org/places/109223,49.85245138685,6.89463919029,,station,
216,,,21. DE ITALIA IN GALLIAS:,Lugdunum-Argentorate,,,,,Treveros,Treveri,Treveri,m. p.,XIII,m. p. XIII,13.0,,https://pleiades.stoa.org/places/109390,49.7535677891071,6.379439164203930,,people,"Obviously this is Augusta Treverorum, but it is indicates with the people name"
217,,,21. DE ITALIA IN GALLIAS:,Lugdunum-Argentorate,,,,,Divodorum,Divodurum Mediomatricorum,Divodurum/Mettis,m. p.,XXXIIII,m. p. XXXIIII,34.0,,https://pleiades.stoa.org/places/108927,49.1181355,6.1741555000000000,,settlement,
218,,,21. DE ITALIA IN GALLIAS:,Lugdunum-Argentorate,,,,,Ponte Sarvix,Pons Saravi,Pons Saravi,m. p.,XXIIII,m. p. XXIIII,24.0,,https://pleiades.stoa.org/places/109254,48.734948,7.051854,pons,settlement,
219,,,21. DE ITALIA IN GALLIAS:,Lugdunum-Argentorate,,,,,Argentorato,Argentorate,Argentorate,m. p.,XXII,m. p. XXII,22.0,,https://pleiades.stoa.org/places/108754,48.582416,7.747407,,fort,
220,,372.3,21. DE ITALIA IN GALLIAS:,Treveri-Colonia Agrippina,sum-route-start,A Treveros Agrippinam leug. LXVII sic:,,,Treveros,Treveri,Treveri,,,,,,https://pleiades.stoa.org/places/109390,49.7535677891071,6.379439164203930,,,
221,,372.3,21. DE ITALIA IN GALLIAS:,Treveri-Colonia Agrippina,sum-route-end,A Treveros Agrippinam leug. LXVII sic:,,,Agrippinam,Colonia Agrippina,Ara Ubiorum/Col. Claudia Ara Agrippinensium,leug.,leug LXVII,leug. LXVII,,,https://pleiades.stoa.org/places/108751,50.940662,6.959906500000000,,,
222,,,21. DE ITALIA IN GALLIAS:,Treveri-Colonia Agrippina,,,,,,Treveri,Treveri,,,,0.0,,https://pleiades.stoa.org/places/109390,49.7535677891071,6.379439164203930,,people,
223,,,21. DE ITALIA IN GALLIAS:,Treveri-Colonia Agrippina,,,,,Beda vicus,Beda vicis,Beda,leug.,XII,leug. XII,12.0,,https://pleiades.stoa.org/places/108798,49.97438103065,6.523513912665,vicus,settlement,
224,,,21. DE ITALIA IN GALLIAS:,Treveri-Colonia Agrippina,,,,,Ausava vicus,Ausava vicus,Ausava,leug.,XII,leug. XII,12.0,,https://pleiades.stoa.org/places/896552547,,,vicus,unlocated,
225,,,21. DE ITALIA IN GALLIAS:,Treveri-Colonia Agrippina,,,,,Egorigio vicus ,Icorigium,Icorigium,leug.,XII,leug. XII,12.0,,https://pleiades.stoa.org/places/109062,50.34451669345,6.581231584695000,vicus,settlement,
226,,,21. DE ITALIA IN GALLIAS:,Treveri-Colonia Agrippina,,,,,Marcomago vicus,Marcomagus vicus,Marcomagus?,leug.,VIII,leug. VIII,8.0,,https://pleiades.stoa.org/places/109141,50.4772858,6.6220457,vicus,settlement,
227,,,21. DE ITALIA IN GALLIAS:,Treveri-Colonia Agrippina,,,,,Belgica,Belgica,Belgica,leug.,VIII,leug. VIII,8.0,,https://pleiades.stoa.org/places/108801,50.626011,6.783363,,settlement,
228,,,21. DE ITALIA IN GALLIAS:,Treveri-Colonia Agrippina,,,,,Tolbiaco vicus Sopenorum,Tolbiacum,Tolbiacum,leug.,X,leug. X,10.0,,https://pleiades.stoa.org/places/109382,50.6912725,6.647617,vicus,settlement,
229,,,21. DE ITALIA IN GALLIAS:,Treveri-Colonia Agrippina,,,,,Agrippina civitas,Colonia Agrippina,Ara Ubiorum/Col. Claudia Ara Agrippinensium,leug.,XVI,leug. XVI,16.0,,https://pleiades.stoa.org/places/108751,50.940662,6.959906500000000,civitas,settlement,
230,,374.1,21. DE ITALIA IN GALLIAS:,Treveri-Argentorate,sum-route-start,Item a Treveris Argentorato m. p. CXXVIII:,,,Treveris,Treveri,Treveri,,,,,,https://pleiades.stoa.org/places/109390,49.7535677891071,6.379439164203930,,,
231,,374.1,21. DE ITALIA IN GALLIAS:,Treveri-Argentorate,sum-route-end,Item a Treveris Argentorato m. p. CXXVIII:,,,Argentorato,Argentorate,Argentorate,m. p.,CXXVIII, m. p. CXXVIII,,,https://pleiades.stoa.org/places/108754,48.582416,7.747407,,,
232,,,21. DE ITALIA IN GALLIAS:,Treveri-Argentorate,,,,,,Treveri,Treveri,,,,0.0,,https://pleiades.stoa.org/places/109390,49.7535677891071,6.379439164203930,,people,
233,,,21. DE ITALIA IN GALLIAS:,Treveri-Argentorate,,,,,Baudobrica,Baudobriga,Bodobrica,m. p.,XVIII,m. p. XVIII,18.0,,https://pleiades.stoa.org/places/108817,50.2310402666667,7.591762433333330,,fort-2,
234,,,21. DE ITALIA IN GALLIAS:,Treveri-Argentorate,,,,,Salisione,Salisio,Salisio,m. p.,XXII,m. p. XXII,22.0,,https://pleiades.stoa.org/places/109319,50.205045,7.63308,,station,
235,,,21. DE ITALIA IN GALLIAS:,Treveri-Argentorate,,,,,Vingio,Bingium,Bingium,m. p.,XXIII,m. p. XXIII,23.0,,https://pleiades.stoa.org/places/108809,49.96790555,7.89377555,,settlement,
236,,,21. DE ITALIA IN GALLIAS:,Treveri-Argentorate,,,,,Mogontiaco,Mogontiacum,Mogontiacum,m. p.,XII,m. p. XII,12.0,,https://pleiades.stoa.org/places/109169,49.998912,8.273869,,settlement,
237,,,21. DE ITALIA IN GALLIAS:,Treveri-Argentorate,,,,,Bormitomago,Borbetomagus,Borbetomagus,m. p.,XVI,m. p. XVI,16.0,,https://pleiades.stoa.org/places/108820,49.630359,8.3588465,,settlement,
238,,,21. DE ITALIA IN GALLIAS:,Treveri-Argentorate,,,,,Noviomago,Noviomagus,Noviomagus/Nemetae,m. p.,XVIII,m. p. XVIII,18.0,,https://pleiades.stoa.org/places/109224,49.3172545,8.436718000000000,,settlement,
239,,,21. DE ITALIA IN GALLIAS:,Treveri-Argentorate,,,,,Argentorato,Argentorate,Argentorate,m. p.,XVIIII,m. p. XVIIII,19.0,,https://pleiades.stoa.org/places/108754,48.582416,7.747407,,fort,
240,,375.1-2,21. DE ITALIA IN GALLIAS:,Colonia Traiana-Colonia Agrippina,sum-route-start,Item a Colonia Traiana Coloniam Agrippinam m. p. LXXI:,,,Colonia Traiana,Colonia Ulpia Traiana,Col. Ulpia Traiana/Tricensimae,,,,,,https://pleiades.stoa.org/places/108896,51.6679345,6.4481775,,,
241,,375.1-2,21. DE ITALIA IN GALLIAS:,Colonia Traiana-Colonia Agrippina,sum-route-end,Item a Colonia Traiana Coloniam Agrippinam m. p. LXXI:,,,Coloniam Agrippinam,Colonia Agrippina,Ara Ubiorum/Col. Claudia Ara Agrippinensium,m. p.,LXXI, m. p. LXXI,,,https://pleiades.stoa.org/places/108751,50.940662,6.959906500000000,,,
242,,,21. DE ITALIA IN GALLIAS:,Colonia Traiana-Colonia Agrippina,,,,,,Colonia Ulpia Traiana,Col. Ulpia Traiana/Tricensimae,,,,0.0,,https://pleiades.stoa.org/places/108896,51.6679345,6.4481775,colonia,settlement,
243,,,21. DE ITALIA IN GALLIAS:,Colonia Traiana-Colonia Agrippina,,,,,Mediolano,Mediolanum,Mediolanum,m. p.,VIII,m. p. VIII,8.0,,https://pleiades.stoa.org/places/172148,,,,unlocated,Uncertain association with Pleiades
244,,,21. DE ITALIA IN GALLIAS:,Colonia Traiana-Colonia Agrippina,,,,,Sablonibus,Sablones,Sablones?,m. p.,VIII,m. p. VIII,8.0,,https://pleiades.stoa.org/places/109300,51.372731,6.172374,,settlement,
245,,,21. DE ITALIA IN GALLIAS:,Colonia Traiana-Colonia Agrippina,,,,,Mederiacum,Mederiacum,Mederiacum,m. p.,X,m. p. X,10.0,,https://pleiades.stoa.org/places/109152,51.157771,6.018727,,settlement,
246,,,21. DE ITALIA IN GALLIAS:,Colonia Traiana-Colonia Agrippina,,,,,Teudurum,Theudurum,Teudurum?,m. p.,VIII,m. p. VIII,8.0,,https://pleiades.stoa.org/places/109373,51.014249,5.902303,,settlement,
247,,,21. DE ITALIA IN GALLIAS:,Colonia Traiana-Colonia Agrippina,,,,,Coriovallum,Coriovallum,Coriovallum,m. p.,VII,m. p. VII,7.0,,https://pleiades.stoa.org/places/108908,50.883046,5.980935,,settlement,
248,,,21. DE ITALIA IN GALLIAS:,Colonia Traiana-Colonia Agrippina,,,,,Iuliaco,Iuliacum,Iuliacum,m. p.,XII,m. p. XII,12.0,,https://pleiades.stoa.org/places/109068,50.921007,6.361194,,settlement,
249,,,21. DE ITALIA IN GALLIAS:,Colonia Traiana-Colonia Agrippina,,,,,Tiberiacum,Tiberiacum,Tiberiacum?,m. p.,VIII,m. p. VIII,8.0,,https://pleiades.stoa.org/places/109378,50.9438515,6.622018,,settlement,
250,,,21. DE ITALIA IN GALLIAS:,Colonia Traiana-Colonia Agrippina,,,,,Colonia Agrippina,Colonia Agrippina,Col. Ulpia Traiana/Tricensimae,m. p.,X,m. p. X,10.0,,https://pleiades.stoa.org/places/108896,51.6679345,6.4481775,colonia,settlement,
251,,376.2-3,21. DE ITALIA IN GALLIAS:,Portus Gesoricensi-Bagacum,sum-route-start,Item a portu Gesoricensi Bagacum  usque m. p. LXXXIII:,,,portu Gesoricensi,Gesoriacum?,Gesoriacum/Bononia,,,,,,https://pleiades.stoa.org/places/109008,50.7256746666667,1.6148316666666700,,,
252,,376.2-3,21. DE ITALIA IN GALLIAS:,Portus Gesoricensi-Bagacum,sum-route-end,Item a portu Gesoricensi Bagacum  usque m. p. LXXXIII:,,,Bagacum,Bagacum Nerviorum,Bagacum,m. p.,LXXXIII, m. p. LXXXIII,,,https://pleiades.stoa.org/places/108788,50.2977855,3.792415,,,
253,,,21. DE ITALIA IN GALLIAS:,Portus Gesoricensi-Bagacum,,,,,,Gesoriacum?,Gesoriacum/Bononia,,,,0.0,,https://pleiades.stoa.org/places/109008,50.7256746666667,1.6148316666666700,portus,settlement,
254,,,21. DE ITALIA IN GALLIAS:,Portus Gesoricensi-Bagacum,,,,,Tarvenna,Taverna,Tarvenna,m. p.,XVIII,m. p. XVIII,18.0,,https://pleiades.stoa.org/places/109366,50.635487,2.256822,,settlement,"There is also a settlement called Taberna, but the consensus seems to be on Tarvenna"
255,,,21. DE ITALIA IN GALLIAS:,Portus Gesoricensi-Bagacum,,,,,Castello,Castellum Menapiorum,Castellum Menapiorum,m. p.,VIIII,m. p. VIIII,9.0,,https://pleiades.stoa.org/places/108865,50.799218,2.486896,,settlement,
256,,,21. DE ITALIA IN GALLIAS:,Portus Gesoricensi-Bagacum,,,,,Viroviacum,Viroviacum,Viroviacum,m. p.,XVI,m. p. XVI,16.0,,https://pleiades.stoa.org/places/109439,50.7792295,3.0440690000000000,,settlement,
257,,,21. DE ITALIA IN GALLIAS:,Portus Gesoricensi-Bagacum,,,,,Turnacum,Turnacum,Turnacum,m. p.,XVI,m. p. XVI,16.0,,https://pleiades.stoa.org/places/109398,50.605679,3.3882855,,settlement,
258,,,21. DE ITALIA IN GALLIAS:,Portus Gesoricensi-Bagacum,,,,,Pontes Caldis,Ponte Scaldis,‘Pontes Caldis’,m. p.,XII,m. p. XII,12.0,,https://pleiades.stoa.org/places/109256,50.421832,3.561866,pons,settlement,
259,,,21. DE ITALIA IN GALLIAS:,Portus Gesoricensi-Bagacum,,,,,Bagacum,Bagacum Nerviorum,Bagacum,m. p.,XII,m. p. XII,12.0,,https://pleiades.stoa.org/places/108788,50.2977855,3.792415,,settlement,
260,,377.2-3,21. DE ITALIA IN GALLIAS:,Castellum Menapiorum-Turnacum,sum-route-start,A Castello per conpendium Turnacum usque m. p. XXXVIII:,,,Castello,Castellum Menapiorum,Castellum Menapiorum,,,,,,https://pleiades.stoa.org/places/108865,50.799218,2.486896,,,
261,,377.2-3,21. DE ITALIA IN GALLIAS:,Castellum Menapiorum-Turnacum,sum-route-end,A Castello per conpendium Turnacum usque m. p. XXXVIII:,,,Turnacum,Turnacum,Turnacum,m. p.,XXXVIII, m. p. XXXVIII,,,https://pleiades.stoa.org/places/109398,50.605679,3.3882855,,,
262,,,21. DE ITALIA IN GALLIAS:,Castellum Menapiorum-Turnacum,,,per compendium,,,Castellum Menapiorum,Castellum Menapiorum,,,,0.0,,https://pleiades.stoa.org/places/108865,50.799218,2.486896,castellum,settlement,
263,,,21. DE ITALIA IN GALLIAS:,Castellum Menapiorum-Turnacum,,,,,Minariacum,Minariacum,Minariacum?,m. p.,XI,m. p. XI,11.0,,https://pleiades.stoa.org/places/109165,50.644574,2.721531,,settlement,
264,,,21. DE ITALIA IN GALLIAS:,Castellum Menapiorum-Turnacum,,,,,Turnacum,Turnacum,Turnacum,m. p.,XXVII,m. p. XXVII,27.0,,https://pleiades.stoa.org/places/109398,50.605679,3.3882855,,settlement,
265,,377.6,21. DE ITALIA IN GALLIAS:,Castellum-Colonia Agrippina,sum-route-start,A Castello Colonia m. p. CLXXII:,,,Castello,Castellum Menapiorum,Castellum Menapiorum,,,,,,https://pleiades.stoa.org/places/108865,50.799218,2.486896,,,
266,,377.6,21. DE ITALIA IN GALLIAS:,Castellum-Colonia Agrippina,sum-route-end,A Castello Colonia m. p. CLXXII:,,,Colonia,Colonia Agrippina,Ara Ubiorum/Col. Claudia Ara Agrippinensium,m. p.,CLXXII, m. p. CLXXII,,,https://pleiades.stoa.org/places/108751,50.940662,6.959906500000000,,,
267,,,21. DE ITALIA IN GALLIAS:,Castellum-Colonia Agrippina,,,,,,Castellum Menapiorum,Castellum Menapiorum,,,,0.0,,https://pleiades.stoa.org/places/108865,50.799218,2.486896,castellum,settlement,
268,,,21. DE ITALIA IN GALLIAS:,Castellum-Colonia Agrippina,,,,,Minariacum,Minariacum,Minariacum?,m. p.,XI,m. p. XI,11.0,,https://pleiades.stoa.org/places/109165,50.644574,2.721531,,settlement,
269,,,21. DE ITALIA IN GALLIAS:,Castellum-Colonia Agrippina,,,,,Nemetacum,Nemetacum,Nemetacum,m. p.,XVIIII,m. p. XVIIII,19.0,,https://pleiades.stoa.org/places/109194,50.2927655,2.778586,,settlement,
270,,,21. DE ITALIA IN GALLIAS:,Castellum-Colonia Agrippina,,,,,Camaracum,Camaracum,Camaracum,m. p.,XIIII,m. p. XIIII,14.0,,https://pleiades.stoa.org/places/108850,50.175165,3.234282,,settlement,
271,,,21. DE ITALIA IN GALLIAS:,Castellum-Colonia Agrippina,,,,,Bagacum,Bagacum Nerviorum,Bagacum,m. p.,XVIII,m. p. XVIII,18.0,,https://pleiades.stoa.org/places/108788,50.2977855,3.792415,,settlement,
272,,,21. DE ITALIA IN GALLIAS:,Castellum-Colonia Agrippina,,,,,Vodgoriacum,Vodgoriacum,Vodgoriacum,m. p.,XII,m. p. XII,12.0,,https://pleiades.stoa.org/places/109441,50.413173,4.15025,,settlement,
273,,,21. DE ITALIA IN GALLIAS:,Castellum-Colonia Agrippina,,,,,Geminicum,Geminiacus vicus,Geminiacum?,m. p.,X,m. p. X,10.0,,https://pleiades.stoa.org/places/109003,50.51379,4.432159,,settlement,
274,,,21. DE ITALIA IN GALLIAS:,Castellum-Colonia Agrippina,,,,,Perniciacum,Perniciacum,Perniciacum?,m. p.,XXII,m. p. XXII,22.0,,https://pleiades.stoa.org/places/109245,50.628114,5.144889,,settlement,
275,,,21. DE ITALIA IN GALLIAS:,Castellum-Colonia Agrippina,,,,,Aduaga Tungrorum,Aduatuca Tungrorum,Atuatuca,m. p.,XIIII,m. p. XIIII,14.0,,https://pleiades.stoa.org/places/108765,50.7806267,5.4639172,,settlement,
276,,,21. DE ITALIA IN GALLIAS:,Castellum-Colonia Agrippina,,,,,Coriovallum,Coriovallum,Coriovallum,m. p.,XVI,m. p. XVI,16.0,,https://pleiades.stoa.org/places/108908,50.883046,5.980935,,settlement,
277,,,21. DE ITALIA IN GALLIAS:,Castellum-Colonia Agrippina,,,,,Iuliacum,Iuliacum,Iuliacum,m. p.,XVIII,m. p. XVIII,18.0,,https://pleiades.stoa.org/places/109068,50.921007,6.361194,,settlement,
278,,,21. DE ITALIA IN GALLIAS:,Castellum-Colonia Agrippina,,,,,Colonia,Colonia Agrippina,Ara Ubiorum/Col. Claudia Ara Agrippinensium,m. p.,XVIII,m. p. XVIII,18.0,,https://pleiades.stoa.org/places/108751,50.940662,6.959906500000000,colonia,settlement,
279,,378.9,21. DE ITALIA IN GALLIAS:,Taverna-Turnacum,sum-route-start,Item a Tarvenna Turnacum m. p. XLVIIII:,,,Tarvenna,Taverna,Tarvenna,,,,,,https://pleiades.stoa.org/places/109366,50.635487,2.256822,,,
280,,378.9,21. DE ITALIA IN GALLIAS:,Taverna-Turnacum,sum-route-end,Item a Tarvenna Turnacum m. p. XLVIIII:,,,Turnacum,Turnacum,Turnacum,m. p.,XLVIIII, m. p. XLVIIII,,,https://pleiades.stoa.org/places/109398,50.605679,3.3882855,,,
281,,,21. DE ITALIA IN GALLIAS:,Taverna-Turnacum,,,,,,Taverna,Tarvenna,,,,0.0,,https://pleiades.stoa.org/places/109366,50.635487,2.256822,,settlement,
282,,,21. DE ITALIA IN GALLIAS:,Taverna-Turnacum,,,,,Nemetacum,Nemetacum,Nemetacum,m. p.,XXII,m. p. XXII,22.0,,https://pleiades.stoa.org/places/109194,50.2927655,2.778586,,settlement,
283,,,21. DE ITALIA IN GALLIAS:,Taverna-Turnacum,,,,,Turnacum,Turnacum,Turnacum,m. p.,XXVII,m. p. XXVII,27.0,,https://pleiades.stoa.org/places/109398,50.605679,3.3882855,,settlement,
284,,379.1,21. DE ITALIA IN GALLIAS:,Taverna-Durocortorum,sum-route-start,Item a Tarvenna Durocortoro m. p. CIII:,,,Tarvenna,Taverna,Tarvenna,,,,,,https://pleiades.stoa.org/places/109366,50.635487,2.256822,,,
285,,379.1,21. DE ITALIA IN GALLIAS:,Taverna-Durocortorum,sum-route-end,Item a Tarvenna Durocortoro m. p. CIII:,,,Durocortoro,Durocortorum,Durocortorum,m. p.,CIII, m. p. CIII,,,https://pleiades.stoa.org/places/108945,49.2539525,4.0332025,,,
286,,,21. DE ITALIA IN GALLIAS:,Taverna-Durocortorum,,,,,,Taverna,Tarvenna,,,,0.0,,https://pleiades.stoa.org/places/109366,50.635487,2.256822,,settlement,
287,,,21. DE ITALIA IN GALLIAS:,Taverna-Durocortorum,,,,,Nemetacum,Nemetacum,Nemetacum,m. p.,XXII,m. p. XXII,22.0,,https://pleiades.stoa.org/places/109194,50.2927655,2.778586,,settlement,
288,,,21. DE ITALIA IN GALLIAS:,Taverna-Durocortorum,,,,,Camaracum,Camaracum,Camaracum,m. p.,XIIII,m. p. XIIII,14.0,,https://pleiades.stoa.org/places/108850,50.175165,3.234282,,settlement,
289,,,21. DE ITALIA IN GALLIAS:,Taverna-Durocortorum,,,,,Augusta Veromandorum,Augusta Viromandorum,Augusta Viromanduorum,m. p.,XVIII,m. p. XVIII,18.0,,https://pleiades.stoa.org/places/108774,49.847952,3.2891755,,settlement,
290,,,21. DE ITALIA IN GALLIAS:,Taverna-Durocortorum,,,contra,,Contra Aginnum,Contra Aginnum,Contra Aginnum,m. p.,XIII,m. p. XIII,13.0,,https://pleiades.stoa.org/places/108905,49.628457,3.279702,,settlement,
291,,,21. DE ITALIA IN GALLIAS:,Taverna-Durocortorum,,,,,Augusta Suessonum,Augusta Suessonum,Augusta Suessionum,m. p.,XII,m. p. XII,12.0,,https://pleiades.stoa.org/places/108772,49.380839,3.3258515000000000,,settlement,
292,,,21. DE ITALIA IN GALLIAS:,Taverna-Durocortorum,,,fines,,Fines,Fines,Ad Fines,m. p.,XIII,m. p. XIII,13.0,,https://pleiades.stoa.org/places/108726,49.3054919238917,3.6813130732459900,,settlement,
293,,,21. DE ITALIA IN GALLIAS:,Taverna-Durocortorum,,,,,Durocortoro,Durocortorum,Durocortorum,m. p.,XII,m. p. XII,12.0,,https://pleiades.stoa.org/places/108945,49.2539525,4.0332025,,settlement,
294,,379.9-10,21. DE ITALIA IN GALLIAS:,Nemetacum-Samarobriva,,Per conpendium a Nemetaco Samarabrivas m. p. XVI.,per compendium,,Nemetaco,Nemetacum,Nemetacum,,,,0.0,,https://pleiades.stoa.org/places/109194,50.2927655,2.778586,,settlement,
295,,379.9-10,21. DE ITALIA IN GALLIAS:,Nemetacum-Samarobriva,,,,,Samarabrivas,Samarobriva,Samarobriva Ambianorum,m. p.,XVI,m. p. XVI,16.0,,https://pleiades.stoa.org/places/109321,49.8936075,2.297948,,settlement,
296,,380.1,21. DE ITALIA IN GALLIAS:,Samarobriva-Augusta Suessonum,sum-route-start,A Samarobrivas Suessonas usque m. p. LXXXVIIII:,,,Samarobrivas,Samarobriva,Samarobriva Ambianorum,,,,,,https://pleiades.stoa.org/places/109321,49.8936075,2.297948,,,
297,,380.1,21. DE ITALIA IN GALLIAS:,Samarobriva-Augusta Suessonum,sum-route-end,A Samarobrivas Suessonas usque m. p. LXXXVIIII:,,,Suessonas,Augusta Suessonum,Augusta Suessionum,m. p.,LXXXVIIII, m. p. LXXXVIIII,,,https://pleiades.stoa.org/places/108772,49.380839,3.3258515000000000,,,
298,,,21. DE ITALIA IN GALLIAS:,Samarobriva-Augusta Suessonum,,,,,,Samarobriva,Samarobriva Ambianorum,,,,0.0,,https://pleiades.stoa.org/places/109321,49.8936075,2.297948,,settlement,
299,,,21. DE ITALIA IN GALLIAS:,Samarobriva-Augusta Suessonum,,,,,Curmiliaca,Curmiliaca,Curmiliaca,m. p.,XII,m. p. XII,12.0,,https://pleiades.stoa.org/places/108916,49.63959,2.193381,,station,
300,,,21. DE ITALIA IN GALLIAS:,Samarobriva-Augusta Suessonum,,,,,Caesaromago,Caesaromagus,Caesaromagus,m. p.,XIII,m. p. XIII,13.0,,https://pleiades.stoa.org/places/108844,49.4304035,2.081041,,settlement,
301,,,21. DE ITALIA IN GALLIAS:,Samarobriva-Augusta Suessonum,,,,,Litanobriga,Litanobriga,Litanobriga?,m. p.,XVIII,m. p. XVIII,18.0,,https://pleiades.stoa.org/places/109116,49.248168,2.430474,,settlement,
302,,,21. DE ITALIA IN GALLIAS:,Samarobriva-Augusta Suessonum,,,,,Augustomago,Augustomagus,Augustomagus,m. p.,IIII,m. p. IIII,4.0,,https://pleiades.stoa.org/places/108776,49.2051355,2.5859750000000000,,settlement,
303,,,21. DE ITALIA IN GALLIAS:,Samarobriva-Augusta Suessonum,,,,,Suessonas,Augusta Suessonum,Augusta Suessionum,m. p.,XXII,m. p. XXII,22.0,,https://pleiades.stoa.org/places/108772,49.380839,3.3258515000000000,,settlement,
304,,380.7-8,21. DE ITALIA IN GALLIAS:,Bagacum-Durocortorum,sum-route-start,Item a Bagaco Nerviorum Durocortoro Remorum usque m. p. LIII:,,,Bagaco Nerviorum,Bagacum,Bagacum,,,,,,https://pleiades.stoa.org/places/108788,50.2977855,3.792415,,,
305,,380.7-8,21. DE ITALIA IN GALLIAS:,Bagacum-Durocortorum,sum-route-end,Item a Bagaco Nerviorum Durocortoro Remorum usque m. p. LIII:,,,Durocortoro Remorum,Durocortorum,Durocortorum,m. p.,LIII, m. p. LIII,,,https://pleiades.stoa.org/places/108945,49.2539525,4.0332025,,,
306,,,21. DE ITALIA IN GALLIAS:,Bagacum-Durocortorum,,,,,,Bagacum Nerviorum,Bagacum,,,,0.0,,https://pleiades.stoa.org/places/108788,50.2977855,3.792415,,settlement,
307,,,21. DE ITALIA IN GALLIAS:,Bagacum-Durocortorum,,,,,Duronum,Duronum,Duronum,m. p.,XII,m. p. XII,12.0,,https://pleiades.stoa.org/places/108948,50.058266,3.926293,,settlement,
308,,,21. DE ITALIA IN GALLIAS:,Bagacum-Durocortorum,,,,,Verbino,Verbinum,Verbinum/Vironum,m. p.,X,m. p. X,10.0,,https://pleiades.stoa.org/places/109416,49.831065,3.905652,,temple,
309,,,21. DE ITALIA IN GALLIAS:,Bagacum-Durocortorum,,,,,Catusiacum,Catusiacum,Catusiacum?,m. p.,VI,m. p. VI,6.0,,https://pleiades.stoa.org/places/108873,49.702803,3.997433,,station,
310,,,21. DE ITALIA IN GALLIAS:,Bagacum-Durocortorum,,,,,Minatiacum,Minatiacum,Minatiacum,m. p.,VII,m. p. VII,7.0,,https://pleiades.stoa.org/places/109166,49.566031,4.054387,,temple,
311,,,21. DE ITALIA IN GALLIAS:,Bagacum-Durocortorum,,,,,Muenna,Axuenna,Axuenna?,m. p.,VIII,m. p. VIII,8.0,,https://pleiades.stoa.org/places/108780,49.441308,4.039669,,station,
312,,,21. DE ITALIA IN GALLIAS:,Bagacum-Durocortorum,,,,,Durocortoro,Durocortorum,Durocortorum,m. p.,X,m. p. X,10.0,,https://pleiades.stoa.org/places/108945,49.2539525,4.0332025,,settlement,
313,,381.7,21. DE ITALIA IN GALLIAS:,Caracotinum-Augustobona,sum-route-start,Item a Caracotino Augustobonam usque m. p. CLIII:,,,Caracotino,Caracotinum,Caracoticum,,,,,,https://pleiades.stoa.org/places/69484,49.507074,0.199338,,,
314,,381.7,21. DE ITALIA IN GALLIAS:,Caracotinum-Augustobona,sum-route-end,Item a Caracotino Augustobonam usque m. p. CLIII:,,,Augustobonam,Augustobona,Augustobona,m. p.,CLIII, m. p. CLIII,,,https://pleiades.stoa.org/places/108775,48.297473,4.074806,,,
315,,,21. DE ITALIA IN GALLIAS:,Caracotinum-Augustobona,,,,,,Caracotinum,Caracoticum,,,,0.0,,https://pleiades.stoa.org/places/69484,49.507074,0.199338,,settlement,
316,,,21. DE ITALIA IN GALLIAS:,Caracotinum-Augustobona,,,,,Iuliobona,Iuliobona,Iuliobona,m. p.,X,m. p. X,10.0,,https://pleiades.stoa.org/places/109069,49.5196055,0.53567465,,settlement,
317,,,21. DE ITALIA IN GALLIAS:,Caracotinum-Augustobona,,,,,Loium,Loium,Loium?,m. p.,VI,m. p. VI,6.0,,https://pleiades.stoa.org/places/109120,49.52349,0.72376,,settlement,
318,,,21. DE ITALIA IN GALLIAS:,Caracotinum-Augustobona,,,,,Ratomago,Rotomagus,Rotomagus,m. p.,XIIII,m. p. XIIII,14.0,,https://pleiades.stoa.org/places/109287,49.440841,1.096451,,settlement,
319,,,21. DE ITALIA IN GALLIAS:,Caracotinum-Augustobona,,,,,Ritumago,Ritumagus,Ritumagus,m. p.,VIIII,m. p. VIIII,9.0,,https://pleiades.stoa.org/places/114796,,,,unlocated,
320,,,21. DE ITALIA IN GALLIAS:,Caracotinum-Augustobona,,,,,Petromantalum,Petromantalium,Petromantulum?/Petromantalum?/Petrum Viaco,m. p.,XVI,m. p. XVI,16.0,,https://pleiades.stoa.org/places/114789,49.1203993,1.7710257,,unlocated,
321,,,21. DE ITALIA IN GALLIAS:,Caracotinum-Augustobona,,,,,Luticiam,Lutetia Parisiorum,Lutetia,m. p.,XVIIII,m. p. XVIIII,19.0,,https://pleiades.stoa.org/places/109126,48.8544055,2.346168,,settlement,
322,,,21. DE ITALIA IN GALLIAS:,Caracotinum-Augustobona,,,,,Metledo,Mellodunum,Metlosedum,m. p.,XVIII,m. p. XVIII,18.0,,https://pleiades.stoa.org/places/109162,48.541316,2.66025,,settlement,
323,,,21. DE ITALIA IN GALLIAS:,Caracotinum-Augustobona,,,,,Condate,Condate,Condate,m. p.,XV,m. p. XV,15.0,,https://pleiades.stoa.org/places/108900,48.3881951599477,2.9627035762527500,,settlement,
324,,,21. DE ITALIA IN GALLIAS:,Caracotinum-Augustobona,,,,,Agedincum,Agedincum,Agedincum,m. p.,XIII,m. p. XIII,13.0,,https://pleiades.stoa.org/places/108729,48.1978885,3.2855855,,settlement,
325,,,21. DE ITALIA IN GALLIAS:,Caracotinum-Augustobona,,,,,Glano,Cianum,Gianum,m. p.,XVII,m. p. XVII,17.0,,,,,,unknown,There may be an error in the OCR
326,,,21. DE ITALIA IN GALLIAS:,Caracotinum-Augustobona,,,,,Augustobona,Augustobona,Augustobona,m. p.,XVI,m. p. XVI,16.0,,https://pleiades.stoa.org/places/108775,48.297473,4.074806,,settlement,
327,,384.1-2,21. DE ITALIA IN GALLIAS:,Ratomagus-Lutetia Parisiorum,sum-route-start,Item a Ratomago Luticiam usque m. p. LXXVII:,,,Ratomago,Rotomagus,Rotomagus,,,,,,https://pleiades.stoa.org/places/109287,49.440841,1.096451,,,
328,,384.1-2,21. DE ITALIA IN GALLIAS:,Ratomagus-Lutetia Parisiorum,sum-route-end,Item a Ratomago Luticiam usque m. p. LXXVII:,,,Luticiam,Lutetia Parisiorum,Lutetia,m. p.,LXXVII, m. p. LXXVII,,,https://pleiades.stoa.org/places/109126,48.8544055,2.346168,,,
329,,,21. DE ITALIA IN GALLIAS:,Ratomagus-Lutetia Parisiorum,,,,,,Rotomagus?,Rotomagus,,,,0.0,,https://pleiades.stoa.org/places/109287,49.440841,1.096451,,settlement,
330,,,21. DE ITALIA IN GALLIAS:,Ratomagus-Lutetia Parisiorum,,,,,Vggate,Uggate,Uggate?,m. p.,VIIII,m. p. VIIII,9.0,,https://pleiades.stoa.org/places/109401,49.282859,1.017944,,settlement,
331,,,21. DE ITALIA IN GALLIAS:,Ratomagus-Lutetia Parisiorum,,,,,Mediolano Aulercorum,Mediolanum Aulercorum,Mediolanum Aulercorum,m. p.,XIIII,m. p. XIIII,14.0,,https://pleiades.stoa.org/places/109153,49.024342,1.1510120000000000,,settlement,
332,,,21. DE ITALIA IN GALLIAS:,Ratomagus-Lutetia Parisiorum,,,,,Durocasis,Durocasses,Durocasses,m. p.,XVII,m. p. XVII,17.0,,https://pleiades.stoa.org/places/108943,48.737951,1.361087,,settlement,
333,,,21. DE ITALIA IN GALLIAS:,Ratomagus-Lutetia Parisiorum,,,,,Dioduro,Divodurum,Ferme d’Ithe,m. p.,XXII,m. p. XXII,22.0,,https://pleiades.stoa.org/places/108928,48.791292737,1.88589518757,,"settlement, archaeological site",I wonder if this could be Dourdan?
334,,,21. DE ITALIA IN GALLIAS:,Ratomagus-Lutetia Parisiorum,,,,,Luticia,Lutetia Parisiorum,Lutetia,m. p.,XV,m. p. XV,15.0,,https://pleiades.stoa.org/places/109126,48.8544055,2.346168,,settlement,
335,,384.8-9,21. DE ITALIA IN GALLIAS:,Caesaromagus-Lutetia Parisiorum,sum-route-start,Item a Caesaromago Luticiam usque m. p. XLVI:,,,Caesaromago,Caesaromagus,Caesaromagus,,,,,,https://pleiades.stoa.org/places/108844,49.4304035,2.081041,,,
336,,384.8-9,21. DE ITALIA IN GALLIAS:,Caesaromagus-Lutetia Parisiorum,sum-route-end,Item a Caesaromago Luticiam usque m. p. XLVI:,,,Luticiam,Lutetia Parisiorum,Lutetia,m. p.,XLVI, m. p. XLVI,,,https://pleiades.stoa.org/places/109126,48.8544055,2.346168,,,
337,,,21. DE ITALIA IN GALLIAS:,Caesaromagus-Lutetia Parisiorum,,,,,,Caesaromagus,Caesaromagus,,,,0.0,,https://pleiades.stoa.org/places/79364,51.735893,0.469629,,settlement,There is no way this is the correct place
338,,,21. DE ITALIA IN GALLIAS:,Caesaromagus-Lutetia Parisiorum,,,,,Petromantalium,Petromantalium,Petromantulum?/Petromantalum?/Petrum Viaco,m. p.,XVII,m. p. XVII,17.0,,https://pleiades.stoa.org/places/114789,49.1203993,1.7710257,,unlocated,
339,,,21. DE ITALIA IN GALLIAS:,Caesaromagus-Lutetia Parisiorum,,,,,Brivaisare,Briva Isarae,Briva Isarae,m. p.,XIIII,m. p. XIIII,14.0,,https://pleiades.stoa.org/places/108827,49.048764,2.092931,,station,
340,,,21. DE ITALIA IN GALLIAS:,Caesaromagus-Lutetia Parisiorum,,,,,Luticia,Lutetia Parisiorum,Lutetia,m. p.,XV,m. p. XV,15.0,,https://pleiades.stoa.org/places/109126,48.8544055,2.346168,,settlement,
341,,384.13,21. DE ITALIA IN GALLIAS:,Iuliobona-Mediolanum,,Item a Iuliobona Mediolanum m. p. XXXIIII.,,,Iuliobona,Iuliobona,Iuliobona,,,,0.0,,https://pleiades.stoa.org/places/109069,49.5196055,0.53567465,,settlement,
342,,384.13,21. DE ITALIA IN GALLIAS:,Iuliobona-Mediolanum,,,,,Mediolanum,Mediolanum,Mediolanum Aulercorum,m. p.,XXXIIII,m. p. XXXIIII,34.0,,https://pleiades.stoa.org/places/109153,49.024342,1.1510120000000000,,settlement,
343,,385.1,21. DE ITALIA IN GALLIAS:,Iuliobona-Durocasses,sum-route-start,Item a Iuliobona Durocasis m. p. LXXVIII:,,,Iuliobona,Iuliobona,Iuliobona,,,,,,https://pleiades.stoa.org/places/109069,49.5196055,0.53567465,,,
344,,385.1,21. DE ITALIA IN GALLIAS:,Iuliobona-Durocasses,sum-route-end,Item a Iuliobona Durocasis m. p. LXXVIII:,,,Durocasis,Durocasses,Durocasses,m. p.,LXXVIII, m. p. LXXVIII,,,https://pleiades.stoa.org/places/108943,48.737951,1.361087,,,
345,,,21. DE ITALIA IN GALLIAS:,Iuliobona-Durocasses,,,,,,Iuliobona,Iuliobona,,,,0.0,,https://pleiades.stoa.org/places/109069,49.5196055,0.53567465,,settlement,
346,,,21. DE ITALIA IN GALLIAS:,Iuliobona-Durocasses,,,,,Brevodorum,Brevodurum,,m. p.,XVII,m. p. XVII,17.0,,,,,,unknown,There is a Brivodurum on Pleiades but the coordinates are totally off
347,,,21. DE ITALIA IN GALLIAS:,Iuliobona-Durocasses,,,,,Noviomago,Noviomagus,Noviomagus Lexoviorum,m. p.,XVII,m. p. XVII,17.0,,https://pleiades.stoa.org/places/69540,49.1459835,0.2279715,,settlement,
348,,,21. DE ITALIA IN GALLIAS:,Iuliobona-Durocasses,,,,,Condate,Condate,Condate,m. p.,XXIIII,m. p. XXIIII,24.0,,https://pleiades.stoa.org/places/108899,48.8290182353887,0.9674929660223610,,settlement,
349,,,21. DE ITALIA IN GALLIAS:,Iuliobona-Durocasses,,,,,Durocasis,Durocasses,Durocasses,m. p.,X,m. p. X,10.0,,https://pleiades.stoa.org/places/108943,48.737951,1.361087,,settlement,
350,,385.6-7,21. DE ITALIA IN GALLIAS:,Andemantunnum-Tullum,sum-route-start,Item ab Andemantunno Tullo Leucorum usque m. p. XLIII:,,,Andemantunno,Andemantunnum,Andematunnum,,,,,,https://pleiades.stoa.org/places/177441,47.864221,5.335214,,,
351,,385.6-7,21. DE ITALIA IN GALLIAS:,Andemantunnum-Tullum,sum-route-end,Item ab Andemantunno Tullo Leucorum usque m. p. XLIII:,,,Tullo Leucorum,Tullum,Tullum,m. p.,XLIII, m. p. XLIII,,,https://pleiades.stoa.org/places/109396,48.679364,5.8947805000000000,,,
352,,,21. DE ITALIA IN GALLIAS:,Andemantunnum-Tullum,,,,,,Andemantunnum,Andematunnum,,,,0.0,,https://pleiades.stoa.org/places/177441,47.864221,5.335214,,settlement,
353,,,21. DE ITALIA IN GALLIAS:,Andemantunnum-Tullum,,,,,Mosa,Mosa?,Mosa?,m. p.,XII,m. p. XII,12.0,,https://pleiades.stoa.org/places/109181,48.084681,5.547967,,station,
354,,,21. DE ITALIA IN GALLIAS:,Andemantunnum-Tullum,,,,,Solimariaca,Solimariaca,Solimariaca,m. p.,XVI,m. p. XVI,16.0,,https://pleiades.stoa.org/places/109348,48.403257,5.733986,,settlement,
355,,,21. DE ITALIA IN GALLIAS:,Andemantunnum-Tullum,,,,,Tullum,Tullum,Tullum,m. p.,XV,m. p. XV,15.0,,https://pleiades.stoa.org/places/109396,48.679364,5.8947805000000000,,settlement,
356,,386.1,21. DE ITALIA IN GALLIAS:,Antemantunnum-Cambate,sum-route-start,Item ab Antemantunno Cambatem m. p. CII:,,,Andemantunno,Andemantunnum,Andematunnum,,,,,,https://pleiades.stoa.org/places/177441,47.864221,5.335214,,,
357,,386.1,21. DE ITALIA IN GALLIAS:,Antemantunnum-Cambate,sum-route-end,Item ab Antemantunno Cambatem m. p. CII:,,,Cambatem,Cambate,Cambete,m. p.,CII, m. p. CII,,,https://pleiades.stoa.org/places/177486,47.690543,7.503772,,,
358,,,21. DE ITALIA IN GALLIAS:,Antemantunnum-Cambate,,,,,,Antemantunnum,Andematunnum,,,,0.0,,https://pleiades.stoa.org/places/177441,47.864221,5.335214,,settlement,
359,,,21. DE ITALIA IN GALLIAS:,Antemantunnum-Cambate,,,,,Varcia,Varcia,Varcia,m. p.,XVI,m. p. XVI,16.0,,https://pleiades.stoa.org/places/181224,,,,unlocated,
360,,,21. DE ITALIA IN GALLIAS:,Antemantunnum-Cambate,,,,,Vesentione,Vesentio,Vesontio,m. p.,XXIIII,m. p. XXIIII,24.0,,https://pleiades.stoa.org/places/177657,47.2372405,6.0279240000000000,,settlement,
361,,,21. DE ITALIA IN GALLIAS:,Antemantunnum-Cambate,,,,,Epamanduoduro,Epamanduodurum,Epamanduodurum,m. p.,XXXI,m. p. XXXI,31.0,,https://pleiades.stoa.org/places/177516,47.4507785,6.802052,,settlement,
362,,,21. DE ITALIA IN GALLIAS:,Antemantunnum-Cambate,,,,,Cambate,Cambate,Cambete,m. p.,XXXI,m. p. XXXI,31.0,,https://pleiades.stoa.org/places/177486,47.690543,7.503772,,station,
363,,386.6,21. DE ITALIA IN GALLIAS:,Alauna-Condate,sum-route-start,Item ab Alauna Condate m. p. LXXVII:,,,Alauna,Alauna,Alauna,,,,,,https://pleiades.stoa.org/places/69463,49.507826,-1.46282,,,
364,,386.6,21. DE ITALIA IN GALLIAS:,Alauna-Condate,sum-route-end,Item ab Alauna Condate m. p. LXXVII:,,,Condate,Condate,Condate,m. p.,LXXVII, m. p. LXXVII,,,https://pleiades.stoa.org/places/138306,47.440796,2.937154,,,
365,,,21. DE ITALIA IN GALLIAS:,Alauna-Condate,,,,,,Alauna,Alauna,,,,0.0,,https://pleiades.stoa.org/places/69463,49.507826,-1.46282,,settlement,
366,,,21. DE ITALIA IN GALLIAS:,Alauna-Condate,,,,,Cosedia,Cosedia,Cosedia/Constantia,m. p.,XX,m. p. XX,20.0,,https://pleiades.stoa.org/places/69494,49.0481625,-1.444318,,settlement,
367,,,21. DE ITALIA IN GALLIAS:,Alauna-Condate,,,,,Fano Martis,Fanum Martis,Fanum Martis/Civitas Coriosolitum,m. p.,XXXII,m. p. XXXII,32.0,,https://pleiades.stoa.org/places/69507,48.481251,-2.1680285,fanum,settlement,Route is totally off here
368,,,21. DE ITALIA IN GALLIAS:,Alauna-Condate,,,ad fines,,Ad Fines,Ad Fines,Ad Fines,m. p.,VII,m. p. VII,7.0,,,,,,unknown,
369,,,21. DE ITALIA IN GALLIAS:,Alauna-Condate,,,,,Condate,Condate,Condate Redonum,m. p.,XVIII,m. p. XVIII,18.0,,https://pleiades.stoa.org/places/69491,48.1112055,-1.6818915000000000,,settlement,