sequence-number,place_id,CTS URN,region,route_label,route_type,text_transcription,direction,direction_type,place_transcription,place_normalized,pleiades_label,distance_unit,distance_ancient,distance-ancient,distance_modern,revised_distance,place_uri,latitude,longitude,placetype,placetype_pleiades,comment
1,,231.8-10,7. ITEM DE PANNONIIS IN GALLIAS,Sirmium-Treveri,main-route,per mediterranea loca id est a Sirmi per Sopianas Treveros usque:,,,Sirmi,Sirmium,Sirmium,,,,,,https://pleiades.stoa.org/places/207447,44.966447,19.610106,,,
2,,231.8-10,7. ITEM DE PANNONIIS IN GALLIAS,Sirmium-Treveri,main-route,per mediterranea loca id est a Sirmi per Sopianas Treveros usque:,,,Treveros,Treveri,Treveri,,,,,,https://pleiades.stoa.org/places/109390,49.7535677891071,6.379439164203930,,,
3,,231.11,7. ITEM DE PANNONIIS IN GALLIAS,Sirmium-Lauriacum,sum-route-start,A Sirmi Lauriaco m. p. CCCCXXXVII,,,Sirmi,Sirmium,Sirmium,,,,,,https://pleiades.stoa.org/places/207447,44.966447,19.610106,,,
4,,231.11,7. ITEM DE PANNONIIS IN GALLIAS,Sirmium-Lauriacum,sum-route-end,A Sirmi Lauriaco m. p. CCCCXXXVII,,,Lauriaco,Lauriacum,Lauriacum,m. p.,CCCCXXXVII, m. p. CCCCXXXVII,,,https://pleiades.stoa.org/places/118802,48.2186795,14.470479000000000,,,
5,,232.1,7. ITEM DE PANNONIIS IN GALLIAS,Lauriacum-Augusta Vindelicorum,sum-route-start,,,,,Lauriacum,Lauriacum,,,,,,https://pleiades.stoa.org/places/118802,48.2186795,14.470479000000000,,,
6,,232.1,7. ITEM DE PANNONIIS IN GALLIAS,Lauriacum-Augusta Vindelicorum,sum-route-end,"Augusta Vindelicum m. p. CCXVI,",,,Augusta Vindelicum,Augusta Vindelicum/Aelia Augusta,Augusta Vindelicum/Aelia Augusta,m. p.,CCXVI,m. p. CCXVI,,,https://pleiades.stoa.org/places/118580,48.365463,10.894765,,,
7,,232.2,7. ITEM DE PANNONIIS IN GALLIAS,Augusta Vindelicorum-Ad Fines,sum-route-start,,,,, Augusta Vindelicum/Aelia Augusta,,,,,,,https://pleiades.stoa.org/places/118580,48.365463,10.894765,,,
8,,232.2,7. ITEM DE PANNONIIS IN GALLIAS,Augusta Vindelicorum-Ad Fines,sum-route-end,"Ad Fines m. p. CXXXVI,",,,Ad Fines,Fines,Ad Fines,m. p.,CXXXVI,m. p. CXXXVI,,,https://pleiades.stoa.org/places/187249,47.5950575,8.9574465,,,
9,,232.3,7. ITEM DE PANNONIIS IN GALLIAS,Ad Fines-Treveri,sum-route-start,,,,,Fines,Ad Fines,,,,,,https://pleiades.stoa.org/places/187249,47.5950575,8.9574465,,,
10,,232.3,7. ITEM DE PANNONIIS IN GALLIAS,Ad Fines-Treveri,sum-route-end,"Treveros leugas, non m. p., CCXXI:",,,Treveros,Treveri,Treveri,leugas,CCXXI, leugas non m. p. CCXXI,,,https://pleiades.stoa.org/places/109390,49.7535677891071,6.379439164203930,,,
11,,,7. ITEM DE PANNONIIS IN GALLIAS,Sirmium-Lauriacum,,,,,,Sirmium,Sirmium,,,,0.0,,https://pleiades.stoa.org/places/207447,44.966447,19.610106,,settlement,"There seems to be a conflation between the sub-itinerary Sirmi-Treveros, which is the larger one, and another sub-sub-itinerary, Sirmi-Lauriaco, which ends sooner"
12,,,7. ITEM DE PANNONIIS IN GALLIAS,Sirmium-Lauriacum,,,,,Vlmos,Ulmo,‘Ulmo’,m. p.,XXVI,m. p. XXVI,26.0,,https://pleiades.stoa.org/places/207525,45.16406,19.151556,,station,
13,,,7. ITEM DE PANNONIIS IN GALLIAS,Sirmium-Lauriacum,,,,,Civalis,Cibalae,Cibalae,m. p.,XXIII,m. p. XXIII,23.0,,https://pleiades.stoa.org/places/197207,45.291016,18.801056,,settlement,
14,,,7. ITEM DE PANNONIIS IN GALLIAS,Sirmium-Lauriacum,,,,,Mursa,Mursa,Mursa,m. p.,XXII,m. p. XXII,22.0,,https://pleiades.stoa.org/places/197389,45.560018,18.675749,,settlement,
15,,,7. ITEM DE PANNONIIS IN GALLIAS,Sirmium-Lauriacum,,,,,Antianis,Antianae,Antiana,m. p.,XXIIII,m. p. XXIIII,24.0,,https://pleiades.stoa.org/places/197120,45.804539,18.665075,,station,
16,,,7. ITEM DE PANNONIIS IN GALLIAS,Sirmium-Lauriacum,,,,,Suppianis,Sopianae,Sopianae,m. p.,XXX,m. p. XXX,30.0,,https://pleiades.stoa.org/places/197523,46.07335,18.228059,,settlement,
17,,,7. ITEM DE PANNONIIS IN GALLIAS,Sirmium-Lauriacum,,,,,Limusa,Limusa,Limusa,m. p.,XXII,m. p. XXII,22.0,,https://pleiades.stoa.org/places/197355,46.048273,17.800783,,settlement,
18,,,7. ITEM DE PANNONIIS IN GALLIAS,Sirmium-Lauriacum,,,,,Silicenis,Silacenae,‘Silicenis’,m. p.,XVI,m. p. XVI,16.0,,https://pleiades.stoa.org/places/197513,46.315505,17.410663,,station (road or coastal),
19,,,7. ITEM DE PANNONIIS IN GALLIAS,Sirmium-Lauriacum,,,,,Valco,Valco/Volgum,Volgum,m. p.,XXIIII,m. p. XXIIII,24.0,,https://pleiades.stoa.org/places/197585,46.71062925,17.2452968,,"settlement, fort",
20,,,7. ITEM DE PANNONIIS IN GALLIAS,Sirmium-Lauriacum,,,,,Mogetiana,Mogetianae,Moge(n)tiana,m. p.,XXX,m. p. XXX,30.0,,https://pleiades.stoa.org/places/197381,47.118283,17.314149,,settlement,
21,,,7. ITEM DE PANNONIIS IN GALLIAS,Sirmium-Lauriacum,,,,,Sabaria,Savaria,Savaria,m. p.,XXXVI,m. p. XXXVI,36.0,,https://pleiades.stoa.org/places/197498,47.235142,16.62192,,settlement,
22,,,7. ITEM DE PANNONIIS IN GALLIAS,Sirmium-Lauriacum,,,,,Scarabantia,Scarbantia,Scarbantia,m. p.,XXXIIII,m. p. XXXIIII,34.0,,https://pleiades.stoa.org/places/197501,47.684893,16.583036,,settlement,
23,,,7. ITEM DE PANNONIIS IN GALLIAS,Sirmium-Lauriacum,,,,,Muteno,Mutenum,‘Muteno’,m. p.,XII,m. p. XII,12.0,,https://pleiades.stoa.org/places/197393,47.936365,16.481762,,station,
24,,,7. ITEM DE PANNONIIS IN GALLIAS,Sirmium-Lauriacum,,,,,Vindomona,Vindobona,Vindobona,m. p.,XXII,m. p. XXII,22.0,,https://pleiades.stoa.org/places/128537,48.211345,16.373946,,fort,
25,,,7. ITEM DE PANNONIIS IN GALLIAS,Sirmium-Lauriacum,,,,,Comagenis,Comagenis/Commagena,Comagena,m. p.,XXIIII,m. p. XXIIII,24.0,,https://pleiades.stoa.org/places/128385,48.3310275,16.052051,,fort,
26,,,7. ITEM DE PANNONIIS IN GALLIAS,Sirmium-Lauriacum,,,,,Cetio,Cetium,Cetium,m. p.,XXIIII,m. p. XXIIII,24.0,,https://pleiades.stoa.org/places/118629,48.20473,15.622695,,settlement,
27,,,7. ITEM DE PANNONIIS IN GALLIAS,Sirmium-Lauriacum,,,,,Arlape,Arelapa,Ar(e)lape,m. p.,XXII,m. p. XXII,22.0,,https://pleiades.stoa.org/places/118571,48.212163,15.210423500000000,,fort,
28,,,7. ITEM DE PANNONIIS IN GALLIAS,Sirmium-Lauriacum,,,,,Loco Felicis,Locus Felicis,Lo(a)cus Felicis?,m. p.,XXVI,m. p. XXVI,26.0,,https://pleiades.stoa.org/places/118811,48.096382,14.799821,lacus,fort,
29,,,7. ITEM DE PANNONIIS IN GALLIAS,Sirmium-Lauriacum,,,,,Lauriaco,Lauriacum,Lauriacum,m. p.,XX,m. p. XX,20.0,,https://pleiades.stoa.org/places/118802,48.2186795,14.470479000000000,,fort,
30,,,7. ITEM DE PANNONIIS IN GALLIAS,Lauriacum-Augusta Vindelicorum,,,,,,Lauriacum,Lauriacum,,,,0.0,,https://pleiades.stoa.org/places/118802,48.2186795,14.470479000000000,,fort,
31,,,7. ITEM DE PANNONIIS IN GALLIAS,Lauriacum-Augusta Vindelicorum,,,,,Ovilavis,Ovilava,Ovilava,m. p.,XXVI,m. p. XXVI,26.0,,https://pleiades.stoa.org/places/118901,48.1733764179481,14.014603317327400,,settlement,
32,,,7. ITEM DE PANNONIIS IN GALLIAS,Lauriacum-Augusta Vindelicorum,,,,,Laciaco,Laciacom,‘Laciacis’,m. p.,XXXII,m. p. XXXII,32.0,,https://pleiades.stoa.org/places/187443,47.985451,13.419395,,station,
33,,,7. ITEM DE PANNONIIS IN GALLIAS,Lauriacum-Augusta Vindelicorum,,,,,Iovavi,Ivavum,Iuvavum,m. p.,XXVIII,m. p. XXVIII,28.0,,https://pleiades.stoa.org/places/187432,47.7991735,13.0455165,,settlement,
34,,,7. ITEM DE PANNONIIS IN GALLIAS,Lauriacum-Augusta Vindelicorum,,,,,Bidaio,Bedaium,*Bedaium,m. p.,XXXIII,m. p. XXXIII,33.0,,https://pleiades.stoa.org/places/187309,47.934824,12.477721,,settlement,
35,,,7. ITEM DE PANNONIIS IN GALLIAS,Lauriacum-Augusta Vindelicorum,,,,,Ponte Aeni,Pons Aeni,Pons Aeni,m. p.,XVIII,m. p. XVIII,18.0,,https://pleiades.stoa.org/places/187516,47.856079,12.124016,pons,settlement,
36,,,7. ITEM DE PANNONIIS IN GALLIAS,Lauriacum-Augusta Vindelicorum,,,,,Isinisca,Isinisca,Isinisca,m. p.,XX,m. p. XX,20.0,,https://pleiades.stoa.org/places/187426,47.920814,11.76939,,station,
37,,,7. ITEM DE PANNONIIS IN GALLIAS,Lauriacum-Augusta Vindelicorum,,,,,Ambre,Ambra,Ambrae,m. p.,XXXII,m. p. XXXII,32.0,,https://pleiades.stoa.org/places/118563,48.140949,11.202691,,station,
38,,,7. ITEM DE PANNONIIS IN GALLIAS,Lauriacum-Augusta Vindelicorum,,,,,Augusta Vindelicum,Augusta Vindelicum/Aelia Augusta,Augusta Vindelicum/Aelia Augusta,m. p.,XXVII,m. p. XXVII,27.0,,https://pleiades.stoa.org/places/118580,48.365463,10.894765,,settlement,
39,,,7. ITEM DE PANNONIIS IN GALLIAS,Augusta Vindelicorum-Ad Fines,,,,,,Augusta Vindelicum/Aelia Augusta,Augusta Vindelicum/Aelia Augusta,,,,0.0,,https://pleiades.stoa.org/places/118580,48.365463,10.894765,,settlement,
40,,,7. ITEM DE PANNONIIS IN GALLIAS,Augusta Vindelicorum-Ad Fines,,,,,Rostro Nemaviae,Rostrum Nemaviae,Rostrum Nemaviae,m. p.,XXV,m. p. XXV,25.0,,https://pleiades.stoa.org/places/187531,48.061146,10.63995,,fort,
41,,,7. ITEM DE PANNONIIS IN GALLIAS,Augusta Vindelicorum-Ad Fines,,,,,Campoduno,Cambodunum,Cambodunum (Raetia),m. p.,XXXII,m. p. XXXII,32.0,,https://pleiades.stoa.org/places/187335,47.727498,10.326578,,settlement,
42,,,7. ITEM DE PANNONIIS IN GALLIAS,Augusta Vindelicorum-Ad Fines,,,,,Vemania,Vemania,Vemania,m. p.,XV,m. p. XV,15.0,,https://pleiades.stoa.org/places/187609,47.6981400839287,10.067279542902200,,fort-2,
43,,,7. ITEM DE PANNONIIS IN GALLIAS,Augusta Vindelicorum-Ad Fines,,,,,Brigantia,Brigantium,Brigantium,m. p.,XXIIII,m. p. XXIIII,24.0,,https://pleiades.stoa.org/places/187325,47.503041,9.747061,,settlement,
44,,,7. ITEM DE PANNONIIS IN GALLIAS,Augusta Vindelicorum-Ad Fines,,,,,Arbore Felice,Arbor Felix,Arbor Felix,m. p.,XX,m. p. XX,20.0,,https://pleiades.stoa.org/places/187292,47.515071,9.436868,,settlement,
45,,,7. ITEM DE PANNONIIS IN GALLIAS,Augusta Vindelicorum-Ad Fines,,,ad fines,,Ad Fines,Fines,Ad Fines,m. p.,XX,m. p. XX,20.0,,https://pleiades.stoa.org/places/187249,47.5950575,8.9574465,,fort,
46,,,7. ITEM DE PANNONIIS IN GALLIAS,Ad Fines-Treveri,,,ad fines,,,Fines,Ad Fines,,,,0.0,,https://pleiades.stoa.org/places/187249,47.5950575,8.9574465,,fort,
47,,,7. ITEM DE PANNONIIS IN GALLIAS,Ad Fines-Treveri,,,,,Vindonissa,Vindonissa,Vindonissa,leugas|m. p.,?|XXX," leugas ? , m. p. XXX:",30.0,,https://pleiades.stoa.org/places/177661,47.478494,8.220204,,fort,
48,,,7. ITEM DE PANNONIIS IN GALLIAS,Ad Fines-Treveri,,,,,Arialbino,Arialbinnum,Arialbino,m. p.,XXIII,m. p. XXIII,23.0,,https://pleiades.stoa.org/places/181203,47.5674262052496,7.5439073379105,,unlocated,"Coordinates from Örberg, coming from Löhberg’s Index. Absent in Pleiades as far as I can see."
49,,,7. ITEM DE PANNONIIS IN GALLIAS,Ad Fines-Treveri,,,,,Monte Brisiaco,Mons Brisiacus,(Mons) Brisiacus,m. p.,XXX,m. p. XXX,30.0,,https://pleiades.stoa.org/places/109174,48.0286545,7.581259,mons,fort,
50,,,7. ITEM DE PANNONIIS IN GALLIAS,Ad Fines-Treveri,,,,,Argentorato,Argentorate,Argentorate,m. p.,XXXVIII,m. p. XXXVIII,38.0,,https://pleiades.stoa.org/places/108754,48.582416,7.747407,,fort,
51,,,7. ITEM DE PANNONIIS IN GALLIAS,Ad Fines-Treveri,,,,,Tabernis,Tres Tabernae,Tres Tabernae,m. p.,XIIII,m. p. XIIII,14.0,,https://pleiades.stoa.org/places/109389,48.741963,7.361647,,settlement,
52,,,7. ITEM DE PANNONIIS IN GALLIAS,Ad Fines-Treveri,,,,,Decem Pagis,Decempagi,Decem Pagi,m. p.,XX,m. p. XX,20.0,,https://pleiades.stoa.org/places/108921,48.78451,6.75762,,settlement,
53,,,7. ITEM DE PANNONIIS IN GALLIAS,Ad Fines-Treveri,,,,,Divodoro,Divodurum Mediomatricorum,Divodurum/Mettis,m. p.,XXXVIII,m. p. XXXVIII,38.0,,https://pleiades.stoa.org/places/108927,49.1181355,6.1741555000000000,,settlement,
54,,,7. ITEM DE PANNONIIS IN GALLIAS,Ad Fines-Treveri,,,,,?,Carausca? Ricciacum?,Caranusca?,m. p.,XII,m. p. XII,12.0,,https://pleiades.stoa.org/places/108857,49.406768,6.151663,,settlement,
55,,,7. ITEM DE PANNONIIS IN GALLIAS,Ad Fines-Treveri,,,,,Triveros,Treveri,Treveri,m. p.,XVI,m. p. XVI,16.0,,https://pleiades.stoa.org/places/109390,49.7535677891071,6.379439164203930,,people,
56,,241.1,7. ITEM DE PANNONIIS IN GALLIAS,Taurinum-Colonia Ulpia Traiana,main-route,Item per ripam PANNONIAE a Daurono in GALLIS ad leg. XXX usque:,per ripam,,Taurino,Taurinum,Taurunum,,,,0.0,,https://pleiades.stoa.org/places/207488,44.835966,20.411502,,fort,"This is in fact Laurino/Taurino. Again, unclear division. There seems to be an attempt at defining larger sub-itineraries upfront, but the language is unclear and there are other portions in the text"
57,,241.1,7. ITEM DE PANNONIIS IN GALLIAS,Taurinum-Colonia Ulpia Traiana,main-route,Item per ripam PANNONIAE a Daurono in GALLIS ad leg. XXX usque:,,,leg. XXX,Colonia Ulpia Traiana,Col. Ulpia Traiana/Tricensimae,,,,,,https://pleiades.stoa.org/places/108896,51.6679345,6.4481775,,,
58,,241.3,7. ITEM DE PANNONIIS IN GALLIAS,Taurinum-Lauriacum,sum-route-start,A Taurino Lauriaco m. p. DLXXXVII,,,Taurino,Taurinum,Taurunum,,,,,,https://pleiades.stoa.org/places/207488,44.835966,20.411502,,,
59,,241.3,7. ITEM DE PANNONIIS IN GALLIAS,Taurinum-Lauriacum,sum-route-end,A Taurino Lauriaco m. p. DLXXXVII,,,Lauriaco,Lauriacum,Lauriacum,m. p.,DLXXXVII,m. p. DLXXXVII,,,https://pleiades.stoa.org/places/118802,48.2186795,14.470479000000000,,,
60,,241.4,7. ITEM DE PANNONIIS IN GALLIAS,Lauriacum-Augusta Vindelicum-1,sum-route-start,,,,,Lauriacum,Lauriacum,,,,,,https://pleiades.stoa.org/places/118802,48.2186795,14.470479000000000,,,
61,,241.4,7. ITEM DE PANNONIIS IN GALLIAS,Lauriacum-Augusta Vindelicum-1,sum-route-end,inde Augusta Vindelicum m. p. XL,,,Augusta Vindelicum,Augusta Vindelicum/Aelia Augusta,Augusta Vindelicum/Aelia Augusta,m. p.,XL, m. p. XL,,,https://pleiades.stoa.org/places/118580,48.365463,10.894765,,,
62,,241.5,7. ITEM DE PANNONIIS IN GALLIAS,Augusta Vindelicum-Argentorate,sum-route-start,Argentorato m. p. XXXVIII,,,,Augusta Vindelicum/Aelia Augusta,Augusta Vindelicum/Aelia Augusta,,,,,,https://pleiades.stoa.org/places/118580,48.365463,10.894765,,,
63,,241.5,7. ITEM DE PANNONIIS IN GALLIAS,Augusta Vindelicum-Argentorate,sum-route-end,Argentorato m. p. XXXVIII,,,Argentorato,Argentorate,Argentorate,m. p.,XXXVIII, m. p. XXXVIII,,,https://pleiades.stoa.org/places/108754,48.582416,7.747407,,,
64,,241.6,7. ITEM DE PANNONIIS IN GALLIAS,Argentorate-Leg.XXX,sum-route-start,ad leg. XXX m. p. sic:,,,,Argentorate,Argentorate,,,,,,https://pleiades.stoa.org/places/108754,48.582416,7.747407,,,
65,,241.6,7. ITEM DE PANNONIIS IN GALLIAS,Argentorate-Leg.XXX,sum-route-end,ad leg. XXX m. p. sic:,,,ad leg. XXX,Col. Ulpia Traiana/Tricensimae,Col. Ulpia Traiana/Tricensimae,m. p.,?, m. p. ,,,https://pleiades.stoa.org/places/108896,51.6679345,6.4481775,,,
66,,242.1,7. ITEM DE PANNONIIS IN GALLIAS,Taurinum-Lauriacum,,A Laurino Ritti in medio m. p. XXV,in medio,,Laurino,Taurinum,Taurunum,m. p.,XXV,m. p. XXV,25.0,,https://pleiades.stoa.org/places/207488,44.835966,20.411502,,fort,
67,,242.1,7. ITEM DE PANNONIIS IN GALLIAS,Taurinum-Lauriacum,,,,,Ritti,Rittium,Rittium,,,,,,https://pleiades.stoa.org/places/207392,45.066373,20.321621,,,
68,,242.1,7. ITEM DE PANNONIIS IN GALLIAS,Taurinum-Lauriacum,,Ritti in medio m. p. XXXIII,in medio,,Ritti,Rittium,Rittium,m. p.,XXXIII,m. p. XXXIII,33.0,,https://pleiades.stoa.org/places/207392,45.066373,20.321621,,fort,
69,,,7. ITEM DE PANNONIIS IN GALLIAS,Taurinum-Lauriacum,,,,,Aciminci,Acunum/Acumincum,Acumincum,m. p.,CXIII,m. p. CXIII,113.0,,https://pleiades.stoa.org/places/206874,45.1450548,20.2534441,,fort,
70,,,7. ITEM DE PANNONIIS IN GALLIAS,Taurinum-Lauriacum,,,,,Cusi,Cusum,Cusum,m. p.,XXXIII,m. p. XXXIII,33.0,,https://pleiades.stoa.org/places/207061,45.252244,19.8620555,,fort,
71,,,7. ITEM DE PANNONIIS IN GALLIAS,Taurinum-Lauriacum,,,,,Bononia,Bononia/Malata,Malata,m. p.,XVI,m. p. XVI,16.0,,https://pleiades.stoa.org/places/207261,45.211899,19.614221,,fort,
72,,,7. ITEM DE PANNONIIS IN GALLIAS,Taurinum-Lauriacum,,,,,Cucci,Cuccium,Cuccium,m. p.,XVI,m. p. XVI,16.0,,https://pleiades.stoa.org/places/207058,45.2230425,19.3774865,,fort,
73,,,7. ITEM DE PANNONIIS IN GALLIAS,Taurinum-Lauriacum,,,,,Cornaco,Cornacum,Cornacum,m. p.,XVI,m. p. XVI,16.0,,https://pleiades.stoa.org/places/197227,45.296022,19.098208,,fort,
74,,,7. ITEM DE PANNONIIS IN GALLIAS,Taurinum-Lauriacum,,,,,Teutiburgio,Teutoburgion,Teutoburgium,m. p.,XVI,m. p. XVI,16.0,,https://pleiades.stoa.org/places/197551,45.4840705,18.987724,,fort,
75,,,7. ITEM DE PANNONIIS IN GALLIAS,Taurinum-Lauriacum,,,,,Mursa,Mursa,Mursa,m. p.,XVI,m. p. XVI,16.0,,https://pleiades.stoa.org/places/197389,45.560018,18.675749,,settlement,
76,,,7. ITEM DE PANNONIIS IN GALLIAS,Taurinum-Lauriacum,,Ad Novas et Aureo Monte,ad,,Ad novas,Ad novas,Ad Novas,,,,0.0,,https://pleiades.stoa.org/places/197077,45.801872,18.806758,,settlement-modern,
77,,,7. ITEM DE PANNONIIS IN GALLIAS,Taurinum-Lauriacum,,,,,Aureo Monte,Aureus Mons,Aureus (mountain),,,,0.0,,https://pleiades.stoa.org/places/197149,45.7895116516444,18.710436542515200,mons,mountain,
78,,,7. ITEM DE PANNONIIS IN GALLIAS,Taurinum-Lauriacum,,,,,Antianis,Antianae,Antiana,m. p.,XXIIII,m. p. XXIIII,24.0,,https://pleiades.stoa.org/places/197120,45.804539,18.665075,,station,
79,,,7. ITEM DE PANNONIIS IN GALLIAS,Taurinum-Lauriacum,,Altino in medio,,,Altino,Altinum,Altinum,,,,0.0,,https://pleiades.stoa.org/places/197110,45.956108,18.683919,,fort,
80,,,7. ITEM DE PANNONIIS IN GALLIAS,Taurinum-Lauriacum,,,,,Lugione,Lugio,Lugio/Florentia,m. p.,XXV,m. p. XXV,25.0,,https://pleiades.stoa.org/places/197360,46.08962915,18.761512450000000,,fort,
81,,,7. ITEM DE PANNONIIS IN GALLIAS,Taurinum-Lauriacum,,Ad Statuas in medio,ad,,Ad Statuas,Ad Statuas,Ad Statuas,,,,0.0,,https://pleiades.stoa.org/places/197085,46.250391,18.685999000000000,statuas,fort-2,
82,,,7. ITEM DE PANNONIIS IN GALLIAS,Taurinum-Lauriacum,,Alisca ad latus,ad latus,,Alisca,Alisca,Alisca,,,,0.0,,https://pleiades.stoa.org/places/197103,46.312562,18.757918,,fort,
83,,,7. ITEM DE PANNONIIS IN GALLIAS,Taurinum-Lauriacum,,,,,Ripa Alta,Alta Ripa,Alta Ripa,m. p.,XXVIIII,m. p. XXVIIII,29.0,,https://pleiades.stoa.org/places/197109,46.423606,18.790249,,fort,
84,,,7. ITEM DE PANNONIIS IN GALLIAS,Taurinum-Lauriacum,,,,,Lussunio,Lussonium,Lussonium,m. p.,XVIII,m. p. XVIII,18.0,,https://pleiades.stoa.org/places/197362,46.6561368302053,18.8818819652606,,fort-2,
85,,,7. ITEM DE PANNONIIS IN GALLIAS,Taurinum-Lauriacum,,Annamatia in medio,in medio,,Annamatia,Annamatia,Annamatia,,,,0.0,,https://pleiades.stoa.org/places/197118,46.886553,18.8864315,,fort,
86,,,7. ITEM DE PANNONIIS IN GALLIAS,Taurinum-Lauriacum,,,,,Intercisa,Intercisa,Intercisa,m. p.,XXIIII,m. p. XXIIII,24.0,,https://pleiades.stoa.org/places/197323,46.9754585,18.936992,,fort,
87,,,7. ITEM DE PANNONIIS IN GALLIAS,Taurinum-Lauriacum,,Vetus Salinas in medio,in medio,,Vetus Salinas ,Vetus Salina,Vetus Salina,,,,0.0,,https://pleiades.stoa.org/places/197580,47.1246635,18.8651795,,fort,
88,,,7. ITEM DE PANNONIIS IN GALLIAS,Taurinum-Lauriacum,,,,,Matrica,Matrica,Matrica,m. p.,XXVI,m. p. XXVI,26.0,,https://pleiades.stoa.org/places/197372,47.3086945,18.914745500000000,,fort,
89,,,7. ITEM DE PANNONIIS IN GALLIAS,Taurinum-Lauriacum,,Campona in medio,in medio,,Campona ,Campona,Campona,,,,0.0,,https://pleiades.stoa.org/places/197187,47.3920155,18.984617,,fort,
90,,,7. ITEM DE PANNONIIS IN GALLIAS,Taurinum-Lauriacum,,,,,Aquinquo leg. II Adiut.,Aquincum,Aquincum,m. p.,XX,m. p. XX,20.0,,https://pleiades.stoa.org/places/197130,47.564075,19.049522,legio,settlement,
91,,,7. ITEM DE PANNONIIS IN GALLIAS,Taurinum-Lauriacum,,A laco Felicis in medio,in medio,,A laco Felicis,Ad Lacum Felicis,Ad Lacum Felicis,,,,0.0,,https://pleiades.stoa.org/places/203097,,,lacus,unlocated,"A possible identification is Loco Felicis, stated at coord. 48.096382, 14.799821 By Löhberg. "
92,,,7. ITEM DE PANNONIIS IN GALLIAS,Taurinum-Lauriacum,,,,,Crumero,Crumerum,Crumerum,m. p.,XXXIII,m. p. XXXIII,33.0,,https://pleiades.stoa.org/places/197232,47.7583058,18.5374485,,fort-2,
93,,,7. ITEM DE PANNONIIS IN GALLIAS,Taurinum-Lauriacum,,Azao in medio,in medio,,Azao,Azaum,‘Azao’,,,,0.0,,https://pleiades.stoa.org/places/197155,47.727941,18.257768,,fort,
94,,,7. ITEM DE PANNONIIS IN GALLIAS,Taurinum-Lauriacum,,,,,Bregetione leg. I Adiut.,Brigetio,Brigetio,m. p.,XVIII,m. p. XVIII,18.0,,https://pleiades.stoa.org/places/197180,47.735239,18.169507,legio,settlement,
95,,,7. ITEM DE PANNONIIS IN GALLIAS,Taurinum-Lauriacum,,Ad Mures et ad Statuas in medio,ad | in medio,,Ad Mures et Ad Statuas,Ad Mures et Ad Statuas,Ad Mures,,,,0.0,,https://pleiades.stoa.org/places/197074,47.710616,18.015417,,fort,Pleiades also has a separate location for Ad Statuas: https://pleiades.stoa.org/places/197086
96,,,7. ITEM DE PANNONIIS IN GALLIAS,Taurinum-Lauriacum,,,,,Arabona,Arrabona,Arrabona,m. p.,XXX,m. p. XXX,30.0,,https://pleiades.stoa.org/places/197141,47.5,17.5,,settlement,
97,,,7. ITEM DE PANNONIIS IN GALLIAS,Taurinum-Lauriacum,,Quadratis in medio,in medio,,Quadratis,Quadrata Castra,Quadrata,,,,0.0,,https://pleiades.stoa.org/places/197463,47.736147,17.390445,,fort,
98,,,7. ITEM DE PANNONIIS IN GALLIAS,Taurinum-Lauriacum,,,,,Flexo,Flexum,Ad Flexum,m. p.,XXII,m. p. XXII,22.0,,https://pleiades.stoa.org/places/197062,47.87441,17.26939,,fort,
99,,,7. ITEM DE PANNONIIS IN GALLIAS,Taurinum-Lauriacum,,Gerulata in medio,in medio,,Gerulata,Gerulatum,Gerulata,,,,0.0,,https://pleiades.stoa.org/places/128399,48.0560140814894,17.149535746105200,,fort,
100,,,7. ITEM DE PANNONIIS IN GALLIAS,Taurinum-Lauriacum,,,,,Carnunto leg. XIIII G. G.,Carnuntum,Carnuntum,m. p.,XXX,m. p. XXX,30.0,,https://pleiades.stoa.org/places/128376,48.113346,16.867891,legio,fort,
101,,,7. ITEM DE PANNONIIS IN GALLIAS,Taurinum-Lauriacum,,Aequinoctio et Ala Nova in medio,,,Aequinoctio,Aequinoctium,Aequinoctium,,,,0.0,,https://pleiades.stoa.org/places/128353,48.117896,16.614782000000000,,fort,
102,,,7. ITEM DE PANNONIIS IN GALLIAS,Taurinum-Lauriacum,,,in medio,,Ala Nova,Ala Nova,Ala Nova,,,,0.0,,https://pleiades.stoa.org/places/128354,48.142474,16.473512,,fort,
103,,,7. ITEM DE PANNONIIS IN GALLIAS,Taurinum-Lauriacum,,Vindobona m. p. XXVII leg. X Gem.,,,Vindobona,Vindobona,Vindobona,m. p.,XXVII,m. p. XXVII,27.0,,https://pleiades.stoa.org/places/128537,48.211345,16.373946,legio,fort,
104,,,7. ITEM DE PANNONIIS IN GALLIAS,Taurinum-Lauriacum,,,,,Comagenis,Comagenis/Commagena,Comagena,m. p.,XX,m. p. XX,20.0,,https://pleiades.stoa.org/places/128385,48.3310275,16.052051,,fort,
105,,,7. ITEM DE PANNONIIS IN GALLIAS,Taurinum-Lauriacum,,,,,Cetio,Cetium,Cetium,m. p.,XXX,m. p. XXX,30.0,,https://pleiades.stoa.org/places/118629,48.20473,15.622695,,settlement,
106,,,7. ITEM DE PANNONIIS IN GALLIAS,Taurinum-Lauriacum,,,,,Arlape,Arelapa,Ar(e)lape,m. p.,XX,m. p. XX,20.0,,https://pleiades.stoa.org/places/118571,48.212163,15.210423500000000,,fort,
107,,,7. ITEM DE PANNONIIS IN GALLIAS,Taurinum-Lauriacum,,,,,Loco Felicis,Locus Felicis,Lo(a)cus Felicis?,m. p.,XXV,m. p. XXV,25.0,,https://pleiades.stoa.org/places/118811,48.096382,14.799821,lacus,fort,
108,,,7. ITEM DE PANNONIIS IN GALLIAS,Taurinum-Lauriacum,,,,,Lauriaco,Lauriacum,Lauriacum,m. p.|leg.,XX|III,m. p. XX leg. III,20.0,,https://pleiades.stoa.org/places/118802,48.2186795,14.470479000000000,,fort,
109,,,7. ITEM DE PANNONIIS IN GALLIAS,Lauriacum-Augusta Vindelicum-1,,,,,,Lauriacum,Lauriacum,,,,0.0,,https://pleiades.stoa.org/places/118802,48.2186795,14.470479000000000,,fort,
110,,,7. ITEM DE PANNONIIS IN GALLIAS,Lauriacum-Augusta Vindelicum-1,,,,,Ovilatus,Ovilava,Ovilava,m. p.,XVI,m. p. XVI,16.0,,https://pleiades.stoa.org/places/118901,48.1733764179481,14.014603317327400,,settlement,
111,,,7. ITEM DE PANNONIIS IN GALLIAS,Lauriacum-Augusta Vindelicum-1,,,,,Ioviaco,Ioviacum,Ioviacum?,m. p.,XXVII,m. p. XXVII,27.0,,https://pleiades.stoa.org/places/118761,48.4203355,13.893892000000000,,fort,
112,,,7. ITEM DE PANNONIIS IN GALLIAS,Lauriacum-Augusta Vindelicum-1,,,,,Stanago,Stanaco,Stanacum,m. p.,XVIII,m. p. XVIII,18.0,,https://pleiades.stoa.org/places/118972,48.486848,13.735695,,station,
113,,,7. ITEM DE PANNONIIS IN GALLIAS,Lauriacum-Augusta Vindelicum-1,,,,,Bolodoro,Boiodurum/Castra Batava,Boiodurum/Boiotro,m. p.,XX,m. p. XX,20.0,,https://pleiades.stoa.org/places/118606,48.5723053,13.463311,,settlement,
114,,,7. ITEM DE PANNONIIS IN GALLIAS,Lauriacum-Augusta Vindelicum-1,,,,,Quintianis,Quintana Castra,Quintana,m. p.,XXIIII,m. p. XXIIII,24.0,,https://pleiades.stoa.org/places/118919,48.668964,13.079326,,settlement,
115,,,7. ITEM DE PANNONIIS IN GALLIAS,Lauriacum-Augusta Vindelicum-1,,,,,Augustis,Augusta,Augusta,m. p.,XX,m. p. XX,20.0,,https://pleiades.stoa.org/places/123072,,,,unlocated,Unclear if this is Augusta Vindelicum
116,,,7. ITEM DE PANNONIIS IN GALLIAS,Lauriacum-Augusta Vindelicum-1,,,,,Regino,Regina Castra,Reginum/Castra Regina,m. p.,XXIIII,m. p. XXIIII,24.0,,https://pleiades.stoa.org/places/118929,49.0198074,12.098512250000000,,defensive-wall,
117,,,7. ITEM DE PANNONIIS IN GALLIAS,Lauriacum-Augusta Vindelicum-1,,,,,Abusina,Abusina,Abusina,m. p.,XX,m. p. XX,20.0,,https://pleiades.stoa.org/places/118539,48.8500381470495,11.770967500976100,,fort,
118,,,7. ITEM DE PANNONIIS IN GALLIAS,Lauriacum-Augusta Vindelicum-1,,,,,Vallato,Vallatum,,m. p.,XVIII,m. p. XVIII,18.0,,,,,,unknown,"The only place with this toponym is Berching, much more north"
119,,,7. ITEM DE PANNONIIS IN GALLIAS,Lauriacum-Augusta Vindelicum-1,,,,,Summunturio,Summunturio,Summuntorium,m. p.,XVI,m. p. XVI,16.0,,https://pleiades.stoa.org/places/118986,48.6503594,10.8212809,,fort,
120,,,7. ITEM DE PANNONIIS IN GALLIAS,Lauriacum-Augusta Vindelicum-1,,,,,Augusta Vindelicum,Augusta Vindelicum/Aelia Augusta,Augusta Vindelicum/Aelia Augusta,m. p.,XX,m. p. XX,20.0,,https://pleiades.stoa.org/places/118580,48.365463,10.894765,,settlement,
121,,,7. ITEM DE PANNONIIS IN GALLIAS,Augusta Vindelicum-Argentorate,,,,,,Augusta Vindelicum/Aelia Augusta,Augusta Vindelicum/Aelia Augusta,,,,0.0,,https://pleiades.stoa.org/places/118580,48.365463,10.894765,,settlement,
122,,,7. ITEM DE PANNONIIS IN GALLIAS,Augusta Vindelicum-Argentorate,,,,,Guntia,Guntia,Guntia,m. p.,XXII,m. p. XXII,22.0,,https://pleiades.stoa.org/places/118716,48.454426,10.281491,,settlement,
123,,,7. ITEM DE PANNONIIS IN GALLIAS,Augusta Vindelicum-Argentorate,,,,,Celio Monte,Coeliomonte,Caelius Mons,m. p.,XVI,m. p. XVI,16.0,,https://pleiades.stoa.org/places/118622,48.1201664,10.1271332,,fort,
124,,,7. ITEM DE PANNONIIS IN GALLIAS,Augusta Vindelicum-Argentorate,,,,,Camboduno,Cambodunum,Cambodunum (Raetia),m. p.,XIIII,m. p. XIIII,14.0,,https://pleiades.stoa.org/places/187335,47.727498,10.326578,,settlement,
125,,,7. ITEM DE PANNONIIS IN GALLIAS,Augusta Vindelicum-Argentorate,,,,,Vemania,Vemania,Vemania,m. p.,XV,m. p. XV,15.0,,https://pleiades.stoa.org/places/187609,47.6981400839287,10.067279542902200,,fort-2,
126,,,7. ITEM DE PANNONIIS IN GALLIAS,Augusta Vindelicum-Argentorate,,,,,Brigantia,Brigantium,Brigantium,m. p.,XXIIII,m. p. XXIIII,24.0,,https://pleiades.stoa.org/places/187325,47.503041,9.747061,,settlement,
127,,,7. ITEM DE PANNONIIS IN GALLIAS,Augusta Vindelicum-Argentorate,,,,,Arbore Felice,Arbor Felix,Arbor Felix,m. p.,XX,m. p. XX,20.0,,https://pleiades.stoa.org/places/187292,47.515071,9.436868,,settlement,
128,,,7. ITEM DE PANNONIIS IN GALLIAS,Augusta Vindelicum-Argentorate,,,fines,,Finibus,Fines,Ad Fines,m. p.,XX,m. p. XX,20.0,,https://pleiades.stoa.org/places/187249,47.5950575,8.9574465,,fort,
129,,,7. ITEM DE PANNONIIS IN GALLIAS,Augusta Vindelicum-Argentorate,,Vitudoro m. p. XXII leg.,,,Vitudoro,Vitudurum,Vitudurum,m. p.,XXII ,m. p. XXII ,22.0,,https://pleiades.stoa.org/places/187624,47.4985705,8.731863,legio,settlement,
130,,,7. ITEM DE PANNONIIS IN GALLIAS,Augusta Vindelicum-Argentorate,,Vindonissa m. p. XXIIII leg.,,,Vindonissa,Vindonissa,Vindonissa,m. p.,XXIIII,m. p. XXIIII,24.0,,https://pleiades.stoa.org/places/177661,47.478494,8.220204,legio,fort,
131,,,7. ITEM DE PANNONIIS IN GALLIAS,Augusta Vindelicum-Argentorate,,Rauracis m. p. XXVII leg.,,,Rauracis,Augusta Raurica,Col. Augusta Raurica,m. p.,XXVII ,m. p. XXVII ,27.0,,https://pleiades.stoa.org/places/177494,47.533241,7.722118000000000,legio,settlement,
132,,,7. ITEM DE PANNONIIS IN GALLIAS,Augusta Vindelicum-Argentorate,,Arialbino m. p. XVII leg.,,,Arialbino,Arialbinnum,Arialbino,m. p.,XVII ,m. p. XVII ,17.0,,https://pleiades.stoa.org/places/181203,47.5674262052496,7.5439073379105,legio,unlocated,"Coordinates from Örberg, coming from Löhberg’s Index. Absent in Pleiades as far as I can see."
133,,,7. ITEM DE PANNONIIS IN GALLIAS,Augusta Vindelicum-Argentorate,,,,,Vruncis,Urunci,Uruncis?,m. p.|leugas,XXII|X,m. p. XXII leugas X,22.0,,https://pleiades.stoa.org/places/177649,47.7813285,7.3470445,,settlement,
134,,,7. ITEM DE PANNONIIS IN GALLIAS,Augusta Vindelicum-Argentorate,,,,,Monte Brisiaco,Mons Brisiacus,(Mons) Brisiacus,m. p.|leugas,XXIII|XV,m. p. XXIII leugas XV,23.0,,https://pleiades.stoa.org/places/109174,48.0286545,7.581259,mons,fort,
135,,,7. ITEM DE PANNONIIS IN GALLIAS,Augusta Vindelicum-Argentorate,,,,,Helueto,Helvetum,Helvetum/Ellelum,m. p.|leugas,XXVIII|XVIIII,m. p. XXVIII leugas XVIIII,28.0,,https://pleiades.stoa.org/places/109041,48.372887,7.616824,,settlement,
136,,,7. ITEM DE PANNONIIS IN GALLIAS,Augusta Vindelicum-Argentorate,,,,,Argentorato,Argentorate,Argentorate,m. p.|leugas,XXVIIII|XVIIII,m. p. XXVIIII leugas XVIIII,29.0,,https://pleiades.stoa.org/places/108754,48.582416,7.747407,,fort,
137,,,7. ITEM DE PANNONIIS IN GALLIAS,Argentorate-Leg.XXX,,,,,,Argentorate,Argentorate,,,,0.0,,https://pleiades.stoa.org/places/108754,48.582416,7.747407,,fort,
138,,,7. ITEM DE PANNONIIS IN GALLIAS,Argentorate-Leg.XXX,,,,,Brocomago,Brocomagus,Brocomagus,m. p.,XX,m. p. XX,20.0,,https://pleiades.stoa.org/places/108828,48.73002,7.711178,,settlement,
139,,,7. ITEM DE PANNONIIS IN GALLIAS,Argentorate-Leg.XXX,,,,,Concordia,Concordia,Concordia?,m. p.,XVIII,m. p. XVIII,18.0,,https://pleiades.stoa.org/places/108897,49.030361,7.968095,,settlement,
140,,,7. ITEM DE PANNONIIS IN GALLIAS,Argentorate-Leg.XXX,,,,,Noviomago,Noviomagus,Noviomagus/Nemetae,m. p.,XX,m. p. XX,20.0,,https://pleiades.stoa.org/places/109224,49.3172545,8.436718000000000,,settlement,
141,,,7. ITEM DE PANNONIIS IN GALLIAS,Argentorate-Leg.XXX,,,,,Bingio,Bingium,Bingium,m. p.,XXV,m. p. XXV,25.0,,https://pleiades.stoa.org/places/108809,49.96790555,7.89377555,,settlement,
142,,,7. ITEM DE PANNONIIS IN GALLIAS,Argentorate-Leg.XXX,,,,,Antunnaco,Antunnacum,Antunnacum,m. p.,XVII,m. p. XVII,17.0,,https://pleiades.stoa.org/places/108746,50.439196,7.406147,,settlement,
143,,,7. ITEM DE PANNONIIS IN GALLIAS,Argentorate-Leg.XXX,,,,,Boudobrica,Boudobriga/Bodobrica,Bodobrica,m. p.,XVIIII,m. p. XVIIII,19.0,,https://pleiades.stoa.org/places/108817,50.2310402666667,7.591762433333330,,fort-2,
144,,,7. ITEM DE PANNONIIS IN GALLIAS,Argentorate-Leg.XXX,,,,,Bonna,Bonna,Bonna,m. p.,XXII,m. p. XXII,22.0,,https://pleiades.stoa.org/places/108818,50.732632,7.096251,,fort,
145,,,7. ITEM DE PANNONIIS IN GALLIAS,Argentorate-Leg.XXX,,,,,Colonia Agrippina,Colonia Agrippina,Ara Ubiorum/Col. Claudia Ara Agrippinensium,leugas,,leugas,0.0,,https://pleiades.stoa.org/places/108751,50.940662,6.959906500000000,colonia,settlement,
146,,,7. ITEM DE PANNONIIS IN GALLIAS,Argentorate-Leg.XXX,,,,,Durnomago,Durnomagus,Durnomagus,leugas,VII ala,leugas VII ala,7.0,,https://pleiades.stoa.org/places/108941,51.093062,6.842095,,fort,
147,,,7. ITEM DE PANNONIIS IN GALLIAS,Argentorate-Leg.XXX,,,,,Burungo,Burungum,Burungum?,leugas,V ala,leugas V ala,5.0,,https://pleiades.stoa.org/places/108838,51.065245,6.86775,,fort,
148,,,7. ITEM DE PANNONIIS IN GALLIAS,Argentorate-Leg.XXX,,,,,Nevensio,Novaesium,Novaesium,leugas,V ala,leugas V ala,5.0,,https://pleiades.stoa.org/places/109215,51.183889,6.721944,,fort,
149,,,7. ITEM DE PANNONIIS IN GALLIAS,Argentorate-Leg.XXX,,,,,Gelduba,Gelduba,Gelduba,leugas,VIIII ala,leugas VIIII ala,9.0,,https://pleiades.stoa.org/places/109002,51.3307795,6.6767965,,fort,
150,,,7. ITEM DE PANNONIIS IN GALLIAS,Argentorate-Leg.XXX,,,,,Calone,Calo,Calo?,leugas,VIIII ala,leugas VIIII ala,9.0,,https://pleiades.stoa.org/places/108849,51.569108,6.582542,,fort,
151,,,7. ITEM DE PANNONIIS IN GALLIAS,Argentorate-Leg.XXX,,Veteris leugas XXI castra,,,Veteris,Castra Vetera,Castra Vetera,leugas,XXI,leugas XXI ,21.0,,https://pleiades.stoa.org/places/108867,51.646389,6.469989,castra,fort,
152,,,7. ITEM DE PANNONIIS IN GALLIAS,Argentorate-Leg.XXX,,,,,leg. XXX Vlpia.,Colonia Ulpia Traiana,Col. Ulpia Traiana/Tricensimae,,,,0.0,,https://pleiades.stoa.org/places/108896,51.6679345,6.4481775,legio,settlement,
153,,,7. ITEM DE PANNONIIS IN GALLIAS,Argentorate-Leg.XXX,,,,,Burginacio,Burginatium,Burginatium,leugas,VI ala,leugas VI ala,6.0,,https://pleiades.stoa.org/places/108837,51.7268395,6.3059345,,fort,
154,,,7. ITEM DE PANNONIIS IN GALLIAS,Argentorate-Leg.XXX,,,,,Harenatio,Harenatium,Harenatium,leugas,X ala,leugas X ala,10.0,,https://pleiades.stoa.org/places/98976,51.812301,6.125456,,fort,
155,,256.4,7. ITEM DE PANNONIIS IN GALLIAS,Lauriacum-Veldidena,sum-route-start,Item a Lauriaco Veldidena:,,,Lauriaco,Lauriacum,Lauriacum,,,,,,https://pleiades.stoa.org/places/118802,48.2186795,14.470479000000000,,,
156,,256.4,7. ITEM DE PANNONIIS IN GALLIAS,Lauriacum-Veldidena,sum-route-end,Item a Lauriaco Veldidena:,,,Veldidena,Veldidena,Veldidena,,?,?,,,https://pleiades.stoa.org/places/187608,47.253961,11.399902,,,
157,,,7. ITEM DE PANNONIIS IN GALLIAS,Lauriacum-Veldidena,,,,,,Lauriacum,Lauriacum,,,,0.0,,https://pleiades.stoa.org/places/118802,48.2186795,14.470479000000000,,fort,
158,,,7. ITEM DE PANNONIIS IN GALLIAS,Lauriacum-Veldidena,,,,,Ovilavis,Ovilava,Ovilava,m. p.,XXVI,m. p. XXVI,26.0,,https://pleiades.stoa.org/places/118901,48.1733764179481,14.014603317327400,,settlement,
159,,,7. ITEM DE PANNONIIS IN GALLIAS,Lauriacum-Veldidena,,,,,Iaciaco,Laciacom,‘Laciacis’,m. p.,XXXII,m. p. XXXII,32.0,,https://pleiades.stoa.org/places/187443,47.985451,13.419395,,station,
160,,,7. ITEM DE PANNONIIS IN GALLIAS,Lauriacum-Veldidena,,,,,Iovavi,Ivavum,Iuvavum,m. p.,XXVIII,m. p. XXVIII,28.0,,https://pleiades.stoa.org/places/187432,47.7991735,13.0455165,,settlement,
161,,,7. ITEM DE PANNONIIS IN GALLIAS,Lauriacum-Veldidena,,,,,Bidaio,Bedaium,*Bedaium,m. p.,XXXIII,m. p. XXXIII,33.0,,https://pleiades.stoa.org/places/187309,47.934824,12.477721,,settlement,
162,,,7. ITEM DE PANNONIIS IN GALLIAS,Lauriacum-Veldidena,,,,,Ponte Aeni,Pons Aeni,Pons Aeni,m. p.,XVIII,m. p. XVIII,18.0,,https://pleiades.stoa.org/places/187516,47.856079,12.124016,pons,settlement,
163,,,7. ITEM DE PANNONIIS IN GALLIAS,Lauriacum-Veldidena,,,,,Isinisco,Isinisca,Isinisca,m. p.,XX,m. p. XX,20.0,,https://pleiades.stoa.org/places/187426,47.920814,11.76939,,station,
164,,,7. ITEM DE PANNONIIS IN GALLIAS,Lauriacum-Veldidena,,,,,Ambrae,Ambra,Ambrae,m. p.,XXXII,m. p. XXXII,32.0,,https://pleiades.stoa.org/places/118563,48.140949,11.202691,,station,
165,,,7. ITEM DE PANNONIIS IN GALLIAS,Lauriacum-Veldidena,,,ad,,Ad pontes Tesseninos,Ad pontes Tesseninos,Bridge at Abodiacum,m. p.,XL,m. p. XL,40.0,,https://pleiades.stoa.org/places/188755,48.01250295,10.8849974,pons,bridge,
166,,,7. ITEM DE PANNONIIS IN GALLIAS,Lauriacum-Veldidena,,,,,Parthano,Parthanum,*Parthanum/*Tartenum,m. p.,XX,m. p. XX,20.0,,https://pleiades.stoa.org/places/187505,47.49237,11.086258,,station,
167,,,7. ITEM DE PANNONIIS IN GALLIAS,Lauriacum-Veldidena,,,,,Veldidena,Veldidena,Veldidena,m. p.,XXIII,m. p. XXIII,23.0,,https://pleiades.stoa.org/places/187608,47.253961,11.399902,,settlement,
168,,258.2-3,7. ITEM DE PANNONIIS IN GALLIAS,Lauriacum-Augusta Vindelicum-2,sum-route-start,Item a Lauriaco per medium Augusta Vindelicum sive Brigantia m. p. CCCXI sic:,,,Lauriaco,Lauriacum,Lauriacum,,,,,,https://pleiades.stoa.org/places/118802,48.2186795,14.470479000000000,,,
169,,258.2-3,7. ITEM DE PANNONIIS IN GALLIAS,Lauriacum-Augusta Vindelicum-2,sum-route-end,Item a Lauriaco per medium Augusta Vindelicum sive Brigantia m. p. CCCXI sic:,,,Augusta Vindelicum sive Brigantia,Augusta Vindelicum/Aelia Augusta,Augusta Vindelicum/Aelia Augusta,m. p.,CCCXI , m. p. CCCXI ,,,https://pleiades.stoa.org/places/118580,48.365463,10.894765,,,
170,,,7. ITEM DE PANNONIIS IN GALLIAS,Lauriacum-Augusta Vindelicum-2,,,,,,Lauriacum,Lauriacum,,,,0.0,,https://pleiades.stoa.org/places/118802,48.2186795,14.470479000000000,,fort,
171,,,7. ITEM DE PANNONIIS IN GALLIAS,Lauriacum-Augusta Vindelicum-2,,,,,Ovilavis,Ovilava,Ovilava,m. p.,XXVI,m. p. XXVI,26.0,,https://pleiades.stoa.org/places/118901,48.1733764179481,14.014603317327400,,settlement,
172,,,7. ITEM DE PANNONIIS IN GALLIAS,Lauriacum-Augusta Vindelicum-2,,,,,Laciaco,Laciacom,‘Laciacis’,m. p.,XXXII,m. p. XXXII,32.0,,https://pleiades.stoa.org/places/187443,47.985451,13.419395,,station,
173,,,7. ITEM DE PANNONIIS IN GALLIAS,Lauriacum-Augusta Vindelicum-2,,,,,Iovavi,Ivavum,Iuvavum,m. p.,XXVIII,m. p. XXVIII,28.0,,https://pleiades.stoa.org/places/187432,47.7991735,13.0455165,,settlement,
174,,,7. ITEM DE PANNONIIS IN GALLIAS,Lauriacum-Augusta Vindelicum-2,,,,,Bidaio,Bedaium,*Bedaium,m. p.,XXXII,m. p. XXXII,32.0,,https://pleiades.stoa.org/places/187309,47.934824,12.477721,,settlement,
175,,,7. ITEM DE PANNONIIS IN GALLIAS,Lauriacum-Augusta Vindelicum-2,,,,,Ponte Aeni,Pons Aeni,Pons Aeni,m. p.,XVIII,m. p. XVIII,18.0,,https://pleiades.stoa.org/places/187516,47.856079,12.124016,pons,settlement,
176,,,7. ITEM DE PANNONIIS IN GALLIAS,Lauriacum-Augusta Vindelicum-2,,,,,Isinisco,Isinisca,Isinisca,m. p.,XX,m. p. XX,20.0,,https://pleiades.stoa.org/places/187426,47.920814,11.76939,,station,
177,,,7. ITEM DE PANNONIIS IN GALLIAS,Lauriacum-Augusta Vindelicum-2,,,,,Ambrae,Ambra,Ambrae,m. p.,XXXII,m. p. XXXII,32.0,,https://pleiades.stoa.org/places/118563,48.140949,11.202691,,station,
178,,,7. ITEM DE PANNONIIS IN GALLIAS,Lauriacum-Augusta Vindelicum-2,,,per medium,,Augusta Vindelicum,Augusta Vindelicum/Aelia Augusta,Augusta Vindelicum/Aelia Augusta,m. p.,XXVII,m. p. XXVII,27.0,,https://pleiades.stoa.org/places/118580,48.365463,10.894765,,settlement,
179,,,7. ITEM DE PANNONIIS IN GALLIAS,Lauriacum-Augusta Vindelicum-2,,,,,Rostro Nemaviae,Rostrum Nemaviae,Rostrum Nemaviae,m. p.,XXV,m. p. XXV,25.0,,https://pleiades.stoa.org/places/187531,48.061146,10.63995,,fort,
180,,,7. ITEM DE PANNONIIS IN GALLIAS,Lauriacum-Augusta Vindelicum-2,,,,,Camboduno,Cambodunum,Cambodunum (Raetia),m. p.,XXXII,m. p. XXXII,32.0,,https://pleiades.stoa.org/places/187335,47.727498,10.326578,,settlement,
181,,,7. ITEM DE PANNONIIS IN GALLIAS,Lauriacum-Augusta Vindelicum-2,,,,,Vemania,Vemania,Vemania,m. p.,XV,m. p. XV,15.0,,https://pleiades.stoa.org/places/187609,47.6981400839287,10.067279542902200,,fort-2,
182,,,7. ITEM DE PANNONIIS IN GALLIAS,Lauriacum-Augusta Vindelicum-2,,,,,Brigantia,Brigantium,Brigantium,m. p.,XXIIII,m. p. XXIIII,24.0,,https://pleiades.stoa.org/places/187325,47.503041,9.747061,,settlement,
183,,259.3,7. ITEM DE PANNONIIS IN GALLIAS,Pons Aeni-Castra,sum-route-start,Item a Ponte Aeni ad Castra m. p. CL:,,,Ponte Aeni,Pons Aeni,Pons Aeni,,,,,,https://pleiades.stoa.org/places/187516,47.856079,12.124016,,,
184,,259.3,7. ITEM DE PANNONIIS IN GALLIAS,Pons Aeni-Castra,sum-route-end,Item a Ponte Aeni ad Castra m. p. CL:,,,ad Castra,Boiodurum/Castra Batava,Boiodurum/Boiotro,m. p.,CL, m. p. CL,,,https://pleiades.stoa.org/places/118606,48.5723053,13.463311,,,
185,,,7. ITEM DE PANNONIIS IN GALLIAS,Pons Aeni-Castra,,,,,,Pons Aeni,Pons Aeni,,,,0.0,,https://pleiades.stoa.org/places/187516,47.856079,12.124016,pons,settlement,
186,,,7. ITEM DE PANNONIIS IN GALLIAS,Pons Aeni-Castra,,,,,Turo,Turum,Turum,m. p.,XLIIII,m. p. XLIIII,44.0,,https://pleiades.stoa.org/places/119005,48.161586,12.183149,,station,
187,,,7. ITEM DE PANNONIIS IN GALLIAS,Pons Aeni-Castra,,,,,Iovisura,Iovisura,Iovisura,m. p.,LXIIII,m. p. LXIIII,64.0,,https://pleiades.stoa.org/places/118762,48.593991,12.232431,,station,
188,,,7. ITEM DE PANNONIIS IN GALLIAS,Pons Aeni-Castra,,,ad,,Ad Castra,Boiodurum/Castra Batava,Boiodurum/Boiotro,m. p.,XLII,m. p. XLII,42.0,,https://pleiades.stoa.org/places/118606,48.5723053,13.463311,castra,settlement,I think a better identification is Castra Regina
189,,259.7,7. ITEM DE PANNONIIS IN GALLIAS,Pons Aeni-Veldidena,sum-route-start,Item a Ponte Aeni Veldidena:,,,Ponte Aeni,Pons Aeni,Pons Aeni,,,,,,https://pleiades.stoa.org/places/187516,47.856079,12.124016,,,
190,,259.7,7. ITEM DE PANNONIIS IN GALLIAS,Pons Aeni-Veldidena,sum-route-end,Item a Ponte Aeni Veldidena:,,,Veldidena,Veldidena,Veldidena,,?,?,,,https://pleiades.stoa.org/places/187608,47.253961,11.399902,,,
191,,,7. ITEM DE PANNONIIS IN GALLIAS,Pons Aeni-Veldidena,,,,,,Pons Aeni,Pons Aeni,,,,0.0,,https://pleiades.stoa.org/places/187516,47.856079,12.124016,pons,settlement,
192,,,7. ITEM DE PANNONIIS IN GALLIAS,Pons Aeni-Veldidena,,,,,Albiano,Albianum,*Albianum,m. p.,XXVIII,m. p. XXVIII,28.0,,https://pleiades.stoa.org/places/187441,47.468446,11.984322,,cemetery,
193,,,7. ITEM DE PANNONIIS IN GALLIAS,Pons Aeni-Veldidena,,,,,Mastiaco,Masciaco,*Mastiacum,m. p.,XXVI,m. p. XXVI,26.0,,https://pleiades.stoa.org/places/187468,47.430039,11.878479,,station,
194,,,7. ITEM DE PANNONIIS IN GALLIAS,Pons Aeni-Veldidena,,,,,Veldidena,Veldidena,Veldidena,m. p.,XXVI,m. p. XXVI,26.0,,https://pleiades.stoa.org/places/187608,47.253961,11.399902,,settlement,
195,,259.11-12,7. ITEM DE PANNONIIS IN GALLIAS,Emona-Sirmium,sum-route-start,Item ab Hemona per Sisciam Sirmi m. p. CCCXI sic:,,,Hemona,Emona,Emona,,,,,,https://pleiades.stoa.org/places/197258,46.051425,14.505963,,,
196,,259.11-12,7. ITEM DE PANNONIIS IN GALLIAS,Emona-Sirmium,sum-route-end,Item ab Hemona per Sisciam Sirmi m. p. CCCXI sic:,,,Sirmi,Sirmium,Sirmium,m. p.,CCCXI , m. p. CCCXI ,,,https://pleiades.stoa.org/places/207447,44.966447,19.610106,,,
197,,,7. ITEM DE PANNONIIS IN GALLIAS,Emona-Sirmium,,,,,,Emona,Emona,,,,0.0,,https://pleiades.stoa.org/places/197258,46.051425,14.505963,,settlement,
198,,,7. ITEM DE PANNONIIS IN GALLIAS,Emona-Sirmium,,,,,Praetorio Latovicorum,Praetorium Latobicorum,Praetorium Latobicorum,m. p.,XXXIIII,m. p. XXXIIII,34.0,,https://pleiades.stoa.org/places/197457,45.909064,14.995969,praetorium,settlement,
199,,,7. ITEM DE PANNONIIS IN GALLIAS,Emona-Sirmium,,,,,Novioduno,Noviodunum,Neviodunum,m. p.,XXXI,m. p. XXXI,31.0,,https://pleiades.stoa.org/places/197408,45.917552,15.4863805,,settlement,
200,,,7. ITEM DE PANNONIIS IN GALLIAS,Emona-Sirmium,,,,,Quadrato,Quadrato,,m. p.,XXVIII,m. p. XXVIII,28.0,,,,,,unknown,
201,,,7. ITEM DE PANNONIIS IN GALLIAS,Emona-Sirmium,,,per,,Siscia,Siscia,Siscia,m. p.,XXVIIII,m. p. XXVIIII,29.0,,https://pleiades.stoa.org/places/197504,45.483168,16.371388,,settlement,
202,,,7. ITEM DE PANNONIIS IN GALLIAS,Emona-Sirmium,,,,,Varianis,Varianae,‘Varianis’,m. p.,XXIII,m. p. XXIII,23.0,,https://pleiades.stoa.org/places/197573,45.479229,16.776469,,station,
203,,,7. ITEM DE PANNONIIS IN GALLIAS,Emona-Sirmium,,,,,Manneianis,Aquae Balissae Menneianae,Aquae Balissae/Municipium Iasorum,m. p.,XXVI,m. p. XXVI,26.0,,https://pleiades.stoa.org/places/197126,45.593653,17.224015,,settlement,
204,,,7. ITEM DE PANNONIIS IN GALLIAS,Emona-Sirmium,,sed mansio Augusti in praetorio est,,,Incero,Incero,‘Incero’,m. p.,XXVIII,m. p. XXVIII,28.0,,https://pleiades.stoa.org/places/197319,45.377474,17.735551,,station,
205,,,7. ITEM DE PANNONIIS IN GALLIAS,Emona-Sirmium,,,,,Picentino,Picentinum,‘Picentino’,m. p.,XXV,m. p. XXV,25.0,,https://pleiades.stoa.org/places/197435,45.313637,18.002223,,station,
206,,,7. ITEM DE PANNONIIS IN GALLIAS,Emona-Sirmium,,,,,Leucono,Leucoreum,‘Leucono’?,m. p.,XXVI,m. p. XXVI,26.0,,https://pleiades.stoa.org/places/197349,45.1904205,18.292799,,settlement,
207,,,7. ITEM DE PANNONIIS IN GALLIAS,Emona-Sirmium,,,,,Cirtisa,Cirtisia,Cirtisa,m. p.,XV,m. p. XV,15.0,,https://pleiades.stoa.org/places/197209,45.285247,18.433879,,station,
208,,,7. ITEM DE PANNONIIS IN GALLIAS,Emona-Sirmium,,,,,Cibalis,Cibalae,Cibalae,m. p.,XXII,m. p. XXII,22.0,,https://pleiades.stoa.org/places/197207,45.291016,18.801056,,settlement,
209,,,7. ITEM DE PANNONIIS IN GALLIAS,Emona-Sirmium,,,,,Vlmos,Ulmo,‘Ulmo’,m. p.,XXII,m. p. XXII,22.0,,https://pleiades.stoa.org/places/207525,45.16406,19.151556,,station,
210,,,7. ITEM DE PANNONIIS IN GALLIAS,Emona-Sirmium,,,,,Sirmi,Sirmium,Sirmium,m. p.,XXVI,m. p. XXVI,26.0,,https://pleiades.stoa.org/places/207447,44.966447,19.610106,,settlement,
211,,261.4,7. ITEM DE PANNONIIS IN GALLIAS,Vindobona-Poetovio,sum-route-start,Item a Vindobona Poetovione m. p. CLXXXIIII:,,,Vindobona,Vindobona,Vindobona,,,,,,https://pleiades.stoa.org/places/128537,48.211345,16.373946,,,
212,,261.4,7. ITEM DE PANNONIIS IN GALLIAS,Vindobona-Poetovio,sum-route-end,Item a Vindobona Poetovione m. p. CLXXXIIII:,,,Poetovione,Poetovio,Poetovio,m. p.,CLXXXIIII, m. p. CLXXXIIII,,,https://pleiades.stoa.org/places/197446,46.419985,15.86998,,,
213,,,7. ITEM DE PANNONIIS IN GALLIAS,Vindobona-Poetovio,,,,,,Vindobona,Vindobona,,,,0.0,,https://pleiades.stoa.org/places/128537,48.211345,16.373946,,fort,
214,,,7. ITEM DE PANNONIIS IN GALLIAS,Vindobona-Poetovio,,,,,Aquis,Aquae,Aquae,m. p.,XXVIII,m. p. XXVIII,28.0,,https://pleiades.stoa.org/places/197125,48.0085749,16.2334951,,settlement-modern,
215,,,7. ITEM DE PANNONIIS IN GALLIAS,Vindobona-Poetovio,,,,,Scarabantia,Scarbantia,Scarbantia,m. p.,XXXI,m. p. XXXI,31.0,,https://pleiades.stoa.org/places/197501,47.684893,16.583036,,settlement,
216,,,7. ITEM DE PANNONIIS IN GALLIAS,Vindobona-Poetovio,,,,,Sabaria,Savaria,Savaria,m. p.,XXXIIII,m. p. XXXIIII,34.0,,https://pleiades.stoa.org/places/197498,47.235142,16.62192,,settlement,
217,,,7. ITEM DE PANNONIIS IN GALLIAS,Vindobona-Poetovio,,,,,Arrabone,Arrabone,Arrabo (river),m. p.,XX,m. p. XX,20.0,,https://pleiades.stoa.org/places/197140,47.5,16.5,,"river, drainage","There is also Arrabona, whose location is less determined https://pleiades.stoa.org/places/197141"
218,,,7. ITEM DE PANNONIIS IN GALLIAS,Vindobona-Poetovio,,,,,Alicano,Halicanum,Halicanum,m. p.,XL,m. p. XL,40.0,,https://pleiades.stoa.org/places/197296,46.525105,16.361983,,station,
219,,,7. ITEM DE PANNONIIS IN GALLIAS,Vindobona-Poetovio,,In medio Curta,in medio,,Curta,Curta,Curta,,,,0.0,,https://pleiades.stoa.org/places/197236,46.407245,16.149322,,station,
220,,,7. ITEM DE PANNONIIS IN GALLIAS,Vindobona-Poetovio,,,,,Poetovione,Poetovio,Poetovio,m. p.,XXXI,m. p. XXXI,31.0,,https://pleiades.stoa.org/places/197446,46.419985,15.86998,,settlement,
221,,262.3,7. ITEM DE PANNONIIS IN GALLIAS,Poetovio-Carnuntum,sum-route-start,Item a Poetovione Carnunto m. p. CLXIIII sic:,,,Poetovione,Poetovio,Poetovio,,,,,,https://pleiades.stoa.org/places/197446,46.419985,15.86998,,,
222,,262.3,7. ITEM DE PANNONIIS IN GALLIAS,Poetovio-Carnuntum,sum-route-end,Item a Poetovione Carnunto m. p. CLXIIII sic:,,,Carnunto,Carnuntum,Carnuntum,m. p.,CLXIIII , m. p. CLXIIII ,,,https://pleiades.stoa.org/places/128376,48.113346,16.867891,,,
223,,,7. ITEM DE PANNONIIS IN GALLIAS,Poetovio-Carnuntum,,,,,,Poetovio,Poetovio,,,,0.0,,https://pleiades.stoa.org/places/197446,46.419985,15.86998,,settlement,
224,,,7. ITEM DE PANNONIIS IN GALLIAS,Poetovio-Carnuntum,,,,,Halicano,Halicanum,Halicanum,m. p.,XXXI,m. p. XXXI,31.0,,https://pleiades.stoa.org/places/197296,46.525105,16.361983,,station,
225,,,7. ITEM DE PANNONIIS IN GALLIAS,Poetovio-Carnuntum,,,,,Salle,Salle,Sala,m. p.,XXX,m. p. XXX,30.0,,https://pleiades.stoa.org/places/197482,46.846569,16.585295,,settlement,
226,,,7. ITEM DE PANNONIIS IN GALLIAS,Poetovio-Carnuntum,,,,,Savaria,Savaria,Savaria,m. p.,XXXI,m. p. XXXI,31.0,,https://pleiades.stoa.org/places/197498,47.235142,16.62192,,settlement,
227,,,7. ITEM DE PANNONIIS IN GALLIAS,Poetovio-Carnuntum,,,,,Scarabantia,Scarbantia,Scarbantia,m. p.,XXXIIII,m. p. XXXIIII,34.0,,https://pleiades.stoa.org/places/197501,47.684893,16.583036,,settlement,
228,,,7. ITEM DE PANNONIIS IN GALLIAS,Poetovio-Carnuntum,,,,,Carnunto,Carnuntum,Carnuntum,m. p.,XXXVIII,m. p. XXXVIII,38.0,,https://pleiades.stoa.org/places/128376,48.113346,16.867891,,fort,
229,,262.9,7. ITEM DE PANNONIIS IN GALLIAS,Savaria-Brigetio,sum-route-start,A Sabaria Bregetione m. p. CII sic:,,,Sabaria,Savaria,Savaria,,,,,,https://pleiades.stoa.org/places/197498,47.235142,16.62192,,,
230,,262.9,7. ITEM DE PANNONIIS IN GALLIAS,Savaria-Brigetio,sum-route-end,A Sabaria Bregetione m. p. CII sic:,,,Bregetione,Brigetio,Brigetio,m. p.,CII , m. p. CII ,,,https://pleiades.stoa.org/places/197180,47.735239,18.169507,,,
231,,,7. ITEM DE PANNONIIS IN GALLIAS,Savaria-Brigetio,,,,,,Savaria,Savaria,,,,0.0,,https://pleiades.stoa.org/places/197498,47.235142,16.62192,,settlement,
232,,,7. ITEM DE PANNONIIS IN GALLIAS,Savaria-Brigetio,,,,,Bassiana,Bassiana,Bassiana,m. p.,XVIII,m. p. XVIII,18.0,,https://pleiades.stoa.org/places/197160,47.254062,16.935227,,settlement,
233,,,7. ITEM DE PANNONIIS IN GALLIAS,Savaria-Brigetio,,,,,Mursella,Mursella,Mursella,m. p.,XXXIIII,m. p. XXXIIII,34.0,,https://pleiades.stoa.org/places/197390,47.514636,17.391686,,settlement,
234,,,7. ITEM DE PANNONIIS IN GALLIAS,Savaria-Brigetio,,,,,Arrabona,Arrabone,Arrabona,m. p.,XX,m. p. XX,20.0,,https://pleiades.stoa.org/places/197141,47.5,17.5,,settlement,
235,,,7. ITEM DE PANNONIIS IN GALLIAS,Savaria-Brigetio,,,,,Bregetione,Brigetio,Brigetio,m. p.,XXX,m. p. XXX,30.0,,https://pleiades.stoa.org/places/197180,47.735239,18.169507,,settlement,
236,,263.3,7. ITEM DE PANNONIIS IN GALLIAS,Savaria-Aquincum,sum-route-start,A Sabaria Aquinco m. p. CLXVIIII:,,,Sabaria,Savaria,Savaria,,,,,,https://pleiades.stoa.org/places/197498,47.235142,16.62192,,,
237,,263.3,7. ITEM DE PANNONIIS IN GALLIAS,Savaria-Aquincum,sum-route-end,A Sabaria Aquinco m. p. CLXVIIII:,,,Aquinco,Aquincum,Aquincum,m. p.,CLXVIIII, m. p. CLXVIIII,,,https://pleiades.stoa.org/places/197130,47.564075,19.049522,,,
238,,,7. ITEM DE PANNONIIS IN GALLIAS,Savaria-Aquincum,,,,,,Savaria,Savaria,,,,0.0,,https://pleiades.stoa.org/places/197498,47.235142,16.62192,,settlement,
239,,,7. ITEM DE PANNONIIS IN GALLIAS,Savaria-Aquincum,,,,,Mestrianis,Mestrianis,‘Mestrianis’,m. p.,XXX,m. p. XXX,30.0,,https://pleiades.stoa.org/places/197378,46.942773,17.071344,,settlement,
240,,,7. ITEM DE PANNONIIS IN GALLIAS,Savaria-Aquincum,,,,,Mogentianis,Mogetianae,Moge(n)tiana,m. p.,XXV,m. p. XXV,25.0,,https://pleiades.stoa.org/places/197381,47.118283,17.314149,,settlement,
241,,,7. ITEM DE PANNONIIS IN GALLIAS,Savaria-Aquincum,,,,,Caesariana,Caesariana,Caesariana,m. p.,XXX,m. p. XXX,30.0,,https://pleiades.stoa.org/places/197186,47.059822,17.965908,,settlement,
242,,,7. ITEM DE PANNONIIS IN GALLIAS,Savaria-Aquincum,,,,,Osonibus,Osonibus,Osonibus,m. p.,XXVIII,m. p. XXVIII,28.0,,https://pleiades.stoa.org/places/203144,,,,unlocated,
243,,,7. ITEM DE PANNONIIS IN GALLIAS,Savaria-Aquincum,,,,,Floriana,Floriana,Floriana?,m. p.,XXVI,m. p. XXVI,26.0,,https://pleiades.stoa.org/places/197275,47.39333,18.460507,,settlement,
244,,,7. ITEM DE PANNONIIS IN GALLIAS,Savaria-Aquincum,,,,,Acinquo,Aquincum,Aquincum,m. p.,XXX,m. p. XXX,30.0,,https://pleiades.stoa.org/places/197130,47.564075,19.049522,,settlement,
245,,264.1,7. ITEM DE PANNONIIS IN GALLIAS,Sopianae-Aquincum,sum-route-start,A Sopianas Acinquo m. p. CLXVIIII sic:,,,Sopianas,Sopianae,Sopianae,,,,,,https://pleiades.stoa.org/places/197523,46.07335,18.228059,,,
246,,264.1,7. ITEM DE PANNONIIS IN GALLIAS,Sopianae-Aquincum,sum-route-end,A Sopianas Acinquo m. p. CLXVIIII sic:,,,Acinquo,Aquincum,Aquincum,m. p.,CLXVIIII , m. p. CLXVIIII ,,,https://pleiades.stoa.org/places/197130,47.564075,19.049522,,,
247,,,7. ITEM DE PANNONIIS IN GALLIAS,Sopianae-Aquincum,,,,,,Sopianae,Sopianae,,,,0.0,,https://pleiades.stoa.org/places/197523,46.07335,18.228059,,settlement,
248,,,7. ITEM DE PANNONIIS IN GALLIAS,Sopianae-Aquincum,,,,,Ponte Sociorum,Pons Sociorum,Sociorum Pons/ Ponte Sociorum/Ponte Mansuetiana,m. p.,XXV,m. p. XXV,25.0,,https://pleiades.stoa.org/places/203159,,,pons,unlocated,
249,,,7. ITEM DE PANNONIIS IN GALLIAS,Sopianae-Aquincum,,,,,Valle Cariniana,Vallis Cariniana,Vallis Cariniana,m. p.,XXX,m. p. XXX,30.0,,https://pleiades.stoa.org/places/203164,,,vallis,unlocated,
250,,,7. ITEM DE PANNONIIS IN GALLIAS,Sopianae-Aquincum,,,,,Gorsio sive Hercule,Gorsium sive Herculia,Gorsium/Herculia,m. p.,XXX,m. p. XXX,30.0,,https://pleiades.stoa.org/places/197287,47.089995558358300,18.42054530874700,,fort-2,
251,,,7. ITEM DE PANNONIIS IN GALLIAS,Sopianae-Aquincum,,,,,Iasulonibus,Iasulones,Iasulones,m. p.,XXV,m. p. XXV,25.0,,https://pleiades.stoa.org/places/197315,47.287253,18.757121,,station,
252,,,7. ITEM DE PANNONIIS IN GALLIAS,Sopianae-Aquincum,,,,,Acinquo,Aquincum,Aquincum,m. p.,XXV,m. p. XXV,25.0,,https://pleiades.stoa.org/places/197130,47.564075,19.049522,,settlement,
253,,264.7,7. ITEM DE PANNONIIS IN GALLIAS,Sopianae-Brigetio,sum-route-start,Item a Sopianas Bregetione m. p. CXS:,,,Sopianas,Sopianae,Sopianae,,,,,,https://pleiades.stoa.org/places/197523,46.07335,18.228059,,,
254,,264.7,7. ITEM DE PANNONIIS IN GALLIAS,Sopianae-Brigetio,sum-route-end,Item a Sopianas Bregetione m. p. CXS:,,,Bregetione,Brigetio,Brigetio,m. p.,CXS, m. p. CXS,,,https://pleiades.stoa.org/places/197180,47.735239,18.169507,,,
255,,,7. ITEM DE PANNONIIS IN GALLIAS,Sopianae-Brigetio,,,,,,Sopianae,Sopianae,,,,0.0,,https://pleiades.stoa.org/places/197523,46.07335,18.228059,,settlement,
256,,,7. ITEM DE PANNONIIS IN GALLIAS,Sopianae-Brigetio,,,,,Iovia,Iovia,Iovia,m. p.,XXXII,m. p. XXXII,32.0,,https://pleiades.stoa.org/places/642530,,,,unlocated,
257,,,7. ITEM DE PANNONIIS IN GALLIAS,Sopianae-Brigetio,,,,,Fortiana,Fortiana,Fortiana,m. p.,XXV,m. p. XXV,25.0,,https://pleiades.stoa.org/places/203125,,,,unlocated,
258,,,7. ITEM DE PANNONIIS IN GALLIAS,Sopianae-Brigetio,,,,,Herculia,Gorsium sive Herculia,Gorsium/Herculia,m. p.,XX,m. p. XX,20.0,,https://pleiades.stoa.org/places/197287,47.089995558358300,18.42054530874700,,fort-2,
259,,,7. ITEM DE PANNONIIS IN GALLIAS,Sopianae-Brigetio,,,,,Floriana,Floriana,Floriana?,m. p.,XV,m. p. XV,15.0,,https://pleiades.stoa.org/places/197275,47.39333,18.460507,,settlement,
260,,,7. ITEM DE PANNONIIS IN GALLIAS,Sopianae-Brigetio,,,,,Bregetione,Brigetio,Brigetio,m. p.,VIII,m. p. VIII,8.0,,https://pleiades.stoa.org/places/197180,47.735239,18.169507,,settlement,