sequence-number,place_id,CTS URN,region,route_label,route_type,text_transcription,direction,direction_type,place_transcription,place_normalized,pleiades_label,distance_unit,distance_ancient,distance-ancient,distance_modern,revised_distance,place_uri,latitude,longitude,placetype,placetype_pleiades,comment
1,,265.5,8. De Italia per Histriam in Dalmatia.,Siscia-Mursa,sum-route-start,Item a Siscia Mursam m. p. CXXXIIII sic:,,,Siscia,Siscia,Siscia,,,,,,https://pleiades.stoa.org/places/197504,45.483168,16.371388,,,
2,,265.5,8. De Italia per Histriam in Dalmatia.,Siscia-Mursa,sum-route-end,Item a Siscia Mursam m. p. CXXXIIII sic:,,,Mursam,Mursa,Mursa,m. p.,CXXXIIII , m. p. CXXXIIII ,,,https://pleiades.stoa.org/places/197389,45.560018,18.675749,,,
3,,,8. De Italia per Histriam in Dalmatia.,Siscia-Mursa,,,,,,Siscia,Siscia,,,,0.0,,https://pleiades.stoa.org/places/197504,45.483168,16.371388,,settlement,
4,,,8. De Italia per Histriam in Dalmatia.,Siscia-Mursa,,,,,Varianis,Varianae,‘Varianis’,m. p.,XXIII,m. p. XXIII,23.0,,https://pleiades.stoa.org/places/197573,45.479229,16.776469,,station,
5,,,8. De Italia per Histriam in Dalmatia.,Siscia-Mursa,,,,,Aquis Balissis,Aquae Balissae Menneianae,Aquae Balissae/Municipium Iasorum,m. p.,XXX,m. p. XXX,30.0,,https://pleiades.stoa.org/places/197126,45.593653,17.224015,,settlement,
6,,,8. De Italia per Histriam in Dalmatia.,Siscia-Mursa,,,,,Incero,Incero,‘Incero’,m. p.,XXV,m. p. XXV,25.0,,https://pleiades.stoa.org/places/197319,45.377474,17.735551,,station,
7,,,8. De Italia per Histriam in Dalmatia.,Siscia-Mursa,,,,,Stravianis,Stravianis,‘Stravianis’,m. p.,XXIIII,m. p. XXIIII,24.0,,https://pleiades.stoa.org/places/197532,45.437653,18.035862,,station (road or coastal),
8,,,8. De Italia per Histriam in Dalmatia.,Siscia-Mursa,,,,,Mursa,Mursa,Mursa,m. p.,XXX,m. p. XXX,30.0,,https://pleiades.stoa.org/places/197389,45.560018,18.675749,,settlement,
9,,265.11,8. De Italia per Histriam in Dalmatia.,Poetovio-Siscia,sum-route-start,A Poetavione Siscia m. p. C:,,,Poetavione,Poetovio,Poetovio,,,,,,https://pleiades.stoa.org/places/197446,46.419985,15.86998,,,
10,,265.11,8. De Italia per Histriam in Dalmatia.,Poetovio-Siscia,sum-route-end,A Poetavione Siscia m. p. C:,,,Siscia,Siscia,Siscia,m. p.,C, m. p. C,,,https://pleiades.stoa.org/places/197504,45.483168,16.371388,,,
11,,,8. De Italia per Histriam in Dalmatia.,Poetovio-Siscia,,,,,,Poetovio,Poetovio,,,,0.0,,https://pleiades.stoa.org/places/197446,46.419985,15.86998,,settlement,
12,,,8. De Italia per Histriam in Dalmatia.,Poetovio-Siscia,,,,,Aqua Viva,Aqua Viva,Aqua Viva,m. p.,XVIIII,m. p. XVIIII,19.0,,https://pleiades.stoa.org/places/197129,46.343945,16.233016,,station,
13,,,8. De Italia per Histriam in Dalmatia.,Poetovio-Siscia,,,,,Pyrri,Pyrri,Pyrri,m. p.,XXX,m. p. XXX,30.0,,https://pleiades.stoa.org/places/197461,46.002444,16.2846,,station,
14,,,8. De Italia per Histriam in Dalmatia.,Poetovio-Siscia,,,,,Dautonia,Andautonia,Andautonia,m. p.,XXIIII,m. p. XXIIII,24.0,,https://pleiades.stoa.org/places/197113,45.773624,16.11724,,settlement,
15,,,8. De Italia per Histriam in Dalmatia.,Poetovio-Siscia,,,,,Siscia,Siscia,Siscia,m. p.,XXVII,m. p. XXVII,27.0,,https://pleiades.stoa.org/places/197504,45.483168,16.371388,,settlement,
16,,266.4,8. De Italia per Histriam in Dalmatia.,Savaria-Vindobona,sum-route-start,A Sabaria Vindobona m. p. LXXXVIII sic:,,,Sabaria,Savaria,Savaria,,,,,,https://pleiades.stoa.org/places/197498,47.235142,16.62192,,,
17,,266.4,8. De Italia per Histriam in Dalmatia.,Savaria-Vindobona,sum-route-end,A Sabaria Vindobona m. p. LXXXVIII sic:,,,Vindobona,Vindobona,Vindobona,m. p.,LXXXVIII , m. p. LXXXVIII ,,,https://pleiades.stoa.org/places/128537,48.211345,16.373946,,,
18,,,8. De Italia per Histriam in Dalmatia.,Savaria-Vindobona,,,,,,Savaria,Savaria,,,,0.0,,https://pleiades.stoa.org/places/197498,47.235142,16.62192,,settlement,
19,,,8. De Italia per Histriam in Dalmatia.,Savaria-Vindobona,,,,,Scarabantia,Scarbantia,Scarbantia,m. p.,XXXIIII,m. p. XXXIIII,34.0,,https://pleiades.stoa.org/places/197501,47.684893,16.583036,,settlement,
20,,,8. De Italia per Histriam in Dalmatia.,Savaria-Vindobona,,,,,Muteno,Mutenum,‘Muteno’,m. p.,XVIII,m. p. XVIII,18.0,,https://pleiades.stoa.org/places/197393,47.936365,16.481762,,station,
21,,,8. De Italia per Histriam in Dalmatia.,Savaria-Vindobona,,,,,Vindobona,Vindobona,Vindobona,m. p.,XXXVI,m. p. XXXVI,36.0,,https://pleiades.stoa.org/places/128537,48.211345,16.373946,,fort,
22,,266.8-9,8. De Italia per Histriam in Dalmatia.,Aquincum-Crumerum,sum-route-start,Item ab Acinquo Crumero que castra constituta sint m. p. XLII:,,,Acinquo,Aquincum,Aquincum,,,,,,https://pleiades.stoa.org/places/197130,47.564075,19.049522,,,
23,,266.8-9,8. De Italia per Histriam in Dalmatia.,Aquincum-Crumerum,sum-route-end,Item ab Acinquo Crumero que castra constituta sint m. p. XLII:,,,Crumero,Crumerum,Crumerum,m. p.,XLII, m. p. XLII,,,https://pleiades.stoa.org/places/197232,47.7583058,18.5374485,,,
24,,,8. De Italia per Histriam in Dalmatia.,Aquincum-Crumerum,,,,,,Aquincum,Aquincum,,,,0.0,,https://pleiades.stoa.org/places/197130,47.564075,19.049522,,settlement,
25,,,8. De Italia per Histriam in Dalmatia.,Aquincum-Crumerum,,,,,Vlcisia castra,Ulcisia Castra,Ulcisia Castra/Castra Constantia,m. p.,VIIII,m. p. VIIII,9.0,,https://pleiades.stoa.org/places/197564,47.6649996699761,19.07291485407490,castra,fort,
26,,,8. De Italia per Histriam in Dalmatia.,Aquincum-Crumerum,,,,,Cirpi mansio,Cirpi,Cirpi,m. p.,XII,m. p. XII,12.0,,https://pleiades.stoa.org/places/197208,47.7826585,19.054964500000000,mansio,fort,
27,,,8. De Italia per Histriam in Dalmatia.,Aquincum-Crumerum,,,ad,,Ad Herculem castra,Castra ad Herculem,Castra ad Herculem,m. p.,XII,m. p. XII,12.0,,https://pleiades.stoa.org/places/197199,47.787477,18.888633500000000,castra,fort,
28,,,8. De Italia per Histriam in Dalmatia.,Aquincum-Crumerum,,,,,Solva mansio,Solva,Solva,m. p.,VIIII,m. p. VIIII,9.0,,https://pleiades.stoa.org/places/197519,47.795813,18.7392875,mansio,fort,"The ending point is not really missing, the castra represent it."
29,,266.14,8. De Italia per Histriam in Dalmatia.,Sirmium-Carnutum,sum-route-start,Item a Sirmio Carnunto m. p. CCCXI:,,,Sirmio,Sirmium,Sirmium,,,,,,https://pleiades.stoa.org/places/207447,44.966447,19.610106,,,
30,,266.14,8. De Italia per Histriam in Dalmatia.,Sirmium-Carnutum,sum-route-end,Item a Sirmio Carnunto m. p. CCCXI:,,,Carnunto,Carnuntum,Carnuntum,m. p.,CCCXI, m. p. CCCXI,,,https://pleiades.stoa.org/places/128376,48.113346,16.867891,,,
31,,,8. De Italia per Histriam in Dalmatia.,Sirmium-Carnutum,,,,,,Sirmium,Sirmium,,,,0.0,,https://pleiades.stoa.org/places/207447,44.966447,19.610106,,settlement,
32,,,8. De Italia per Histriam in Dalmatia.,Sirmium-Carnutum,,,,,Vlmo,Ulmo,‘Ulmo’,m. p.,XXVI,m. p. XXVI,26.0,,https://pleiades.stoa.org/places/207525,45.16406,19.151556,,station,
33,,,8. De Italia per Histriam in Dalmatia.,Sirmium-Carnutum,,,,,Cibalis,Cibalae,Cibalae,m. p.,XXIIII,m. p. XXIIII,24.0,,https://pleiades.stoa.org/places/197207,45.291016,18.801056,,settlement,
34,,,8. De Italia per Histriam in Dalmatia.,Sirmium-Carnutum,,,,,Mursa,Mursa,Mursa,m. p.,XXII,m. p. XXII,22.0,,https://pleiades.stoa.org/places/197389,45.560018,18.675749,,settlement,
35,,,8. De Italia per Histriam in Dalmatia.,Sirmium-Carnutum,,,,,Antianis,Antianae,Antiana,m. p.,XXIIII,m. p. XXIIII,24.0,,https://pleiades.stoa.org/places/197120,45.804539,18.665075,,station,
36,,,8. De Italia per Histriam in Dalmatia.,Sirmium-Carnutum,,,,,Sopianis,Sopianae,Sopianae,m. p.,XXX,m. p. XXX,30.0,,https://pleiades.stoa.org/places/197523,46.07335,18.228059,,settlement,
37,,,8. De Italia per Histriam in Dalmatia.,Sirmium-Carnutum,,,,,Ponte Mansuetiana,Pons Mansuetiana,Mansuetiana Pons,m. p.,XXV,m. p. XXV,25.0,,https://pleiades.stoa.org/places/203138,,,pons,unlocated,
38,,,8. De Italia per Histriam in Dalmatia.,Sirmium-Carnutum,,,,,Tricciana,Tricciana,Tricciana,m. p.,XXX,m. p. XXX,30.0,,https://pleiades.stoa.org/places/197558,46.837681,18.101446,,settlement,
39,,,8. De Italia per Histriam in Dalmatia.,Sirmium-Carnutum,,,,,Cimbrianis,Cimbrianae,Cimbrianis,m. p.,XXV,m. p. XXV,25.0,,https://pleiades.stoa.org/places/203114,,,,unlocated,
40,,,8. De Italia per Histriam in Dalmatia.,Sirmium-Carnutum,,,,,Crispiana,Crispiana,Crispiana,m. p.,XXV,m. p. XXV,25.0,,https://pleiades.stoa.org/places/197230,47.39096,17.803179,,station,
41,,,8. De Italia per Histriam in Dalmatia.,Sirmium-Carnutum,,,,,Arrabona,Arrabona,Arrabona,m. p.,XXV,m. p. XXV,25.0,,https://pleiades.stoa.org/places/197141,47.5,17.5,,settlement,
42,,,8. De Italia per Histriam in Dalmatia.,Sirmium-Carnutum,,,,,Flexo,Flexum,Ad Flexum,m. p.,XXV,m. p. XXV,25.0,,https://pleiades.stoa.org/places/197062,47.87441,17.26939,,fort,
43,,,8. De Italia per Histriam in Dalmatia.,Sirmium-Carnutum,,,,,Carnunto,Carnuntum,Carnuntum,m. p.,XXX,m. p. XXX,30.0,,https://pleiades.stoa.org/places/128376,48.113346,16.867891,,fort,
44,,267.13,8. De Italia per Histriam in Dalmatia.,Sirmium-Salona,sum-route-start,Item a Sirmio Salonas m. p. CCLXXXIIII:,,,Sirmio,Sirmium,Sirmium,,,,,,https://pleiades.stoa.org/places/207447,44.966447,19.610106,,,
45,,267.13,8. De Italia per Histriam in Dalmatia.,Sirmium-Salona,sum-route-end,Item a Sirmio Salonas m. p. CCLXXXIIII:,,,Salonas,Salona,Salona,m. p.,CCLXXXIIII, m. p. CCLXXXIIII,,,https://pleiades.stoa.org/places/197488,43.539561,16.483426,,,
46,,,8. De Italia per Histriam in Dalmatia.,Sirmium-Salona,,,,,,Sirmium,Sirmium,,,,0.0,,https://pleiades.stoa.org/places/207447,44.966447,19.610106,,settlement,
47,,,8. De Italia per Histriam in Dalmatia.,Sirmium-Salona,,,,,Budalia,Budalia,Budalia,m. p.,VIII,m. p. VIII,8.0,,https://pleiades.stoa.org/places/206995,45.010018,19.463467,,station,
48,,,8. De Italia per Histriam in Dalmatia.,Sirmium-Salona,,,,,Hispaneta,Spaneta,Spaneta,m. p.,VIII,m. p. VIII,8.0,,https://pleiades.stoa.org/places/207460,45.082078,19.308365,,station,
49,,,8. De Italia per Histriam in Dalmatia.,Sirmium-Salona,,,,,Vlmo,Ulmo,‘Ulmo’,m. p.,X,m. p. X,10.0,,https://pleiades.stoa.org/places/207525,45.16406,19.151556,,station,
50,,,8. De Italia per Histriam in Dalmatia.,Sirmium-Salona,,,,,Cibalis,Cibalae,Cibalae,m. p.,XXII,m. p. XXII,22.0,,https://pleiades.stoa.org/places/197207,45.291016,18.801056,,settlement,
51,,,8. De Italia per Histriam in Dalmatia.,Sirmium-Salona,,,,,Cirtisia,Cirtisia,Cirtisa,m. p.,XXIIII,m. p. XXIIII,24.0,,https://pleiades.stoa.org/places/197209,45.285247,18.433879,,station,
52,,,8. De Italia per Histriam in Dalmatia.,Sirmium-Salona,,,,,Vrbate,Urbas,‘Urbate’,m. p.,XXV,m. p. XXV,25.0,,https://pleiades.stoa.org/places/197567,45.097363,17.515144,,station,
53,,,8. De Italia per Histriam in Dalmatia.,Sirmium-Salona,,,,,Servitti,Servitium,Servitium,m. p.,XXIIII,m. p. XXIIII,24.0,,https://pleiades.stoa.org/places/197509,45.151471,17.25609,,station,
54,,,8. De Italia per Histriam in Dalmatia.,Sirmium-Salona,,,ad,,Ad Ladios,Ad Ladios,Ad Ladios,m. p.,XXIIII,m. p. XXIIII,24.0,,https://pleiades.stoa.org/places/197066,44.843222,17.255353,,station,
55,,,8. De Italia per Histriam in Dalmatia.,Sirmium-Salona,,,,,Aemate,Aematis,Aemate,m. p.,XVIII,m. p. XVIII,18.0,,https://pleiades.stoa.org/places/197093,44.6534271333333,17.0335202,,settlement,
56,,,8. De Italia per Histriam in Dalmatia.,Sirmium-Salona,,,,,Leusaba,Leusaba,Leusaba,m. p.,XIII,m. p. XIII,13.0,,https://pleiades.stoa.org/places/197350,44.416993,17.083952,,station,
57,,,8. De Italia per Histriam in Dalmatia.,Sirmium-Salona,,,,,Sarnade,Sarnade,Sarnade,m. p.,XVIII,m. p. XVIII,18.0,,https://pleiades.stoa.org/places/197496,44.300466,16.866866,,station,
58,,,8. De Italia per Histriam in Dalmatia.,Sirmium-Salona,,,,,Salviae,Salvia,Salvia,m. p.,XXIIII,m. p. XXIIII,24.0,,https://pleiades.stoa.org/places/197490,44.067371,16.779488,,station,
59,,,8. De Italia per Histriam in Dalmatia.,Sirmium-Salona,,,,,Pelva,Pelva,Pelva,m. p.,XVIII,m. p. XVIII,18.0,,https://pleiades.stoa.org/places/197431,43.875555,16.7775,,settlement,
60,,,8. De Italia per Histriam in Dalmatia.,Sirmium-Salona,,,,,Aequo,Aequuum,Aequum,m. p.,XVII,m. p. XVII,17.0,,https://pleiades.stoa.org/places/197095,43.739278,16.655704,,settlement,
61,,,8. De Italia per Histriam in Dalmatia.,Sirmium-Salona,,,,,Salonas,Salona,Salona,m. p.,XXI,m. p. XXI,21.0,,https://pleiades.stoa.org/places/197488,43.539561,16.483426,,settlement,
62,,270.1-2,8. De Italia per Histriam in Dalmatia.,Aquileia-Salona,sum-route-start,Item ab Aquileia per Istriam Salonas m. p. CXCVIIII:,,,Aquileia,Aquileia,Aquileia,,,,,,https://pleiades.stoa.org/places/187290,45.769631,13.370946,,,
63,,270.1-2,8. De Italia per Histriam in Dalmatia.,Aquileia-Salona,sum-route-end,Item ab Aquileia per Istriam Salonas m. p. CXCVIIII:,,,Salonas,Salona,Salona,m. p.,CXCVIIII, m. p. CXCVIIII,,,https://pleiades.stoa.org/places/197488,43.539561,16.483426,,,
64,,,8. De Italia per Histriam in Dalmatia.,Aquileia-Salona,,,,,,Aquileia,Aquileia,,,,0.0,,https://pleiades.stoa.org/places/187290,45.769631,13.370946,,settlement,
65,,,8. De Italia per Histriam in Dalmatia.,Aquileia-Salona,,,,,Fonte Timavi,Fons Timavi,Fons Timavi,m. p.,XII,m. p. XII,12.0,,https://pleiades.stoa.org/places/187383,45.7903786608938,13.589862971460700,fons,settlement,
66,,,8. De Italia per Histriam in Dalmatia.,Aquileia-Salona,,,,,Tergeste,Tergestum,Tergeste,m. p.,XII,m. p. XII,12.0,,https://pleiades.stoa.org/places/187578,45.649148,13.7717,,urban,
67,,,8. De Italia per Histriam in Dalmatia.,Aquileia-Salona,,,,,Ningum,Ningum,Ad Ningum,m. p.,XXVIII,m. p. XXVIII,28.0,,https://pleiades.stoa.org/places/197075,45.336496,13.828551,,station,
68,,,8. De Italia per Histriam in Dalmatia.,Aquileia-Salona,,,,,Parentium,Parentium,Parentium,m. p.,XVIII,m. p. XVIII,18.0,,https://pleiades.stoa.org/places/197427,45.227354,13.5948985,,settlement,
69,,,8. De Italia per Histriam in Dalmatia.,Aquileia-Salona,,,,,Pola,Pola,Pola,m. p.,XXXI,m. p. XXXI,31.0,,https://pleiades.stoa.org/places/197448,44.869567,13.841124,,settlement,
70,,,8. De Italia per Histriam in Dalmatia.,Aquileia-Salona,,traiectus sinus Liburnici Iader usque,,,sinus Liburnici,Liburnicus Sinus,Liburnia (region),,,,0.0,,https://pleiades.stoa.org/places/197353,44.4060887994283,15.129139759454600,sinus,region,Trait by sea. It seems like a general route indication rather than Sinus Liburnicus being an actual starting point. 
71,,,8. De Italia per Histriam in Dalmatia.,Aquileia-Salona,,,,,Iader,Iader,Iader,stadia, CCCCL,stadia CCCCL,450.0,,https://pleiades.stoa.org/places/197312,44.115501,15.223778,,urban,
72,,,8. De Italia per Histriam in Dalmatia.,Aquileia-Salona,,,,,Blandona,Blandona,Blandona,m. p.,XX,m. p. XX,20.0,,https://pleiades.stoa.org/places/197172,43.986045,15.501533,,station,
73,,,8. De Italia per Histriam in Dalmatia.,Aquileia-Salona,,,,,Arausa,Arausa,Arausa,m. p.,XX,m. p. XX,20.0,,https://pleiades.stoa.org/places/197133,43.804229,15.79233,,settlement,
74,,,8. De Italia per Histriam in Dalmatia.,Aquileia-Salona,,,,,Praetorio,Praetorium,Praetorium,m. p.,XXX,m. p. XXX,30.0,,https://pleiades.stoa.org/places/903012852,,,,unknown,
75,,,8. De Italia per Histriam in Dalmatia.,Aquileia-Salona,,,,,Tragurio,Tragurium,Tragurium,m. p.,XV,m. p. XV,15.0,,https://pleiades.stoa.org/places/197555,43.517639,16.25063,,settlement,
76,,,8. De Italia per Histriam in Dalmatia.,Aquileia-Salona,,,,,Salonas,Salona,Salona,m. p.,XIII,m. p. XIII,13.0,,https://pleiades.stoa.org/places/197488,43.539561,16.483426,,settlement,
77,,272.8-9,8. De Italia per Histriam in Dalmatia.,Aquileia-Siscia,sum-route-start,Ab Aquileia per Liburniam Sisciam m. p. CCXIII:,,,Aquileia,Aquileia,Aquileia,,,,,,https://pleiades.stoa.org/places/187290,45.769631,13.370946,,,
78,,272.8-9,8. De Italia per Histriam in Dalmatia.,Aquileia-Siscia,sum-route-end,Ab Aquileia per Liburniam Sisciam m. p. CCXIII:,,,Sisciam,Segestica/Siscia?,Siscia,m. p.,CCXIII, m. p. CCXIII,,,https://pleiades.stoa.org/places/197504,45.483168,16.371388,,,
79,,,8. De Italia per Histriam in Dalmatia.,Aquileia-Siscia,,,,,,Aquileia,Aquileia,,,,0.0,,https://pleiades.stoa.org/places/187290,45.769631,13.370946,,settlement,
80,,,8. De Italia per Histriam in Dalmatia.,Aquileia-Siscia,,,,,Fonte Timavi,Fons Timavi,Fons Timavi,m. p.,XII,m. p. XII,12.0,,https://pleiades.stoa.org/places/187383,45.7903786608938,13.589862971460700,fons,settlement,
81,,,8. De Italia per Histriam in Dalmatia.,Aquileia-Siscia,,,,,Avesica,Avesica,Avesica,m. p.,XII,m. p. XII,12.0,,https://pleiades.stoa.org/places/187302,45.717745,13.811925,,station,
82,,,8. De Italia per Histriam in Dalmatia.,Aquileia-Siscia,,,ad,,Ad Malum,Ad Malum,Ad Malum,m. p.,XVIII,m. p. XVIII,18.0,,https://pleiades.stoa.org/places/197070,45.580328,13.996584,,station,
83,,,8. De Italia per Histriam in Dalmatia.,Aquileia-Siscia,,,ad,,Ad Titulos,Ad Titulos,Ad Titulos?,m. p.,XVII,m. p. XVII,17.0,,https://pleiades.stoa.org/places/197087,45.481151,14.251372,,station,
84,,,8. De Italia per Histriam in Dalmatia.,Aquileia-Siscia,,,,,Tharsatico,Tarsatica,Tarsatica,m. p.,XVII,m. p. XVII,17.0,,https://pleiades.stoa.org/places/197541,45.330309,14.46247,,settlement,
85,,,8. De Italia per Histriam in Dalmatia.,Aquileia-Siscia,,,ad,,Ad Turres,Ad Turres,Ad Turres,m. p.,XX,m. p. XX,20.0,,https://pleiades.stoa.org/places/197088,45.174936,14.689261,turris,station,
86,,,8. De Italia per Histriam in Dalmatia.,Aquileia-Siscia,,,,,Senia,Senia,Senia,m. p.,XX,m. p. XX,20.0,,https://pleiades.stoa.org/places/197505,44.990472,14.900874,,settlement,
87,,,8. De Italia per Histriam in Dalmatia.,Aquileia-Siscia,,,,,Avendone,Avendon,Avendo,m. p.,XVIII,m. p. XVIII,18.0,,https://pleiades.stoa.org/places/197152,44.940597,15.131095,,station,
88,,,8. De Italia per Histriam in Dalmatia.,Aquileia-Siscia,,,,,Arupio,Arupium,Arupium,m. p.,X,m. p. X,10.0,,https://pleiades.stoa.org/places/197143,44.84851,15.268748,,settlement,
89,,,8. De Italia per Histriam in Dalmatia.,Aquileia-Siscia,,,,,Bibium,Bivium,Bivium,m. p.,X,m. p. X,10.0,,https://pleiades.stoa.org/places/203107,,,,unlocated,
90,,,8. De Italia per Histriam in Dalmatia.,Aquileia-Siscia,,,,,Romula,Romula,Romula,m. p.,X,m. p. X,10.0,,https://pleiades.stoa.org/places/197477,45.865867,15.666591,,station,
91,,,8. De Italia per Histriam in Dalmatia.,Aquileia-Siscia,,,,,Quadranta,Quadrato,,m. p.,XIIII,m. p. XIIII,14.0,,,,,,unknown,
92,,,8. De Italia per Histriam in Dalmatia.,Aquileia-Siscia,,,ad fines,,Ad Fines,Ad Fines,Ad Fines,m. p.,XIIII,m. p. XIIII,14.0,,https://pleiades.stoa.org/places/197060,45.634072,16.1159484,,station,
93,,,8. De Italia per Histriam in Dalmatia.,Aquileia-Siscia,,,,,Sisciae,Siscia,Segestica/Siscia,m. p.,XXI,m. p. XXI,21.0,,https://pleiades.stoa.org/places/197504,45.483168,16.371388,,settlement,
94,,274.8-9,8. De Italia per Histriam in Dalmatia.,Augusta Vindelicum-Verona,sum-route-start,Item ab Augusta Vindelicum Verona m. p. CCLXXII:,,,Augusta Vindelicum,Augusta Vindelicum/Aelia Augusta,Augusta Vindelicum/Aelia Augusta,,,,,,https://pleiades.stoa.org/places/118580,48.365463,10.894765,,,
95,,274.8-9,8. De Italia per Histriam in Dalmatia.,Augusta Vindelicum-Verona,sum-route-end,Item ab Augusta Vindelicum Verona m. p. CCLXXII:,,,Verona,Verona,Verona,m. p.,CCLXXII, m. p. CCLXXII,,,https://pleiades.stoa.org/places/383816,45.4421295463369,10.995736005074000,,,
96,,,8. De Italia per Histriam in Dalmatia.,Augusta Vindelicum-Verona,,,,,,Augusta Vindelicum/Aelia Augusta,Augusta Vindelicum/Aelia Augusta,,,,0.0,,https://pleiades.stoa.org/places/118580,48.365463,10.894765,,settlement,
97,,,8. De Italia per Histriam in Dalmatia.,Augusta Vindelicum-Verona,,,,,Abuzaco,Abodiacum,Abodiacum,m. p.,XXXVI,m. p. XXXVI,36.0,,https://pleiades.stoa.org/places/187242,47.909892,10.909748,,settlement,
98,,,8. De Italia per Histriam in Dalmatia.,Augusta Vindelicum-Verona,,,,,Parthano,Parthanum,*Parthanum/*Tartenum,m. p.,XXX,m. p. XXX,30.0,,https://pleiades.stoa.org/places/187505,47.49237,11.086258,,station,
99,,,8. De Italia per Histriam in Dalmatia.,Augusta Vindelicum-Verona,,,,,Veldidena,Veldidena,Veldidena,m. p.,XXX,m. p. XXX,30.0,,https://pleiades.stoa.org/places/187608,47.253961,11.399902,,settlement,
100,,,8. De Italia per Histriam in Dalmatia.,Augusta Vindelicum-Verona,,,,,Vipiteno,Vipitenum,*Vipitenum,m. p.,XXXVI,m. p. XXXVI,36.0,,https://pleiades.stoa.org/places/187621,46.89921,11.431153,,station,
101,,,8. De Italia per Histriam in Dalmatia.,Augusta Vindelicum-Verona,,,,,Sublavione,Saebio,‘Sublavione’,m. p.,XXXII,m. p. XXXII,32.0,,https://pleiades.stoa.org/places/187561,46.63961,11.564796,,settlement,
102,,,8. De Italia per Histriam in Dalmatia.,Augusta Vindelicum-Verona,,,,,Endidae,Endidae,Endidae,m. p.,XXIIII,m. p. XXIIII,24.0,,https://pleiades.stoa.org/places/187368,46.317814,11.273762,,station,
103,,,8. De Italia per Histriam in Dalmatia.,Augusta Vindelicum-Verona,,,,,Tridento,Tridentum,Trident(i)um,m. p.,XXIIII,m. p. XXIIII,24.0,,https://pleiades.stoa.org/places/383804,46.0667685,11.119135,,settlement,
104,,,8. De Italia per Histriam in Dalmatia.,Augusta Vindelicum-Verona,,,ad,,Ad Palatium,Ad Palatium,Ad Palatium,m. p.,XXIIII,m. p. XXIIII,24.0,,https://pleiades.stoa.org/places/393365,45.757783,11.000245,palatium,station,
105,,,8. De Italia per Histriam in Dalmatia.,Augusta Vindelicum-Verona,,,,,Verona,Verona,Verona,m. p.,XXXVI,m. p. XXXVI,36.0,,https://pleiades.stoa.org/places/383816,45.4421295463369,10.995736005074000,,settlement,
106,,276.1,8. De Italia per Histriam in Dalmatia.,Aquileia-Lauriacum,sum-route-start,Ab Aquileia Lauriaco m. p. CCLXXII:,,,Aquileia,Aquileia,Aquileia,,,,,,https://pleiades.stoa.org/places/187290,45.769631,13.370946,,,
107,,276.1,8. De Italia per Histriam in Dalmatia.,Aquileia-Lauriacum,sum-route-end,Ab Aquileia Lauriaco m. p. CCLXXII:,,,Lauriaco,Lauriacum,Lauriacum,m. p.,CCLXXII, m. p. CCLXXII,,,https://pleiades.stoa.org/places/118802,48.2186795,14.470479000000000,,,
108,,,8. De Italia per Histriam in Dalmatia.,Aquileia-Lauriacum,,,,,,Aquileia,Aquileia,,,,0.0,,https://pleiades.stoa.org/places/187290,45.769631,13.370946,,settlement,
109,,,8. De Italia per Histriam in Dalmatia.,Aquileia-Lauriacum,,viam Belloio,viam,,Belloio,Belloium,Belloi,m. p.,XXX,m. p. XXX,30.0,,https://pleiades.stoa.org/places/246234,41.2838166214,-1.31952080002,,"map label location, people, tribe (historical cultural group)",
110,,,8. De Italia per Histriam in Dalmatia.,Aquileia-Lauriacum,,,,,Larice,Larix,Larix,m. p.,XXIIII,m. p. XXIIII,24.0,,https://pleiades.stoa.org/places/203134,,,,unlocated,
111,,,8. De Italia per Histriam in Dalmatia.,Aquileia-Lauriacum,,,,,Santico,Santicum,Santicum,m. p.,XXIIII,m. p. XXIIII,24.0,,https://pleiades.stoa.org/places/187537,46.615977,13.848725,,station,
112,,,8. De Italia per Histriam in Dalmatia.,Aquileia-Lauriacum,,,,,Viruno,Virunum,Virunum,m. p.,XXX,m. p. XXX,30.0,,https://pleiades.stoa.org/places/197583,46.6996149,14.3647773,,settlement,
113,,,8. De Italia per Histriam in Dalmatia.,Aquileia-Lauriacum,,,,,Candalicas,Candalicae,Candalicae,m. p.,XX,m. p. XX,20.0,,https://pleiades.stoa.org/places/197188,46.977266,14.376345,,station,
114,,,8. De Italia per Histriam in Dalmatia.,Aquileia-Lauriacum,,,,,Monate,Monate,Monate,m. p.,XXX,m. p. XXX,30.0,,https://pleiades.stoa.org/places/197383,47.216049,14.488806,,settlement,
115,,,8. De Italia per Histriam in Dalmatia.,Aquileia-Lauriacum,,,,,Sabatinca,Sabatinca,Sabatinca,m. p.,XVIII,m. p. XVIII,18.0,,https://pleiades.stoa.org/places/197481,47.357382,14.469009,,station,
116,,,8. De Italia per Histriam in Dalmatia.,Aquileia-Lauriacum,,,,,Gabromago,Gabromagus,‘Gabromago’,m. p.,XXX,m. p. XXX,30.0,,https://pleiades.stoa.org/places/197282,47.721923,14.328402,,settlement,
117,,,8. De Italia per Histriam in Dalmatia.,Aquileia-Lauriacum,,,,,Tutatione,Tutatione,‘Tutatio’,m. p.,XX,m. p. XX,20.0,,https://pleiades.stoa.org/places/187597,47.888663,14.121129,,station,
118,,,8. De Italia per Histriam in Dalmatia.,Aquileia-Lauriacum,,,,,Ovilavis,Ovilava,Ovilava,m. p.,XX,m. p. XX,20.0,,https://pleiades.stoa.org/places/118901,48.1733764179481,14.014603317327400,,settlement,
119,,,8. De Italia per Histriam in Dalmatia.,Aquileia-Lauriacum,,,,,Lauriaco,Lauriacum,Lauriacum,m. p.,XXVI,m. p. XXVI,26.0,,https://pleiades.stoa.org/places/118802,48.2186795,14.470479000000000,,fort,
120,,277.4-5,8. De Italia per Histriam in Dalmatia.,Brigantium-Mediolanum,sum-route-start,A Brigantia per lacum Mediolanium m. p. CXXXVIII:,,,Brigantia,Brigantium,Brigantium,,,,,,https://pleiades.stoa.org/places/187325,47.503041,9.747061,,,
121,,277.4-5,8. De Italia per Histriam in Dalmatia.,Brigantium-Mediolanum,sum-route-end,A Brigantia per lacum Mediolanium m. p. CXXXVIII:,,,Mediolanium,Mediolanum,Mediolan(i)um,m. p.,CXXXVIII, m. p. CXXXVIII,,,https://pleiades.stoa.org/places/383706,45.463746,9.18806,,,
122,,,8. De Italia per Histriam in Dalmatia.,Brigantium-Mediolanum,,,per lacum,,,Brigantium,Brigantium,,,,0.0,,https://pleiades.stoa.org/places/187325,47.503041,9.747061,,settlement,
123,,,8. De Italia per Histriam in Dalmatia.,Brigantium-Mediolanum,,,,,Curia,Curia,Curia,m. p.,L,m. p. L,50.0,,https://pleiades.stoa.org/places/187357,46.8485485,9.533107000000000,,settlement,
124,,,8. De Italia per Histriam in Dalmatia.,Brigantium-Mediolanum,,,,,Tinnetione,Tinnetio,*Tinnetio,m. p.,XX,m. p. XX,20.0,,https://pleiades.stoa.org/places/187589,46.583117,9.61699,,station,
125,,,8. De Italia per Histriam in Dalmatia.,Brigantium-Mediolanum,,,,,Muro,Murus,Murus,m. p.,XV,m. p. XV,15.0,,https://pleiades.stoa.org/places/187485,46.335002,9.554578,,station,
126,,,8. De Italia per Histriam in Dalmatia.,Brigantium-Mediolanum,,,,,Summo Laco,Summus Lacus,*Summus L.,m. p.,XX,m. p. XX,20.0,,https://pleiades.stoa.org/places/187562,46.2031189,9.4301481,lacus,lake,
127,,,8. De Italia per Histriam in Dalmatia.,Brigantium-Mediolanum,,,,,Como,Comum,Comum,m. p.,XV,m. p. XV,15.0,,https://pleiades.stoa.org/places/383627,45.81192,9.085784,,settlement,
128,,,8. De Italia per Histriam in Dalmatia.,Brigantium-Mediolanum,,,,,Mediolano,Mediolanum,Mediolan(i)um,m. p.,XVIII,m. p. XVIII,18.0,,https://pleiades.stoa.org/places/383706,45.463746,9.18806,,settlement,
129,,278.3,8. De Italia per Histriam in Dalmatia.,Brigantium-Comum,sum-route-start,Alio itinere a Brigantia Comum m. p. CXCV sic:,,,Brigantia,Brigantium,Brigantium,,,,,,https://pleiades.stoa.org/places/187325,47.503041,9.747061,,,
130,,278.3,8. De Italia per Histriam in Dalmatia.,Brigantium-Comum,sum-route-end,Alio itinere a Brigantia Comum m. p. CXCV sic:,,,Comum,Comum,Comum,m. p.,CXCV , m. p. CXCV ,,,https://pleiades.stoa.org/places/383627,45.81192,9.085784,,,
131,,,8. De Italia per Histriam in Dalmatia.,Brigantium-Comum,,,,,,Brigantium,Brigantium,,,,0.0,,https://pleiades.stoa.org/places/187325,47.503041,9.747061,,settlement,
132,,,8. De Italia per Histriam in Dalmatia.,Brigantium-Comum,,,,,Curia,Curia,Curia,m. p.,L,m. p. L,50.0,,https://pleiades.stoa.org/places/187357,46.8485485,9.533107000000000,,settlement,
133,,,8. De Italia per Histriam in Dalmatia.,Brigantium-Comum,,,,,Tarvesede,Tarvesede,*Tarvessedum,m. p.,LX,m. p. LX,60.0,,https://pleiades.stoa.org/places/187572,46.403017,9.353376,,station,
134,,,8. De Italia per Histriam in Dalmatia.,Brigantium-Comum,,,,,Clavenna,Clavenna,Clavenna,m. p.,XV,m. p. XV,15.0,,https://pleiades.stoa.org/places/187349,46.319789,9.397884,,station,
135,,,8. De Italia per Histriam in Dalmatia.,Brigantium-Comum,,Ad lacum Comacinum,ad,,lacum Comacinum,Lacus Comacinus,Larius/Comacinus L.,m. p.,X,m. p. X,10.0,,https://pleiades.stoa.org/places/383689,46.0,9.266667,lacus,lake,
136,,,8. De Italia per Histriam in Dalmatia.,Brigantium-Comum,,Per lacum Comum usque,per,,Comum,Comum,Comum,m. p.,LX,m. p. LX,60.0,,https://pleiades.stoa.org/places/383627,45.81192,9.085784,lacus,settlement,
137,,279.2-3,8. De Italia per Histriam in Dalmatia.,Aquileia-Veldidena,sum-route-start,Item ab Aquileia per conpendium Veldidena m. p. CCXV sic:,,,Aquileia,Aquileia,Aquileia,,,,,,https://pleiades.stoa.org/places/187290,45.769631,13.370946,,,
138,,279.2-3,8. De Italia per Histriam in Dalmatia.,Aquileia-Veldidena,sum-route-end,Item ab Aquileia per conpendium Veldidena m. p. CCXV sic:,,,Veldidena,Veldidena,Veldidena,m. p.,CCXV , m. p. CCXV ,,,https://pleiades.stoa.org/places/187608,47.253961,11.399902,,,
139,,,8. De Italia per Histriam in Dalmatia.,Aquileia-Veldidena,,,per compendium,,,Aquileia,Aquileia,,,,0.0,,https://pleiades.stoa.org/places/187290,45.769631,13.370946,,settlement,
140,,,8. De Italia per Histriam in Dalmatia.,Aquileia-Veldidena,,,ad,,Ad Tricensimum,Tricesimus,Ad Trice(n)simum,m. p.,XXX,m. p. XXX,30.0,,https://pleiades.stoa.org/places/187259,46.15763,13.216109,,station,
141,,,8. De Italia per Histriam in Dalmatia.,Aquileia-Veldidena,,,,,Iulio Carnico,Iulium Carnicum,Iulium Carnicum,m. p.,XXX,m. p. XXX,30.0,,https://pleiades.stoa.org/places/187430,46.460709,13.025781,,settlement,
142,,,8. De Italia per Histriam in Dalmatia.,Aquileia-Veldidena,,,,,Longio,Loncium,Loncium?,m. p.,XXII,m. p. XXII,22.0,,https://pleiades.stoa.org/places/187460,46.662562,12.999485,,station,
143,,,8. De Italia per Histriam in Dalmatia.,Aquileia-Veldidena,,,,,Agunto,Aguntum,Aguntum,m. p.,XVIII,m. p. XVIII,18.0,,https://pleiades.stoa.org/places/187265,46.8274616,12.8228592,,settlement,
144,,,8. De Italia per Histriam in Dalmatia.,Aquileia-Veldidena,,,,,Littamo,Littamum,‘Littamum’,m. p.,XXIII,m. p. XXIII,23.0,,https://pleiades.stoa.org/places/187459,46.733931,12.280018,,station,
145,,,8. De Italia per Histriam in Dalmatia.,Aquileia-Veldidena,,,,,Sebato,Sebatum,‘Sebatum’,m. p.,XXIII,m. p. XXIII,23.0,,https://pleiades.stoa.org/places/187546,46.786776,11.910581,,station,
146,,,8. De Italia per Histriam in Dalmatia.,Aquileia-Veldidena,,,,,Vipiteno,Vipitenum,*Vipitenum,m. p.,XXXIII,m. p. XXXIII,33.0,,https://pleiades.stoa.org/places/187621,46.89921,11.431153,,station,
147,,,8. De Italia per Histriam in Dalmatia.,Aquileia-Veldidena,,,,,Veldidena,Veldidena,Veldidena,m. p.,XXXVI,m. p. XXXVI,36.0,,https://pleiades.stoa.org/places/187608,47.253961,11.399902,,settlement,
148,,280.5,8. De Italia per Histriam in Dalmatia.,Opitergium-Tridentum,sum-route-start,Ab Opitergio Tridento m. p. CX sic:,,,Opitergio,Opitergium,Opitergium,,,,,,https://pleiades.stoa.org/places/393459,45.781212,12.493677,,,
149,,280.5,8. De Italia per Histriam in Dalmatia.,Opitergium-Tridentum,sum-route-end,Ab Opitergio Tridento m. p. CX sic:,,,Tridento,Tridentum,Trident(i)um,m. p.,CX , m. p. CX ,,,https://pleiades.stoa.org/places/383804,46.0667685,11.119135,,,
150,,,8. De Italia per Histriam in Dalmatia.,Opitergium-Tridentum,,,,,,Opitergium,Opitergium,,,,0.0,,https://pleiades.stoa.org/places/393459,45.781212,12.493677,,settlement,
151,,,8. De Italia per Histriam in Dalmatia.,Opitergium-Tridentum,,,ad,,Ad Cerasias,Ad Cerasias,Ad Cerasias,m. p.,XXVIII,m. p. XXVIII,28.0,,https://pleiades.stoa.org/places/393360,45.8935235,12.002833500000000,,station,
152,,,8. De Italia per Histriam in Dalmatia.,Opitergium-Tridentum,,,,,Feltria,Feltria,Feltria,m. p.,XXVIII,m. p. XXVIII,28.0,,https://pleiades.stoa.org/places/187377,46.016583,11.905691,,settlement,
153,,,8. De Italia per Histriam in Dalmatia.,Opitergium-Tridentum,,,,,Ausuco,Ansugo,Ausucum,m. p.,XXX,m. p. XXX,30.0,,https://pleiades.stoa.org/places/187301,46.052395,11.455454,,fort,
154,,,8. De Italia per Histriam in Dalmatia.,Opitergium-Tridentum,,,,,Tridento,Tridentum,Trident(i)um,m. p.,XXIIII,m. p. XXIIII,24.0,,https://pleiades.stoa.org/places/383804,46.0667685,11.119135,,settlement,
155,,281.2,8. De Italia per Histriam in Dalmatia.,Aquileia-Bononia,sum-route-start,Item ab Aquileia Bononiam m. p. ?:,,,Aquileia,Aquileia,Aquileia,,,,,,https://pleiades.stoa.org/places/187290,45.769631,13.370946,,,
156,,281.2,8. De Italia per Histriam in Dalmatia.,Aquileia-Bononia,sum-route-end,Item ab Aquileia Bononiam m. p. ?:,,,Bononia,Bononia,Bononia,m. p.,?, m. p. ?,,,https://pleiades.stoa.org/places/206975,43.993221,22.8759,,,
157,,,8. De Italia per Histriam in Dalmatia.,Aquileia-Bononia,,,,,,Aquileia,Aquileia,,,,0.0,,https://pleiades.stoa.org/places/187290,45.769631,13.370946,,settlement,
158,,,8. De Italia per Histriam in Dalmatia.,Aquileia-Bononia,,,,,Concordia,Concordia,Iulia Concordia,m. p.,XXXI,m. p. XXXI,31.0,,https://pleiades.stoa.org/places/393441,45.7582850004972,12.842768021846000,,settlement,
159,,,8. De Italia per Histriam in Dalmatia.,Aquileia-Bononia,,,,,Altino,Altinum,Altinum,m. p.,XXXI,m. p. XXXI,31.0,,https://pleiades.stoa.org/places/393374,45.546273120778500,12.399681393423600,,settlement,
160,,,8. De Italia per Histriam in Dalmatia.,Aquileia-Bononia,,,,,Patavis,Patavium,Patavium,m. p.,XXXII,m. p. XXXII,32.0,,https://pleiades.stoa.org/places/393473,45.409561,11.876975,,settlement,
161,,,8. De Italia per Histriam in Dalmatia.,Aquileia-Bononia,,,,,Ateste,Ateste,Ateste,m. p.,XXV,m. p. XXV,25.0,,https://pleiades.stoa.org/places/393382,45.227738,11.656616,,settlement,
162,,,8. De Italia per Histriam in Dalmatia.,Aquileia-Bononia,,,,,Anneiano,Anneianum,Anneianum,m. p.,XX,m. p. XX,20.0,,https://pleiades.stoa.org/places/397887,,,,unlocated,
163,,,8. De Italia per Histriam in Dalmatia.,Aquileia-Bononia,,,,,Vico Variano,Vicus Varianus,Vicus Varianus,m. p.,XVIII,m. p. XVIII,18.0,,https://pleiades.stoa.org/places/393516,44.841111,11.495837,vicus,station,
164,,,8. De Italia per Histriam in Dalmatia.,Aquileia-Bononia,,,,,Vico Sernino,Vicus Serninus,Vicus Serninus,m. p.,XX,m. p. XX,20.0,,https://pleiades.stoa.org/places/393515,44.721559,11.15096,vicus,station,
165,,,8. De Italia per Histriam in Dalmatia.,Aquileia-Bononia,,,,,Mutina,Mutina,Mutina,m. p.,XIII,m. p. XIII,13.0,,https://pleiades.stoa.org/places/383715,44.647057,10.925223,,settlement,
166,,,8. De Italia per Histriam in Dalmatia.,Aquileia-Bononia,,,,,Bononia,Bononia,Felsina/Bononia,m. p.,XVIII,m. p. XVIII,18.0,,https://pleiades.stoa.org/places/393421,44.4945737,11.3455467,,settlement,
167,,282.3,8. De Italia per Histriam in Dalmatia.,Verona-Bononia,sum-route-start,A Verona Bononia m. p. CV:,,,Verona,Verona,Verona,,,,,,https://pleiades.stoa.org/places/383816,45.4421295463369,10.995736005074000,,,
168,,282.3,8. De Italia per Histriam in Dalmatia.,Verona-Bononia,sum-route-end,A Verona Bononia m. p. CV:,,,Bononia,Bononia,Bononia,m. p.,CV, m. p. CV,,,https://pleiades.stoa.org/places/206975,43.993221,22.8759,,,
169,,,8. De Italia per Histriam in Dalmatia.,Verona-Bononia,,,,,,Verona,Verona,,,,0.0,,https://pleiades.stoa.org/places/383816,45.4421295463369,10.995736005074000,,settlement,
170,,,8. De Italia per Histriam in Dalmatia.,Verona-Bononia,,,,,Hostilia,Hostilia,Hostilia,m. p.,XXX,m. p. XXX,30.0,,https://pleiades.stoa.org/places/393438,45.070242,11.137868,,station,
171,,,8. De Italia per Histriam in Dalmatia.,Verona-Bononia,,,,,Colicaria,Colicaria,Colicaria,m. p.,XXV,m. p. XXV,25.0,,https://pleiades.stoa.org/places/393407,44.891684,10.997984,,station,
172,,,8. De Italia per Histriam in Dalmatia.,Verona-Bononia,,,,,Mutina,Mutina,Mutina,m. p.,XXV,m. p. XXV,25.0,,https://pleiades.stoa.org/places/383715,44.647057,10.925223,,settlement,
173,,,8. De Italia per Histriam in Dalmatia.,Verona-Bononia,,,,,Bononia,Bononia,Felsina/Bononia,m. p.,XXV,m. p. XXV,25.0,,https://pleiades.stoa.org/places/393421,44.4945737,11.3455467,,settlement,
174,,282.8,8. De Italia per Histriam in Dalmatia.,Vercellae-Laus Pompeia,sum-route-start,A Vercellas Laude m. p. LXX:,,,Vercellas,Vercellae,Vercellae,,,,,,https://pleiades.stoa.org/places/383815,45.321094,8.426374,,,
175,,282.8,8. De Italia per Histriam in Dalmatia.,Vercellae-Laus Pompeia,sum-route-end,A Vercellas Laude m. p. LXX:,,,Laude,Laus Pompeia,Laus Pompeia,m. p.,LXX, m. p. LXX,,,https://pleiades.stoa.org/places/383691,45.303456,9.418776,,,
176,,,8. De Italia per Histriam in Dalmatia.,Vercellae-Laus Pompeia,,,,,,Vercellae,Vercellae,,,,0.0,,https://pleiades.stoa.org/places/383815,45.321094,8.426374,,settlement,
177,,,8. De Italia per Histriam in Dalmatia.,Vercellae-Laus Pompeia,,,,,Laumello,Laumellum,Laumellum,m. p.,XXV,m. p. XXV,25.0,,https://pleiades.stoa.org/places/383690,45.122041,8.79735,,fort,
178,,,8. De Italia per Histriam in Dalmatia.,Vercellae-Laus Pompeia,,,,,Ticino,Ticinum,Ticinum,m. p.,XXII,m. p. XXII,22.0,,https://pleiades.stoa.org/places/383798,45.185899,9.156562,,settlement,
179,,,8. De Italia per Histriam in Dalmatia.,Vercellae-Laus Pompeia,,,,,Laude,Laus Pompeia,Laus Pompeia,m. p.,XXIII,m. p. XXIII,23.0,,https://pleiades.stoa.org/places/383691,45.303456,9.418776,,settlement,
180,,283.3,8. De Italia per Histriam in Dalmatia.,Cremona-Bononia,sum-route-start,A Cremona Bononia m. p. ?:,,,Cremona,Cremona,Cremona,,,,,,https://pleiades.stoa.org/places/383628,45.133639,10.026149,,,
181,,283.3,8. De Italia per Histriam in Dalmatia.,Cremona-Bononia,sum-route-end,A Cremona Bononia m. p. ?:,,,Bononia,Bononia,Bononia,m. p.,?, m. p. ?,,,https://pleiades.stoa.org/places/206975,43.993221,22.8759,,,
182,,,8. De Italia per Histriam in Dalmatia.,Cremona-Bononia,,,,,,Cremona,Cremona,,,,0.0,,https://pleiades.stoa.org/places/383628,45.133639,10.026149,,settlement,
183,,,8. De Italia per Histriam in Dalmatia.,Cremona-Bononia,,,,,Brixello,Brixellum,Brixellum,m. p.,XXXII,m. p. XXXII,32.0,,https://pleiades.stoa.org/places/383602,44.9002895,10.51527755,,settlement,
184,,,8. De Italia per Histriam in Dalmatia.,Cremona-Bononia,,,,,Regio,Regium,Regium Lepidum,m. p.,XII,m. p. XII,12.0,,https://pleiades.stoa.org/places/383755,44.698137,10.630721,,settlement,
185,,,8. De Italia per Histriam in Dalmatia.,Cremona-Bononia,,,,,Mutina,Mutina,Mutina,m. p.,XVII,m. p. XVII,17.0,,https://pleiades.stoa.org/places/383715,44.647057,10.925223,,settlement,
186,,,8. De Italia per Histriam in Dalmatia.,Cremona-Bononia,,,,,Bononia,Bononia,Felsina/Bononia,m. p.,XXV,m. p. XXV,25.0,,https://pleiades.stoa.org/places/393421,44.4945737,11.3455467,,settlement,
187,,283.8,8. De Italia per Histriam in Dalmatia.,Faventia-Luca,sum-route-start,Item a Faventia Luca m. p. CXX:,,,Faventia,Faventia,Faventia,,,,,,https://pleiades.stoa.org/places/393420,44.286236,11.883507,,,
188,,283.8,8. De Italia per Histriam in Dalmatia.,Faventia-Luca,sum-route-end,Item a Faventia Luca m. p. CXX:,,,Luca,Luca,Luca,m. p.,CXX, m. p. CXX,,,https://pleiades.stoa.org/places/403234,43.84184,10.50703,,,
189,,,8. De Italia per Histriam in Dalmatia.,Faventia-Luca,,,,,,Faventia,Faventia,,,,0.0,,https://pleiades.stoa.org/places/393420,44.286236,11.883507,,settlement,
190,,,8. De Italia per Histriam in Dalmatia.,Faventia-Luca,,,in,,In Castello,In Castello,Castellum,m. p.,XXV,m. p. XXV,25.0,,https://pleiades.stoa.org/places/393401,44.077213,11.594755,castellum,station,
191,,,8. De Italia per Histriam in Dalmatia.,Faventia-Luca,,,,,Anneiano,Anneianum,Anneianum,m. p.,XXV,m. p. XXV,25.0,,https://pleiades.stoa.org/places/413016,43.956438,11.38452,,settlement,
192,,,8. De Italia per Histriam in Dalmatia.,Faventia-Luca,,,,,Florentia,Florentia,Florentia,m. p.,XX,m. p. XX,20.0,,https://pleiades.stoa.org/places/413138,43.768755,11.256929,,settlement,
193,,,8. De Italia per Histriam in Dalmatia.,Faventia-Luca,,,,,Pistoris,Pistoriae,Pistoriae,m. p.,XXV,m. p. XXV,25.0,,https://pleiades.stoa.org/places/403254,43.932766,10.918243500000000,,settlement,
194,,,8. De Italia per Histriam in Dalmatia.,Faventia-Luca,,,,,Luca,Luca,Luca,m. p.,XXV,m. p. XXV,25.0,,https://pleiades.stoa.org/places/403234,43.84184,10.50703,,settlement,
195,,284.5,8. De Italia per Histriam in Dalmatia.,Parma-Luca,,Item a Perme Laca m. p. C.,,,Perme,Parma?,Parma,,,,0.0,,https://pleiades.stoa.org/places/383737,44.801507,10.327967,,settlement,I suspect this itinerary is missing the smaller parts
196,,,8. De Italia per Histriam in Dalmatia.,Parma-Luca,,Item a Perme Laca m. p. C.,,,Laca,Luca?,Luca,m. p.,C,m. p. C,100.0,,https://pleiades.stoa.org/places/403234,43.84184,10.50703,,settlement,